[
  {
    "name": "Canapé Premium Music Bar",
    "category": "Bar musical",
    "address": "Carrer de la Muntanya, 34, Sant Martí, 08026 Barcelona",
    "website": "NO_WEBSITE",
    "phone": "NO_PHONE",
    "city": "NO_CITY",
    "auxiliar": "NOT_FOUND",
    "reviews_rating": "3.9",
    "num_reviews": "427",
    "description": "NOT_FOUND",
    "schedule": [
      {
        "day": "viernes",
        "hours": "21:00–3:30"
      },
      {
        "day": "sábado",
        "hours": "21:00–3:30"
      },
      {
        "day": "domingo",
        "hours": "17:00–3:00"
      },
      {
        "day": "lunes",
        "hours": "21:00–3:00"
      },
      {
        "day": "martes",
        "hours": "21:00–3:00"
      },
      {
        "day": "miércoles",
        "hours": "21:00–3:00"
      },
      {
        "day": "jueves",
        "hours": "21:00–3:00"
      }
    ]
  },
  {
    "name": "The Secret Garden Restaurant & Lounge Club",
    "category": "Restaurante",
    "address": "Carrer de Salvador Espriu, 79, Sant Martí, 08005 Barcelona",
    "website": "thesecretgardenbcn.es",
    "phone": "641464872",
    "city": "Barcelona",
    "auxiliar": "Menú",
    "reviews_rating": "4.7",
    "num_reviews": "450",
    "description": "NOT_FOUND",
    "schedule": [
      {
        "day": "viernes",
        "hours": "20:00–3:00"
      },
      {
        "day": "sábado",
        "hours": "20:00–3:00"
      },
      {
        "day": "domingo",
        "hours": "20:00–3:00"
      },
      {
        "day": "lunes",
        "hours": "Cerrado"
      },
      {
        "day": "martes",
        "hours": "Cerrado"
      },
      {
        "day": "miércoles",
        "hours": "20:00–3:00"
      },
      {
        "day": "jueves",
        "hours": "20:00–3:00"
      }
    ],
    "email": "NO_EMAIL"
  },
  {
    "name": "NIGHT & DAY",
    "category": "Pub",
    "address": "Carrer dels Almogàvers, 62, Sant Martí, 08018 Barcelona",
    "website": "linktr.ee",
    "phone": "622380323",
    "city": "NO_CITY",
    "auxiliar": "Menú",
    "reviews_rating": "4.2",
    "num_reviews": "395",
    "description": "Discoteca con zona de sofás tipo chill out más cachimbas y música de bachata, reggaeton, salsa o house.",
    "schedule": [
      {
        "day": "viernes",
        "hours": "20:00–4:00"
      },
      {
        "day": "sábado",
        "hours": "20:00–4:00"
      },
      {
        "day": "domingo",
        "hours": "20:00–3:00"
      },
      {
        "day": "lunes",
        "hours": "20:00–3:00"
      },
      {
        "day": "martes",
        "hours": "20:00–3:00"
      },
      {
        "day": "miércoles",
        "hours": "20:00–3:00"
      },
      {
        "day": "jueves",
        "hours": "20:00–3:00"
      }
    ],
    "email": "NO_EMAIL"
  },
  {
    "name": "Los Panda Lounge",
    "category": "Lounge",
    "address": "Carrer de la Independència, 326, Sant Martí, 08026 Barcelona",
    "website": "facebook.com",
    "phone": "634244970",
    "city": "Barcelona",
    "auxiliar": "NOT_FOUND",
    "reviews_rating": "4.8",
    "num_reviews": "60",
    "description": "NOT_FOUND",
    "schedule": [
      {
        "day": "viernes",
        "hours": "11:00–14:0016:00–22:00"
      },
      {
        "day": "sábado",
        "hours": "16:00–22:00"
      },
      {
        "day": "domingo",
        "hours": "16:00–22:00"
      },
      {
        "day": "lunes",
        "hours": "11:00–14:0016:00–22:00"
      },
      {
        "day": "martes",
        "hours": "11:00–14:0016:00–22:00"
      },
      {
        "day": "miércoles",
        "hours": "11:00–14:0016:00–22:00"
      },
      {
        "day": "jueves",
        "hours": "11:00–14:0016:00–22:00"
      }
    ],
    "email": "NO_EMAIL"
  },
  {
    "name": "Nave La Pau",
    "category": "Club nocturno",
    "address": "Rambla de Prim, 263, Sant Martí, 08020 Barcelona",
    "website": "NO_WEBSITE",
    "phone": "NO_PHONE",
    "city": "NO_CITY",
    "auxiliar": "NOT_FOUND",
    "reviews_rating": "5.0",
    "num_reviews": "1",
    "description": "NOT_FOUND",
    "schedule": [
      {
        "day": "viernes",
        "hours": "Cerrado"
      },
      {
        "day": "sábado",
        "hours": "Abierto 24 horas"
      },
      {
        "day": "domingo",
        "hours": "Abierto 24 horas"
      },
      {
        "day": "lunes",
        "hours": "Cerrado"
      },
      {
        "day": "martes",
        "hours": "Cerrado"
      },
      {
        "day": "miércoles",
        "hours": "Cerrado"
      },
      {
        "day": "jueves",
        "hours": "Cerrado"
      }
    ]
  },
  {
    "name": "Wolf Barcelona",
    "category": "Discoteca",
    "address": "Carrer dels Almogàvers, 88, Sant Martí, 08018 Barcelona",
    "website": "wolfbarcelona.com",
    "phone": "672707844",
    "city": "Barcelona",
    "auxiliar": "Amigable con la comunidad LGTBI+",
    "reviews_rating": "4.3",
    "num_reviews": "7511",
    "description": "NOT_FOUND",
    "schedule": [
      {
        "day": "viernes",
        "hours": "0:00–5:00"
      },
      {
        "day": "sábado",
        "hours": "0:00–6:00"
      },
      {
        "day": "domingo",
        "hours": "0:00–6:00"
      },
      {
        "day": "lunes",
        "hours": "Cerrado"
      },
      {
        "day": "martes",
        "hours": "Cerrado"
      },
      {
        "day": "miércoles",
        "hours": "Cerrado"
      },
      {
        "day": "jueves",
        "hours": "Cerrado"
      }
    ],
    "email": "NO_EMAIL"
  },
  {
    "name": "GIN CLUB SCOTCH",
    "category": "Club nocturno",
    "address": "Carrer de Mallorca, 579, Sant Martí, 08026 Barcelona",
    "website": "NO_WEBSITE",
    "phone": "NO_PHONE",
    "city": "NO_CITY",
    "auxiliar": "NOT_FOUND",
    "reviews_rating": "2.5",
    "num_reviews": "4",
    "description": "NOT_FOUND",
    "schedule": [
      {
        "day": "viernes",
        "hours": "21:00–5:00"
      },
      {
        "day": "sábado",
        "hours": "21:00–5:00"
      },
      {
        "day": "domingo",
        "hours": "Cerrado"
      },
      {
        "day": "lunes",
        "hours": "21:00–5:00"
      },
      {
        "day": "martes",
        "hours": "21:00–5:00"
      },
      {
        "day": "miércoles",
        "hours": "21:00–5:00"
      },
      {
        "day": "jueves",
        "hours": "21:00–5:00"
      }
    ]
  },
  {
    "name": "Sala Razzmatazz",
    "category": "Discoteca",
    "address": "Carrer dels Almogàvers, 122, Sant Martí, 08018 Barcelona",
    "website": "salarazzmatazz.com",
    "phone": "933208200",
    "city": "Barcelona",
    "auxiliar": "NOT_FOUND",
    "reviews_rating": "4.2",
    "num_reviews": "20606",
    "description": "Cervezas y copas en una animada discoteca que ofrece conciertos y sesiones de DJs.",
    "schedule": [
      {
        "day": "viernes",
        "hours": "0:30–5:00"
      },
      {
        "day": "sábado",
        "hours": "1:00–6:00"
      },
      {
        "day": "domingo",
        "hours": "1:00–6:00"
      },
      {
        "day": "lunes",
        "hours": "Cerrado"
      },
      {
        "day": "martes",
        "hours": "Cerrado"
      },
      {
        "day": "miércoles",
        "hours": "Cerrado"
      },
      {
        "day": "jueves",
        "hours": "0:30–5:00"
      }
    ],
    "email": "NO_EMAIL"
  },
  {
    "name": "56 Lounge Bar",
    "category": "Lounge",
    "address": "Carrer de la Marina, 56, Sant Martí, 08005 Barcelona",
    "website": "NO_WEBSITE",
    "phone": "NO_PHONE",
    "city": "NO_CITY",
    "auxiliar": "NOT_FOUND",
    "reviews_rating": "4.0",
    "num_reviews": "149",
    "description": "NOT_FOUND",
    "schedule": [
      {
        "day": "viernes",
        "hours": "16:00–3:00"
      },
      {
        "day": "sábado",
        "hours": "16:00–3:00"
      },
      {
        "day": "domingo",
        "hours": "16:00–3:00"
      },
      {
        "day": "lunes",
        "hours": "17:00–2:30"
      },
      {
        "day": "martes",
        "hours": "17:00–2:30"
      },
      {
        "day": "miércoles",
        "hours": "17:00–2:30"
      },
      {
        "day": "jueves",
        "hours": "17:00–2:30"
      }
    ]
  },
  {
    "name": "Safari Disco Club Barcelona",
    "category": "Discoteca",
    "address": "Carrer de Tarragona, 141, Sants-Montjuïc, 08014 Barcelona",
    "website": "safaridiscoclub.com",
    "phone": "934878342",
    "city": "Barcelona",
    "auxiliar": "Cerrado ⋅ Apertura: 23:59",
    "reviews_rating": "3.8",
    "num_reviews": "2488",
    "description": "Discoteca animada, que abre toda la noche, con dos pistas de bailes y fiestas temáticas.",
    "schedule": "NOT_FOUND",
    "email": "NO_EMAIL"
  },
  {
    "name": "Undead Dark Club",
    "category": "Discoteca",
    "address": "Carrer Violant d'Hongria, 128, Distrito de Sants-Montjuïc, 08028 Barcelona",
    "website": "undeadarkclub.com",
    "phone": "NO_PHONE",
    "city": "NO_CITY",
    "auxiliar": "NOT_FOUND",
    "reviews_rating": "4.3",
    "num_reviews": "199",
    "description": "Oscuro local decorado con estatuas y armaduras especializado en música gothic rock o post punk.",
    "schedule": [
      {
        "day": "viernes",
        "hours": "0:30–5:00"
      },
      {
        "day": "sábado",
        "hours": "0:30–6:00"
      },
      {
        "day": "domingo",
        "hours": "Cerrado"
      },
      {
        "day": "lunes",
        "hours": "Cerrado"
      },
      {
        "day": "martes",
        "hours": "Cerrado"
      },
      {
        "day": "miércoles",
        "hours": "Cerrado"
      },
      {
        "day": "jueves",
        "hours": "Cerrado"
      }
    ],
    "email": "NO_EMAIL"
  },
  {
    "name": "Can Parats",
    "category": "Club nocturno",
    "address": "Travessera de les Corts, 165, Les Corts, 08028 Barcelona",
    "website": "NO_WEBSITE",
    "phone": "NO_PHONE",
    "city": "NO_CITY",
    "auxiliar": "NOT_FOUND",
    "reviews_rating": "4.9",
    "num_reviews": "12",
    "description": "NOT_FOUND",
    "schedule": [
      {
        "day": "viernes",
        "hours": "20:00–1:00"
      },
      {
        "day": "sábado",
        "hours": "20:00–1:00"
      },
      {
        "day": "domingo",
        "hours": "20:00–1:00"
      },
      {
        "day": "lunes",
        "hours": "Cerrado"
      },
      {
        "day": "martes",
        "hours": "20:00–1:00"
      },
      {
        "day": "miércoles",
        "hours": "20:00–1:00"
      },
      {
        "day": "jueves",
        "hours": "20:00–1:00"
      }
    ]
  },
  {
    "name": "Coyotes Disco Pub Barcelona",
    "category": "Discoteca",
    "address": "Carrer del Tenor Masini, 65, Sants-Montjuïc, 08028 Barcelona",
    "website": "coyotes.eatbu.com",
    "phone": "622045829",
    "city": "Barcelona",
    "auxiliar": "Reclamar esta empresa",
    "reviews_rating": "4.0",
    "num_reviews": "275",
    "description": "NOT_FOUND",
    "schedule": [
      {
        "day": "viernes",
        "hours": "0:00–6:00"
      },
      {
        "day": "sábado",
        "hours": "0:00–6:00"
      },
      {
        "day": "domingo",
        "hours": "0:00–6:00"
      },
      {
        "day": "lunes",
        "hours": "Cerrado"
      },
      {
        "day": "martes",
        "hours": "Cerrado"
      },
      {
        "day": "miércoles",
        "hours": "Cerrado"
      },
      {
        "day": "jueves",
        "hours": "Cerrado"
      }
    ],
    "email": "NO_EMAIL"
  },
  {
    "name": "Touch Music Karaoke BARCELONA",
    "category": "Karaoke",
    "address": "Carrer de Joan Miró, 8, Sant Martí, 08005 Barcelona",
    "website": "karaokebcn.com",
    "phone": "NO_PHONE",
    "city": "Barcelona",
    "auxiliar": "Cerrado ⋅ Apertura: 22:00",
    "reviews_rating": "4.5",
    "num_reviews": "3583",
    "description": "Bar karaoke con un escenario tradicional al fondo, curiosos efectos de luz y una amplia carta de canciones.",
    "schedule": "NOT_FOUND",
    "email": "touchmusic@karaokebarcelona.com"
  },
  {
    "name": "Bikini Barcelona",
    "category": "Discoteca",
    "address": "Planta B1 · L'illa Diagonal",
    "website": "L'Illia, Av. Diagonal, 547, 08029 Barcelona",
    "phone": "933220800",
    "city": "Barcelona",
    "auxiliar": "bikinibcn.com",
    "reviews_rating": "3.8",
    "num_reviews": "1653",
    "description": "Famosa discoteca con sesiones de DJs y un escenario para conciertos en directo.",
    "schedule": [
      {
        "day": "viernes",
        "hours": "0:00–5:0023:55–24:00"
      },
      {
        "day": "sábado",
        "hours": "0:00–6:0023:55–24:00"
      },
      {
        "day": "domingo",
        "hours": "0:00–6:00"
      },
      {
        "day": "lunes",
        "hours": "Cerrado"
      },
      {
        "day": "martes",
        "hours": "Cerrado"
      },
      {
        "day": "miércoles",
        "hours": "Cerrado"
      },
      {
        "day": "jueves",
        "hours": "23:55–24:00"
      }
    ],
    "email": "NO_EMAIL"
  },
  {
    "name": "salón de narguile",
    "category": "Lounge",
    "address": "Carrer de Mallorca, 535, Sant Martí, 08026 Barcelona",
    "website": "NO_WEBSITE",
    "phone": "NO_PHONE",
    "city": "NO_CITY",
    "auxiliar": "NOT_FOUND",
    "reviews_rating": "NOT_FOUND",
    "num_reviews": "",
    "description": "NOT_FOUND",
    "schedule": [
      {
        "day": "viernes",
        "hours": "12:00–3:00"
      },
      {
        "day": "sábado",
        "hours": "12:00–3:00"
      },
      {
        "day": "domingo",
        "hours": "12:00–3:00"
      },
      {
        "day": "lunes",
        "hours": "12:00–3:00"
      },
      {
        "day": "martes",
        "hours": "12:00–3:00"
      },
      {
        "day": "miércoles",
        "hours": "12:00–3:00"
      },
      {
        "day": "jueves",
        "hours": "12:00–3:00"
      }
    ]
  },
  {
    "name": "El Cinco Club Barcelona",
    "category": "Discoteca",
    "address": "Plaça de Joan Llongueras, 5, Sarrià-Sant Gervasi, 08021 Barcelona",
    "website": "elcinco.barcelona",
    "phone": "938580813",
    "city": "NO_CITY",
    "auxiliar": "Reservar una mesa",
    "reviews_rating": "3.8",
    "num_reviews": "360",
    "description": "NOT_FOUND",
    "schedule": [
      {
        "day": "viernes",
        "hours": "0:00–5:0023:55–24:00"
      },
      {
        "day": "sábado",
        "hours": "0:00–6:0023:55–24:00"
      },
      {
        "day": "domingo",
        "hours": "0:00–6:00"
      },
      {
        "day": "lunes",
        "hours": "Cerrado"
      },
      {
        "day": "martes",
        "hours": "Cerrado"
      },
      {
        "day": "miércoles",
        "hours": "Cerrado"
      },
      {
        "day": "jueves",
        "hours": "23:55–24:00"
      }
    ],
    "email": "NO_EMAIL"
  },
  {
    "name": "Enigma Music Bar",
    "category": "Club nocturno",
    "address": "Carrer del Taquígraf Garriga, 106, Les Corts, 08029 Barcelona",
    "website": "NO_WEBSITE",
    "phone": "NO_PHONE",
    "city": "NO_CITY",
    "auxiliar": "NOT_FOUND",
    "reviews_rating": "4.1",
    "num_reviews": "206",
    "description": "Bar de moda que ofrece cócteles, cachimbas y pista de baile en un local acogedor.",
    "schedule": [
      {
        "day": "viernes",
        "hours": "23:00–3:30"
      },
      {
        "day": "sábado",
        "hours": "23:00–3:30"
      },
      {
        "day": "domingo",
        "hours": "Cerrado"
      },
      {
        "day": "lunes",
        "hours": "Cerrado"
      },
      {
        "day": "martes",
        "hours": "Cerrado"
      },
      {
        "day": "miércoles",
        "hours": "Cerrado"
      },
      {
        "day": "jueves",
        "hours": "23:00–2:30"
      }
    ]
  },
  {
    "name": "Blue Space Aragó",
    "category": "Bar musical",
    "address": "Carrer d'Aragó, 595, Sant Martí, 08026 Barcelona",
    "website": "facebook.com",
    "phone": "605153636",
    "city": "Barcelona",
    "auxiliar": "NOT_FOUND",
    "reviews_rating": "3.9",
    "num_reviews": "280",
    "description": "Bar animado, con DJ, narguiles y cócteles clásicos, donde se pueden pedir botellas enteras.",
    "schedule": [
      {
        "day": "viernes",
        "hours": "21:00–3:30"
      },
      {
        "day": "sábado",
        "hours": "21:00–3:30"
      },
      {
        "day": "domingo",
        "hours": "21:00–3:00"
      },
      {
        "day": "lunes",
        "hours": "21:00–3:00"
      },
      {
        "day": "martes",
        "hours": "21:00–3:00"
      },
      {
        "day": "miércoles",
        "hours": "21:00–3:00"
      },
      {
        "day": "jueves",
        "hours": "21:00–3:00"
      }
    ],
    "email": "NO_EMAIL"
  },
  {
    "name": "Bar Camarote",
    "category": "NOT_FOUND",
    "address": "Carrer de Menorca, 72, Sant Martí, 08020 Barcelona",
    "website": "NO_WEBSITE",
    "phone": "NO_PHONE",
    "city": "NO_CITY",
    "auxiliar": "NOT_FOUND",
    "reviews_rating": "4.5",
    "num_reviews": "11",
    "description": "NOT_FOUND",
    "schedule": "NOT_FOUND"
  },
  {
    "name": "GREENSTATION BCN",
    "category": "NOT_FOUND",
    "address": "Carrer del Consell de Cent, 597, Sant Martí, 08026 Barcelona",
    "website": "NO_WEBSITE",
    "phone": "NO_PHONE",
    "city": "NO_CITY",
    "auxiliar": "NOT_FOUND",
    "reviews_rating": "5.0",
    "num_reviews": "1",
    "description": "NOT_FOUND",
    "schedule": "NOT_FOUND"
  },
  {
    "name": "Bóveda",
    "category": "NOT_FOUND",
    "address": "Carrer de Pallars, 97, Sant Martí, 08018 Barcelona",
    "website": "NO_WEBSITE",
    "phone": "NO_PHONE",
    "city": "NO_CITY",
    "auxiliar": "NOT_FOUND",
    "reviews_rating": "5.0",
    "num_reviews": "2",
    "description": "NOT_FOUND",
    "schedule": "NOT_FOUND"
  },
  {
    "name": "PARTY HARD",
    "category": "NOT_FOUND",
    "address": "Sant Martí, 08005 Barcelona",
    "website": "NO_WEBSITE",
    "phone": "NO_PHONE",
    "city": "NO_CITY",
    "auxiliar": "NOT_FOUND",
    "reviews_rating": "NOT_FOUND",
    "num_reviews": "",
    "description": "NOT_FOUND",
    "schedule": "NOT_FOUND"
  },
  {
    "name": "Casa Vir",
    "category": "NOT_FOUND",
    "address": "Carrer de Llull, 248, Sant Martí, 08005 Barcelona",
    "website": "NO_WEBSITE",
    "phone": "NO_PHONE",
    "city": "NO_CITY",
    "auxiliar": "NOT_FOUND",
    "reviews_rating": "NOT_FOUND",
    "num_reviews": "",
    "description": "NOT_FOUND",
    "schedule": "NOT_FOUND"
  },
  {
    "name": "Knightcube",
    "category": "NOT_FOUND",
    "address": "Carrer de Pallars, 65, Sant Martí, 08018 Barcelona",
    "website": "NO_WEBSITE",
    "phone": "NO_PHONE",
    "city": "NO_CITY",
    "auxiliar": "NOT_FOUND",
    "reviews_rating": "NOT_FOUND",
    "num_reviews": "",
    "description": "NOT_FOUND",
    "schedule": "NOT_FOUND"
  },
  {
    "name": "Sala Rasmatazz",
    "category": "NOT_FOUND",
    "address": "Carrer de Pamplona, Sant Martí, 08018 Barcelona",
    "website": "NO_WEBSITE",
    "phone": "NO_PHONE",
    "city": "NO_CITY",
    "auxiliar": "NOT_FOUND",
    "reviews_rating": "NOT_FOUND",
    "num_reviews": "",
    "description": "NOT_FOUND",
    "schedule": "NOT_FOUND"
  },
  {
    "name": "TerrazaCampe",
    "category": "NOT_FOUND",
    "address": "Reclamar esta empresa",
    "website": "Ptge. de Joan Goula, 1, Sant Martí, 08018 Barcelona",
    "phone": "622662541",
    "city": "Barcelona",
    "auxiliar": "NOT_FOUND",
    "reviews_rating": "NOT_FOUND",
    "num_reviews": "",
    "description": "NOT_FOUND",
    "schedule": "NOT_FOUND",
    "email": "NO_EMAIL"
  },
  {
    "name": "\"",
    "category": "NOT_FOUND",
    "address": "Carrer de Ramon Turró, 220, Sant Martí, 08005 Barcelona",
    "website": "NO_WEBSITE",
    "phone": "NO_PHONE",
    "city": "NO_CITY",
    "auxiliar": "NOT_FOUND",
    "reviews_rating": "NOT_FOUND",
    "num_reviews": "",
    "description": "NOT_FOUND",
    "schedule": "NOT_FOUND"
  },
  {
    "name": "GIN CLUB SCOTCH",
    "category": "Club nocturno",
    "address": "Carrer de Mallorca, 579, Sant Martí, 08026 Barcelona",
    "website": "NO_WEBSITE",
    "phone": "NO_PHONE",
    "city": "NO_CITY",
    "auxiliar": "NOT_FOUND",
    "reviews_rating": "2.5",
    "num_reviews": "4",
    "description": "NOT_FOUND",
    "schedule": [
      {
        "day": "viernes",
        "hours": "21:00–5:00"
      },
      {
        "day": "sábado",
        "hours": "21:00–5:00"
      },
      {
        "day": "domingo",
        "hours": "Cerrado"
      },
      {
        "day": "lunes",
        "hours": "21:00–5:00"
      },
      {
        "day": "martes",
        "hours": "21:00–5:00"
      },
      {
        "day": "miércoles",
        "hours": "21:00–5:00"
      },
      {
        "day": "jueves",
        "hours": "21:00–5:00"
      }
    ]
  },
  {
    "name": "56 Lounge Bar",
    "category": "Lounge",
    "address": "Carrer de la Marina, 56, Sant Martí, 08005 Barcelona",
    "website": "NO_WEBSITE",
    "phone": "NO_PHONE",
    "city": "NO_CITY",
    "auxiliar": "NOT_FOUND",
    "reviews_rating": "4.0",
    "num_reviews": "149",
    "description": "NOT_FOUND",
    "schedule": [
      {
        "day": "viernes",
        "hours": "16:00–3:00"
      },
      {
        "day": "sábado",
        "hours": "16:00–3:00"
      },
      {
        "day": "domingo",
        "hours": "16:00–3:00"
      },
      {
        "day": "lunes",
        "hours": "17:00–2:30"
      },
      {
        "day": "martes",
        "hours": "17:00–2:30"
      },
      {
        "day": "miércoles",
        "hours": "17:00–2:30"
      },
      {
        "day": "jueves",
        "hours": "17:00–2:30"
      }
    ]
  }
]