[
  {
    "name": "Golden Heaven BCN",
    "category": "NOT_FOUND",
    "address": "NO_ADDRESS",
    "website": "NO_WEBSITE",
    "phone": "NO_PHONE",
    "city": "NO_CITY",
    "auxiliar": "NOT_FOUND",
    "reviews_rating": "5.0",
    "num_reviews": "18",
    "description": "NOT_FOUND",
    "schedule": "NOT_FOUND",
    "images": {
      "main": "NOT_FOUND",
      "img1": "https://lh5.googleusercontent.com/p/AF1QipOHJX_d1eJpvEgxdUGXutK-gwMqTyASlLkYoQrQ=w203-h137-k-no",
      "img2": "https://lh5.googleusercontent.com/p/AF1QipOcw5loDrw5mXrNxU3JDO_X_ChN13EY_V34v4C7=w203-h270-k-no",
      "img3": "https://lh5.googleusercontent.com/p/AF1QipPMQ3uwApWz_vhaVxzrS7rg7zY2IWUo4xVl_82h=w203-h131-k-no"
    }
  },
  {
    "name": "Wanasah Barcelona",
    "category": "Discoteca",
    "address": "Carta",
    "website": "Av. de Sarrià, 44, Les Corts, 08029 Barcelona",
    "phone": "666317753",
    "city": "Barcelona",
    "auxiliar": "instagram.com",
    "reviews_rating": "3.6",
    "num_reviews": "67",
    "description": "NOT_FOUND",
    "schedule": [
      {
        "day": "domingo",
        "hours": "0:00–6:0023:00–24:00"
      },
      {
        "day": "lunes",
        "hours": "0:00–5:0023:00–24:00"
      },
      {
        "day": "martes",
        "hours": "0:00–5:0023:00–24:00"
      },
      {
        "day": "miércoles(Día del Padre)",
        "hours": "0:00–5:0023:00–24:00 El horario podría cambiar"
      },
      {
        "day": "jueves",
        "hours": "0:00–5:0023:00–24:00"
      },
      {
        "day": "viernes",
        "hours": "0:00–5:0023:00–24:00"
      },
      {
        "day": "sábado",
        "hours": "0:00–6:0023:00–24:00"
      }
    ],
    "images": {
      "main": "https://lh5.googleusercontent.com/p/AF1QipMrAAFDkichp6C4lx6zTcKnbpoubSuuQXABGRSp=w163-h92-k-no",
      "img1": "https://lh5.googleusercontent.com/p/AF1QipMrAAFDkichp6C4lx6zTcKnbpoubSuuQXABGRSp=w203-h114-k-no",
      "img2": "https://lh5.googleusercontent.com/p/AF1QipNZx1BABXSYODiya6Lpkp7S4myEmhu55LGsQYWT=w203-h270-k-no",
      "img3": "https://lh5.googleusercontent.com/p/AF1QipOuvG9cRMi_7hj1VAzhahDmh_SGhGpggOmghG7J=w203-h203-k-no"
    },
    "email": "NO_EMAIL"
  },
  {
    "name": "EVA Night Club",
    "category": "Club de entretenimiento para adultos",
    "address": "Carrer de Marià Cubí, 90, Sarrià-Sant Gervasi, 08021 Barcelona",
    "website": "instagram.com",
    "phone": "660162652",
    "city": "Barcelona",
    "auxiliar": "NOT_FOUND",
    "reviews_rating": "5.0",
    "num_reviews": "11",
    "description": "NOT_FOUND",
    "schedule": [
      {
        "day": "domingo",
        "hours": "Cerrado"
      },
      {
        "day": "lunes",
        "hours": "17:00–23:55"
      },
      {
        "day": "martes",
        "hours": "17:00–4:00"
      },
      {
        "day": "miércoles(Día del Padre)",
        "hours": "17:00–4:00 El horario podría cambiar"
      },
      {
        "day": "jueves",
        "hours": "17:00–4:00"
      },
      {
        "day": "viernes",
        "hours": "17:00–5:00"
      },
      {
        "day": "sábado",
        "hours": "21:00–5:00"
      }
    ],
    "images": {
      "main": "https://lh5.googleusercontent.com/p/AF1QipOB8Xko0J91kLm2Y0FjId9RoLacUTd48XtR_7Te=w80-h106-k-no",
      "img1": "https://lh5.googleusercontent.com/p/AF1QipOB8Xko0J91kLm2Y0FjId9RoLacUTd48XtR_7Te=w203-h270-k-no",
      "img2": "https://lh3.googleusercontent.com/p/AF1QipNMigPBH7MnjW3sszL4B_WRb_mlw4FEiDR720dE=w203-h371-k-no",
      "img3": "https://lh5.googleusercontent.com/p/AF1QipMOZO5EElOp72fMbQanctKKJxVF5BShrTkRWeHF=w203-h270-k-no"
    },
    "email": "NO_EMAIL"
  },
  {
    "name": "Barroko's Barcelona",
    "category": "Discoteca",
    "address": "Carrer d'Aribau, 242, Sarrià-Sant Gervasi, 08006 Barcelona",
    "website": "discotecabarrokos.com",
    "phone": "932011377",
    "city": "Barcelona",
    "auxiliar": "NOT_FOUND",
    "reviews_rating": "3.4",
    "num_reviews": "2298",
    "description": "DJs residentes y música variada en una discoteca moderna y animada con 2 salas y sofás.",
    "schedule": [
      {
        "day": "domingo",
        "hours": "0:00–6:0018:00–24:00"
      },
      {
        "day": "lunes",
        "hours": "Cerrado"
      },
      {
        "day": "martes",
        "hours": "Cerrado"
      },
      {
        "day": "miércoles(Día del Padre)",
        "hours": "Cerrado El horario podría cambiar"
      },
      {
        "day": "jueves",
        "hours": "19:00–23:00"
      },
      {
        "day": "viernes",
        "hours": "0:30–6:00"
      },
      {
        "day": "sábado",
        "hours": "18:00–24:00"
      }
    ],
    "images": {
      "main": "https://lh5.googleusercontent.com/p/AF1QipM9xOrpPH-Vwca3w8za-oRJDUkS0GRUBRekR2g6=w122-h92-k-no",
      "img1": "https://lh5.googleusercontent.com/p/AF1QipPtrDbLsPiVP09x8SENunZeb9VylAu1lr_Bibm_=w203-h200-k-no",
      "img2": "https://lh3.googleusercontent.com/p/AF1QipOy4SIl9ak3yk7odx5T4L_qpPPIXyCqE8esablt=w203-h114-k-no",
      "img3": "https://lh5.googleusercontent.com/p/AF1QipOuL5GQmV_rDqfiHePnh0MPJ2Q0a26ZDwlC1I6e=w203-h270-k-no"
    },
    "email": "NO_EMAIL"
  },
  {
    "name": "Leounge Karaoke Bar",
    "category": "Karaoke",
    "address": "Carrer del Francolí, 68, Sarrià-Sant Gervasi, 08006 Barcelona",
    "website": "NO_WEBSITE",
    "phone": "NO_PHONE",
    "city": "NO_CITY",
    "auxiliar": "NOT_FOUND",
    "reviews_rating": "4.3",
    "num_reviews": "104",
    "description": "Espejos y sofás de estilo barroco y toques en rojo crean ambiente en este bar musical apto para eventos.",
    "schedule": [
      {
        "day": "domingo",
        "hours": "12:30–24:00"
      },
      {
        "day": "lunes",
        "hours": "Cerrado"
      },
      {
        "day": "martes",
        "hours": "Cerrado"
      },
      {
        "day": "miércoles(Día del Padre)",
        "hours": "Cerrado El horario podría cambiar"
      },
      {
        "day": "jueves",
        "hours": "18:00–23:30"
      },
      {
        "day": "viernes",
        "hours": "18:00–2:30"
      },
      {
        "day": "sábado",
        "hours": "12:00–2:30"
      }
    ],
    "images": {
      "main": "https://lh5.googleusercontent.com/p/AF1QipMdxaI6lwYPhpZTpi656vbyclblevIdub3hKC8N=w138-h92-k-no",
      "img1": "https://lh5.googleusercontent.com/p/AF1QipNlJTdkRAZJ969sTz4Hwfid0wHxjz3-lAuP06jq=w203-h112-k-no",
      "img2": "https://lh5.googleusercontent.com/p/AF1QipMdxaI6lwYPhpZTpi656vbyclblevIdub3hKC8N=w203-h135-k-no",
      "img3": "https://lh5.googleusercontent.com/p/AF1QipP-YGFDdY_A5YfoCoVyrV0yvt9xKfraCNVMxCBa=w221-h100-k-no"
    }
  },
  {
    "name": "Bartreze",
    "category": "Bar",
    "address": "Carrer Major de Sarrià, 115, Sarrià-Sant Gervasi, 08017 Barcelona",
    "website": "bartreze.com",
    "phone": "932506499",
    "city": "Barcelona",
    "auxiliar": "NOT_FOUND",
    "reviews_rating": "4.2",
    "num_reviews": "629",
    "description": "NOT_FOUND",
    "schedule": [
      {
        "day": "domingo",
        "hours": "9:00–1:00"
      },
      {
        "day": "lunes",
        "hours": "8:00–1:00"
      },
      {
        "day": "martes",
        "hours": "8:00–1:00"
      },
      {
        "day": "miércoles(Día del Padre)",
        "hours": "8:00–1:00 El horario podría cambiar"
      },
      {
        "day": "jueves",
        "hours": "8:00–2:00"
      },
      {
        "day": "viernes",
        "hours": "8:00–2:00"
      },
      {
        "day": "sábado",
        "hours": "9:00–2:00"
      }
    ],
    "images": {
      "main": "https://lh5.googleusercontent.com/p/AF1QipOdR5Wdn0EvMOxdayhR0GmbrZgzP4xYLN0x6cjj=w80-h106-k-no",
      "img1": "https://lh5.googleusercontent.com/p/AF1QipMinWPlCYWD6wlb7EWuJzgFgEmfViELj2pieveD=w203-h135-k-no",
      "img2": "https://lh5.googleusercontent.com/p/AF1QipNL53QiMgXH4104bio4VU8IPsCnWcRqr0DVwTpU=w203-h135-k-no",
      "img3": "https://lh5.googleusercontent.com/p/AF1QipMsKO-B1zz8R4JGNebS9SY_F2DoDDp4rAuzeAYA=w203-h152-k-no"
    },
    "email": "bartreze@outlook.es"
  },
  {
    "name": "Swinger Club Oops Barcelona",
    "category": "Club nocturno",
    "address": "Carrer d'Anglí, 69, Distrito de Sarrià-Sant Gervasi, 08017 Barcelona",
    "website": "oops.barcelona",
    "phone": "665138734",
    "city": "Barcelona",
    "auxiliar": "Amigable con la comunidad LGTBI+",
    "reviews_rating": "4.1",
    "num_reviews": "366",
    "description": "NOT_FOUND",
    "schedule": [
      {
        "day": "domingo",
        "hours": "0:00–7:0023:00–24:00"
      },
      {
        "day": "lunes",
        "hours": "0:00–5:0023:00–24:00"
      },
      {
        "day": "martes",
        "hours": "0:00–5:0023:00–24:00"
      },
      {
        "day": "miércoles(Día del Padre)",
        "hours": "0:00–5:0023:00–24:00 El horario podría cambiar"
      },
      {
        "day": "jueves",
        "hours": "0:00–5:0023:00–24:00"
      },
      {
        "day": "viernes",
        "hours": "0:00–5:0023:00–24:00"
      },
      {
        "day": "sábado",
        "hours": "0:00–6:0023:00–24:00"
      }
    ],
    "images": {
      "main": "https://lh5.googleusercontent.com/p/AF1QipNTM2ISGCZvHWnptCSgzD8PyVpPnzvER7VC8P1l=w142-h92-k-no",
      "img1": "https://lh5.googleusercontent.com/p/AF1QipMI3k7s9D0Js4Rl_awwUevwGQ9Bgt5zxrQSFXnF=w203-h134-k-no",
      "img2": "https://lh5.googleusercontent.com/p/AF1QipOoyPfES11tot1i4bynsqP0abgCpReUMMDuAURB=w203-h135-k-no",
      "img3": "https://lh5.googleusercontent.com/p/AF1QipNVCs4SVhYf0JZD-DSLZtU2zoPMVHygCeUlaxhf=w203-h152-k-no"
    },
    "email": "NO_EMAIL"
  },
  {
    "name": "Bar Abanico",
    "category": "Pub",
    "address": "Carrer del Camp, 3, Sarrià-Sant Gervasi, 08021 Barcelona",
    "website": "abanico-barcelona.com",
    "phone": "650291010",
    "city": "Barcelona",
    "auxiliar": "NOT_FOUND",
    "reviews_rating": "4.4",
    "num_reviews": "138",
    "description": "NOT_FOUND",
    "schedule": [
      {
        "day": "domingo",
        "hours": "Cerrado"
      },
      {
        "day": "lunes",
        "hours": "Cerrado"
      },
      {
        "day": "martes",
        "hours": "Cerrado"
      },
      {
        "day": "miércoles(Día del Padre)",
        "hours": "Cerrado El horario podría cambiar"
      },
      {
        "day": "jueves",
        "hours": "Cerrado"
      },
      {
        "day": "viernes",
        "hours": "23:00–3:00"
      },
      {
        "day": "sábado",
        "hours": "23:00–3:00"
      }
    ],
    "images": {
      "main": "https://lh5.googleusercontent.com/p/AF1QipNWDC24xyjQ5-wCicESSWDdbJad0SjKmsbTlgE-=w163-h92-k-no",
      "img1": "https://lh5.googleusercontent.com/p/AF1QipOjUbgr8S_p4QoneX3lkvh3tRjodw7_ZHQ2tjhJ=w203-h135-k-no",
      "img2": "https://lh5.googleusercontent.com/p/AF1QipNPTVF_b3JiTsY6xpBPG4i6ODZIQ8IcT9MS0-Ne=w203-h135-k-no",
      "img3": "https://lh5.googleusercontent.com/p/AF1QipNWDC24xyjQ5-wCicESSWDdbJad0SjKmsbTlgE-=w203-h114-k-no"
    },
    "email": "info@abanico-barcelona.com"
  },
  {
    "name": "Sotavent Bar",
    "category": "NOT_FOUND",
    "address": "Carrer Major de Sarrià, 61, Sarrià-Sant Gervasi, 08017 Barcelona",
    "website": "NO_WEBSITE",
    "phone": "NO_PHONE",
    "city": "NO_CITY",
    "auxiliar": "NOT_FOUND",
    "reviews_rating": "4.4",
    "num_reviews": "1045",
    "description": "Pub informal con futbolín, billar, dardos, noches de trívial y partidos televisados.",
    "schedule": [
      {
        "day": "domingo",
        "hours": "Cerrado"
      },
      {
        "day": "lunes",
        "hours": "Cerrado"
      },
      {
        "day": "martes",
        "hours": "20:00–2:00"
      },
      {
        "day": "miércoles(Día del Padre)",
        "hours": "20:00–2:00 El horario podría cambiar"
      },
      {
        "day": "jueves",
        "hours": "20:00–2:30"
      },
      {
        "day": "viernes",
        "hours": "20:00–3:00"
      },
      {
        "day": "sábado",
        "hours": "20:00–3:00"
      }
    ],
    "images": {
      "main": "https://lh5.googleusercontent.com/p/AF1QipP0ECKa1iIv-Bea03NNZirlxoo5kK5NKJqVAyG4=w80-h106-k-no",
      "img1": "https://lh3.googleusercontent.com/gps-cs-s/AB5caB_5XMJ9Sz3nb7Ip9bF5cEnSTP0L8tDNzfAOJ0Ej7LFIh2dGgUE80ypV99vM2k7OkHHbsw0vPz1KEkxH-PE6YK5ovdaXQpE8VZlJG_AhYtPUR4BGrUNEsX3pnC86K5Zq9w7DoXqo=w203-h202-k-no",
      "img2": "https://lh3.googleusercontent.com/gps-cs-s/AB5caB8GLvpZj7JXHpVnvy7LRAD9YAJjhGBJL_dAKQSawhmBCw1kIEvv_l6KQ3Tr7fy3rfzScezMAiYKW5QFLpvK3-hCGL4gNPqX3Y0NAlpQDA1mEvKtFw3cZ15ckwZEW_11NU69pH_7=w203-h360-k-no",
      "img3": "https://lh3.googleusercontent.com/gps-cs-s/AB5caB-ldMUlaRx9CEEHAckb2qRZlgjSF0r6qY58sUFbGxkQONPEyW1y0DZLGe6or5Vwsp0wZFrY0zqGwJz_Exd65KTXrrCTOPiLecMNTjTqu8LZBWptRjCNhe8TrNk1K589xCxDdbVJ=w203-h152-k-no"
    }
  },
  {
    "name": "El Cinco Club Barcelona",
    "category": "Discoteca",
    "address": "Plaça de Joan Llongueras, 5, Sarrià-Sant Gervasi, 08021 Barcelona",
    "website": "elcinco.barcelona",
    "phone": "938580813",
    "city": "NO_CITY",
    "auxiliar": "Reservar una mesa",
    "reviews_rating": "3.8",
    "num_reviews": "361",
    "description": "NOT_FOUND",
    "schedule": [
      {
        "day": "domingo",
        "hours": "0:00–6:00"
      },
      {
        "day": "lunes",
        "hours": "Cerrado"
      },
      {
        "day": "martes",
        "hours": "Cerrado"
      },
      {
        "day": "miércoles(Día del Padre)",
        "hours": "Cerrado El horario podría cambiar"
      },
      {
        "day": "jueves",
        "hours": "23:55–24:00"
      },
      {
        "day": "viernes",
        "hours": "0:00–5:0023:55–24:00"
      },
      {
        "day": "sábado",
        "hours": "0:00–6:0023:55–24:00"
      }
    ],
    "images": {
      "main": "https://lh5.googleusercontent.com/p/AF1QipNR1EwxMhXIQ3_w36MkcXEIvjzoLL3pMuabfrfe=w138-h92-k-no",
      "img1": "https://lh5.googleusercontent.com/p/AF1QipOSJk4Wa1ywEvBGbrqBRz0RONLVgb8pc2DVSKjC=w203-h135-k-no",
      "img2": "https://lh3.googleusercontent.com/p/AF1QipMxc5ZZoxtkvus7zrs3eb__xjyFj9warow-O2a9=w203-h360-k-no",
      "img3": "https://lh5.googleusercontent.com/p/AF1QipNR1EwxMhXIQ3_w36MkcXEIvjzoLL3pMuabfrfe=w203-h135-k-no"
    },
    "email": "NO_EMAIL"
  },
  {
    "name": "Sala B Barcelona",
    "category": "NOT_FOUND",
    "address": "NO_ADDRESS",
    "website": "NO_WEBSITE",
    "phone": "NO_PHONE",
    "city": "NO_CITY",
    "auxiliar": "NOT_FOUND",
    "reviews_rating": "2.6",
    "num_reviews": "51",
    "description": "NOT_FOUND",
    "schedule": [
      {
        "day": "domingo",
        "hours": "0:00–6:00"
      },
      {
        "day": "lunes",
        "hours": "Cerrado"
      },
      {
        "day": "martes",
        "hours": "Cerrado"
      },
      {
        "day": "miércoles(Día del Padre)",
        "hours": "Cerrado El horario podría cambiar"
      },
      {
        "day": "jueves",
        "hours": "23:59–24:00"
      },
      {
        "day": "viernes",
        "hours": "0:00–5:0023:59–24:00"
      },
      {
        "day": "sábado",
        "hours": "0:00–6:0023:59–24:00"
      }
    ],
    "images": {
      "main": "https://lh5.googleusercontent.com/p/AF1QipOoWRkpQHquYfNgTyrcEeGM6GHYlpH1JhcndzaC=w80-h177-k-no",
      "img1": "https://lh5.googleusercontent.com/p/AF1QipOoWRkpQHquYfNgTyrcEeGM6GHYlpH1JhcndzaC=w203-h450-k-no",
      "img2": "https://lh3.googleusercontent.com/p/AF1QipNnk4wM50P-Hcp913tLABo7Ax3nfxkTKOzOSWFx=w203-h360-k-no",
      "img3": "//:0"
    }
  },
  {
    "name": "Atlantic Club Barcelona",
    "category": "Recinto para eventos",
    "address": "Av. del Tibidabo, 56, Sarrià-Sant Gervasi, 08035 Barcelona",
    "website": "atlanticbarcelona.com",
    "phone": "675273071",
    "city": "Barcelona",
    "auxiliar": "Reclamar esta empresa",
    "reviews_rating": "3.9",
    "num_reviews": "289",
    "description": "Música comercial en una amplia discoteca de estilo modernista con terraza ajardinada y vistas a Barcelona.",
    "schedule": [
      {
        "day": "domingo",
        "hours": "12:00–18:00"
      },
      {
        "day": "lunes",
        "hours": "Cerrado"
      },
      {
        "day": "martes",
        "hours": "Cerrado"
      },
      {
        "day": "miércoles(Día del Padre)",
        "hours": "Cerrado El horario podría cambiar"
      },
      {
        "day": "jueves",
        "hours": "Cerrado"
      },
      {
        "day": "viernes",
        "hours": "Cerrado"
      },
      {
        "day": "sábado",
        "hours": "12:00–18:00"
      }
    ],
    "images": {
      "main": "https://lh5.googleusercontent.com/p/AF1QipPrc9J40t7QER1r99NtDXlR2fBmWGc97Utv7C4I=w202-h92-k-no",
      "img1": "https://lh5.googleusercontent.com/p/AF1QipNyvUjhaI6aMYlRtjxTcKObcem2DK2GbBbUJn0W=w203-h100-k-no",
      "img2": "https://lh5.googleusercontent.com/p/AF1QipP0vOaMW_ObCMtxQzWzOgXJh_P2Z1WnzrPRuF3C=w203-h269-k-no",
      "img3": "https://lh5.googleusercontent.com/p/AF1QipP2TXTVugk0kY5_bFVrPX5fQuZ87IzcP5r2lG7O=w203-h114-k-no"
    },
    "email": "NO_EMAIL"
  },
  {
    "name": "La raspa",
    "category": "Bar musical",
    "address": "Carrer de Calvet, 23, Sarrià-Sant Gervasi, 08021 Barcelona",
    "website": "NO_WEBSITE",
    "phone": "NO_PHONE",
    "city": "NO_CITY",
    "auxiliar": "NOT_FOUND",
    "reviews_rating": "4.2",
    "num_reviews": "5",
    "description": "NOT_FOUND",
    "schedule": "NOT_FOUND",
    "images": {
      "main": "https://lh5.googleusercontent.com/p/AF1QipPpeE2dMu1Sc8voPf05oLD5liO_uOmjSNRzWZx0=w122-h92-k-no",
      "img1": "https://lh5.googleusercontent.com/p/AF1QipN3erF2l6ZWMwLtXJZ6Al0gFh2FoKSIIr2RsAm2=w203-h152-k-no",
      "img2": "https://lh5.googleusercontent.com/p/AF1QipPze9b_ZuyLTp_CtYZjWJxkSjltSybkQLR-B6XK=w203-h270-k-no",
      "img3": "https://lh5.googleusercontent.com/p/AF1QipM3wL0qWvuoKRuiCc7mAOGlKsokZ7SJNq3AmY6l=w203-h152-k-no"
    }
  },
  {
    "name": "Bling Bling Barcelona",
    "category": "Discoteca",
    "address": "Carrer de Tuset, 8-10, Sarrià-Sant Gervasi, 08006 Barcelona",
    "website": "blingblingbcn.com",
    "phone": "664244209",
    "city": "NO_CITY",
    "auxiliar": "Carta",
    "reviews_rating": "3.1",
    "num_reviews": "3324",
    "description": "Aperitivos de bar clásicos, champán y narguiles en una glamurosa discoteca de moda con pista de baile.",
    "schedule": [
      {
        "day": "domingo",
        "hours": "Cerrado"
      },
      {
        "day": "lunes",
        "hours": "Cerrado"
      },
      {
        "day": "martes",
        "hours": "Cerrado"
      },
      {
        "day": "miércoles(Día del Padre)",
        "hours": "0:30–5:00 El horario podría cambiar"
      },
      {
        "day": "jueves",
        "hours": "0:30–5:00"
      },
      {
        "day": "viernes",
        "hours": "0:30–6:00"
      },
      {
        "day": "sábado",
        "hours": "0:30–6:00"
      }
    ],
    "images": {
      "main": "https://lh5.googleusercontent.com/p/AF1QipOhQUp2ae80kROr8Ff6CUhhqTfcBS-oJD6Bkvg=w137-h92-k-no",
      "img1": "https://lh5.googleusercontent.com/p/AF1QipOYSBXRKgbhIktKpPKNNOtuwHIhoybapSUloK8=w203-h135-k-no",
      "img2": "https://lh3.googleusercontent.com/gps-cs-s/AB5caB8mBwnphpgrPgeydB_HEunH29AevqsRpOzr_pa93VI8XhaqQrF38EAX3b_JyQKsvsrGIRryqotl2iggrLg6tKPoq9r5tglZc2cbkcbJvLEIAAf6lr2A3vH5lRux7RDQ_zpAB3U=w203-h114-k-no",
      "img3": "https://lh3.googleusercontent.com/gps-cs-s/AB5caB9sKOgIaO_SwaeC8LagO_ezdtZmMhxUFFktImWlG-3XnXVlwcOeB6R0Sm3r7xWI5r20Jnh1eJ2LZLIbUT70SP50Og0ZlVfNv--gZCvkNPqGfzLue5bELHop8X1TF2-qxzaOAGpx=w203-h135-k-no"
    },
    "email": "NO_EMAIL"
  },
  {
    "name": "Otto Zutz Barcelona",
    "category": "Discoteca",
    "address": "Carrer de Lincoln, 15, Sarrià-Sant Gervasi, 08006 Barcelona",
    "website": "ottozutz.com",
    "phone": "669266410",
    "city": "Barcelona",
    "auxiliar": "Amigable con la comunidad LGTBI+",
    "reviews_rating": "3.3",
    "num_reviews": "5055",
    "description": "Discoteca con varias salas e iluminación ambiental, especializada en R&B, hiphop y reguetón.",
    "schedule": [
      {
        "day": "domingo",
        "hours": "0:00–6:00"
      },
      {
        "day": "lunes",
        "hours": "Cerrado"
      },
      {
        "day": "martes",
        "hours": "Cerrado"
      },
      {
        "day": "miércoles(Día del Padre)",
        "hours": "Cerrado El horario podría cambiar"
      },
      {
        "day": "jueves",
        "hours": "23:55–24:00"
      },
      {
        "day": "viernes",
        "hours": "0:00–5:0023:55–24:00"
      },
      {
        "day": "sábado",
        "hours": "0:00–6:0018:30–24:00"
      }
    ],
    "images": {
      "main": "https://lh5.googleusercontent.com/p/AF1QipMoN29MIXnuoQuLnBgZ9IrX78aeFFfItTY1cIOO=w138-h92-k-no",
      "img1": "https://lh3.googleusercontent.com/gps-cs-s/AB5caB8pY87rNG6uNz4EL2cAyxIkoKMMVaaT23MmTt2JFF5d6DiBJisbJomSuqMPGOnmTkXYGfDpQay8IzcY8sxeXcurUoQO_5em9l169iRtVEu2iTgrnoB81v7v6_hd3LqllIDMuxiTqw=w203-h271-k-no",
      "img2": "https://lh3.googleusercontent.com/gps-cs-s/AB5caB9T2V6f8m1jAhiXxvRt33pfARHLC7v_xvbCnlLliIloWbmPA0NCzBMhNt6-vXwx2AOC-koB0u0pcQ7qv3QXFqq1mrNhMSZchPHnxq6pgmFYD20Jsluc-CDqvBFnpefriPBbaulQ=w203-h114-k-no",
      "img3": "https://lh3.googleusercontent.com/p/AF1QipMWAXBBxzaS_-i7akpd7aK2Ap6xLHgJv8ql9lPX=w203-h100-k-no-pi0-ya180-ro0-fo100"
    },
    "email": "NO_EMAIL"
  },
  {
    "name": "Nu Bcn",
    "category": "NOT_FOUND",
    "address": "NO_ADDRESS",
    "website": "NO_WEBSITE",
    "phone": "NO_PHONE",
    "city": "NO_CITY",
    "auxiliar": "NOT_FOUND",
    "reviews_rating": "4.0",
    "num_reviews": "2840",
    "description": "Platos de alta cocina, sushi y cócteles en un restaurante exclusivo con terraza, pista de baile y sesiones de DJs.",
    "schedule": [
      {
        "day": "domingo",
        "hours": "13:00–2:30"
      },
      {
        "day": "lunes",
        "hours": "13:00–23:30"
      },
      {
        "day": "martes",
        "hours": "13:00–23:30"
      },
      {
        "day": "miércoles(Día del Padre)",
        "hours": "13:00–2:30 El horario podría cambiar"
      },
      {
        "day": "jueves",
        "hours": "13:00–2:30"
      },
      {
        "day": "viernes",
        "hours": "13:00–3:00"
      },
      {
        "day": "sábado",
        "hours": "13:00–3:00"
      }
    ],
    "images": {
      "main": "https://lh5.googleusercontent.com/p/AF1QipP5JJiOTLzrniTTSjgze4JT4AcbGA1bjNySYQrl=w140-h92-k-no",
      "img1": "https://lh5.googleusercontent.com/p/AF1QipO6l7kPwRbtfUz6bfHHVXjVlQVhM2TpcXEh0PRf=w203-h132-k-no",
      "img2": "https://lh3.googleusercontent.com/p/AF1QipMY6Jjh0IwjNv7QPc7z-ZLhd7PM21ZNBo4BpF0h=w203-h360-k-no",
      "img3": "https://lh5.googleusercontent.com/p/AF1QipPR4-7NBxrDwD3AX38Hiqf1V6dZmZycBfMWDIVr=w203-h203-k-no"
    }
  },
  {
    "name": "Bar Ri",
    "category": "Restaurante",
    "address": "Plaça de Joaquim Pena, 4, Sarrià-Sant Gervasi, 08017 Barcelona",
    "website": "barribarcelona.com",
    "phone": "932057856",
    "city": "NO_CITY",
    "auxiliar": "Hacer un pedido",
    "reviews_rating": "3.9",
    "num_reviews": "885",
    "description": "Hamburguesas, tapas y especiales del día en comedor chic y minimalista con pared de ladrillo.",
    "schedule": "NOT_FOUND",
    "images": {
      "main": "https://lh5.googleusercontent.com/p/AF1QipO-bQ6xpCGZKF-ssFqgGWwEu78q0uswn20X5xES=w163-h92-k-no",
      "img1": "https://lh5.googleusercontent.com/p/AF1QipNTAaIa3ggB0-sx7FSoIMwkvb91MlPDe5t3lP3_=w203-h135-k-no",
      "img2": "https://lh5.googleusercontent.com/p/AF1QipOpNxbC_bkYt-1Ef2eK0uM10kcte3hhKtl22F7J=w203-h274-k-no",
      "img3": "https://lh5.googleusercontent.com/p/AF1QipMuhfKH_xM4HpACLHSwVoN-PDmDBxMYZo_kdg50=w203-h270-k-no"
    },
    "email": "sarria@barribarcelona.com"
  },
  {
    "name": "Vz",
    "category": "NOT_FOUND",
    "address": "NOT_FOUND",
    "website": "Av. de Sarrià, 44, Les Corts, 08029 Barcelona",
    "phone": "NO_PHONE",
    "city": "Barcelona",
    "auxiliar": "NOT_FOUND",
    "reviews_rating": "3.8",
    "num_reviews": "4",
    "description": "NOT_FOUND",
    "schedule": "NOT_FOUND",
    "images": {
      "main": "https://lh5.googleusercontent.com/p/AF1QipNIn15t-YEeAGjqKZTLg9ZI75xnj2LAypLaLN43=w138-h92-k-no",
      "img1": "https://lh3.googleusercontent.com/gps-cs-s/AB5caB-73piH08KWkRq_C2wZXz1czFIeMjjbBotHtQBNAFO0lfFtG-4KDOF4O_fan2YYXvC2AxYPa4bVygIiiO8zBuPV83eAIC4i1g8y1w5zfXbaHsVDeWIX1Yawv0NkLgeD9XS6ydNf=w203-h135-k-no",
      "img2": "https://lh3.googleusercontent.com/gps-cs-s/AB5caB8GheW-Mo1TT3XIdshjfW5g0LHD-0oavLJk0xQe1B5cObJNFLZ3d-WgihKGnH0ciBapQv3X3eg02OvBBNQFEoOtN3lCCcet5XuVYxUOhT0udMVw7upucXSt0ugZPF1I0XDrE_0a=w203-h135-k-no",
      "img3": "https://streetviewpixels-pa.googleapis.com/v1/thumbnail?panoid=xIUBOMau9iLXD6ZCcQu4eg&cb_client=maps_sv.tactile.gps&w=203&h=100&yaw=10.930988&pitch=0&thumbfov=100"
    },
    "email": "NO_EMAIL"
  },
  {
    "name": "CUE club",
    "category": "NOT_FOUND",
    "address": "NO_ADDRESS",
    "website": "NO_WEBSITE",
    "phone": "NO_PHONE",
    "city": "NO_CITY",
    "auxiliar": "NOT_FOUND",
    "reviews_rating": "NOT_FOUND",
    "num_reviews": "",
    "description": "NOT_FOUND",
    "schedule": "NOT_FOUND",
    "images": {
      "main": "https://streetviewpixels-pa.googleapis.com/v1/thumbnail?panoid=gyk2degIViedROzMLxBdBg&cb_client=search.gws-prod.gps&w=80&h=92&yaw=156.48587&pitch=0&thumbfov=100",
      "img1": "NOT_FOUND",
      "img2": "NOT_FOUND",
      "img3": "NOT_FOUND"
    }
  },
  {
    "name": "JE The Me",
    "category": "NOT_FOUND",
    "address": "Ronda del General Mitre, 7, Sarrià-Sant Gervasi, 08017 Barcelona",
    "website": "NO_WEBSITE",
    "phone": "NO_PHONE",
    "city": "NO_CITY",
    "auxiliar": "NOT_FOUND",
    "reviews_rating": "NOT_FOUND",
    "num_reviews": "",
    "description": "NOT_FOUND",
    "schedule": "NOT_FOUND",
    "images": {
      "main": "https://streetviewpixels-pa.googleapis.com/v1/thumbnail?panoid=jLSZMlKJcxuIMUCgJuDoEw&cb_client=search.gws-prod.gps&w=80&h=92&yaw=321.13596&pitch=0&thumbfov=100",
      "img1": "NOT_FOUND",
      "img2": "NOT_FOUND",
      "img3": "NOT_FOUND"
    }
  },
  {
    "name": "Vz",
    "category": "NOT_FOUND",
    "address": "NOT_FOUND",
    "website": "Av. de Sarrià, 44, Les Corts, 08029 Barcelona",
    "phone": "NO_PHONE",
    "city": "Barcelona",
    "auxiliar": "NOT_FOUND",
    "reviews_rating": "3.8",
    "num_reviews": "4",
    "description": "NOT_FOUND",
    "schedule": "NOT_FOUND",
    "images": {
      "main": "https://lh5.googleusercontent.com/p/AF1QipNIn15t-YEeAGjqKZTLg9ZI75xnj2LAypLaLN43=w138-h92-k-no",
      "img1": "https://lh3.googleusercontent.com/gps-cs-s/AB5caB-73piH08KWkRq_C2wZXz1czFIeMjjbBotHtQBNAFO0lfFtG-4KDOF4O_fan2YYXvC2AxYPa4bVygIiiO8zBuPV83eAIC4i1g8y1w5zfXbaHsVDeWIX1Yawv0NkLgeD9XS6ydNf=w203-h135-k-no",
      "img2": "https://lh3.googleusercontent.com/gps-cs-s/AB5caB8GheW-Mo1TT3XIdshjfW5g0LHD-0oavLJk0xQe1B5cObJNFLZ3d-WgihKGnH0ciBapQv3X3eg02OvBBNQFEoOtN3lCCcet5XuVYxUOhT0udMVw7upucXSt0ugZPF1I0XDrE_0a=w203-h135-k-no",
      "img3": "https://streetviewpixels-pa.googleapis.com/v1/thumbnail?panoid=xIUBOMau9iLXD6ZCcQu4eg&cb_client=maps_sv.tactile.gps&w=203&h=100&yaw=10.930988&pitch=0&thumbfov=100"
    },
    "email": "NO_EMAIL"
  },
  {
    "name": "JE The Me",
    "category": "NOT_FOUND",
    "address": "NO_ADDRESS",
    "website": "NO_WEBSITE",
    "phone": "NO_PHONE",
    "city": "NO_CITY",
    "auxiliar": "NOT_FOUND",
    "reviews_rating": "NOT_FOUND",
    "num_reviews": "",
    "description": "NOT_FOUND",
    "schedule": "NOT_FOUND",
    "images": {
      "main": "https://streetviewpixels-pa.googleapis.com/v1/thumbnail?panoid=jLSZMlKJcxuIMUCgJuDoEw&cb_client=search.gws-prod.gps&w=80&h=92&yaw=321.13596&pitch=0&thumbfov=100",
      "img1": "NOT_FOUND",
      "img2": "NOT_FOUND",
      "img3": "NOT_FOUND"
    }
  },
  {
    "name": "Uptown Barcelona",
    "category": "NOT_FOUND",
    "address": "Carrer de Marià Cubí, 183, Sarrià-Sant Gervasi, 08021 Barcelona",
    "website": "NO_WEBSITE",
    "phone": "NO_PHONE",
    "city": "NO_CITY",
    "auxiliar": "NOT_FOUND",
    "reviews_rating": "NOT_FOUND",
    "num_reviews": "",
    "description": "NOT_FOUND",
    "schedule": "NOT_FOUND",
    "images": {
      "main": "https://streetviewpixels-pa.googleapis.com/v1/thumbnail?panoid=i_8jv4l5hvXd4LWQShCbww&cb_client=search.gws-prod.gps&w=80&h=92&yaw=116.88627&pitch=0&thumbfov=100",
      "img1": "NOT_FOUND",
      "img2": "NOT_FOUND",
      "img3": "NOT_FOUND"
    }
  },
  {
    "name": "Marcelinha",
    "category": "NOT_FOUND",
    "address": "Carrer de l'Avenir, 47, Sarrià-Sant Gervasi, 08021 Barcelona",
    "website": "NO_WEBSITE",
    "phone": "NO_PHONE",
    "city": "NO_CITY",
    "auxiliar": "NOT_FOUND",
    "reviews_rating": "NOT_FOUND",
    "num_reviews": "",
    "description": "NOT_FOUND",
    "schedule": "NOT_FOUND",
    "images": {
      "main": "https://streetviewpixels-pa.googleapis.com/v1/thumbnail?panoid=E86el4Hu6krAv-w27Od2Qw&cb_client=search.gws-prod.gps&w=80&h=92&yaw=186.41925&pitch=0&thumbfov=100",
      "img1": "NOT_FOUND",
      "img2": "NOT_FOUND",
      "img3": "NOT_FOUND"
    }
  },
  {
    "name": "CUE club",
    "category": "NOT_FOUND",
    "address": "Carrer de Moià, 3, Sarrià-Sant Gervasi, 08006 Barcelona",
    "website": "NO_WEBSITE",
    "phone": "NO_PHONE",
    "city": "NO_CITY",
    "auxiliar": "NOT_FOUND",
    "reviews_rating": "NOT_FOUND",
    "num_reviews": "",
    "description": "NOT_FOUND",
    "schedule": "NOT_FOUND",
    "images": {
      "main": "https://streetviewpixels-pa.googleapis.com/v1/thumbnail?panoid=gyk2degIViedROzMLxBdBg&cb_client=search.gws-prod.gps&w=80&h=92&yaw=156.48587&pitch=0&thumbfov=100",
      "img1": "NOT_FOUND",
      "img2": "NOT_FOUND",
      "img3": "NOT_FOUND"
    }
  },
  {
    "name": "Festamusic Grup",
    "category": "NOT_FOUND",
    "address": "Carrer de Calatrava, 1, Sarrià-Sant Gervasi, 08017 Barcelona",
    "website": "NO_WEBSITE",
    "phone": "NO_PHONE",
    "city": "NO_CITY",
    "auxiliar": "NOT_FOUND",
    "reviews_rating": "NOT_FOUND",
    "num_reviews": "",
    "description": "NOT_FOUND",
    "schedule": "NOT_FOUND",
    "images": {
      "main": "https://streetviewpixels-pa.googleapis.com/v1/thumbnail?panoid=e_AThDesiNCRGbmzpqURgA&cb_client=search.gws-prod.gps&w=80&h=92&yaw=210.47478&pitch=0&thumbfov=100",
      "img1": "NOT_FOUND",
      "img2": "NOT_FOUND",
      "img3": "NOT_FOUND"
    }
  },
  {
    "name": "La Vie en Rose",
    "category": "Club de entretenimiento para adultos",
    "address": "Carrer del Rector Ubach, 46, Sarrià-Sant Gervasi, 08021 Barcelona",
    "website": "lavieenrose.es",
    "phone": "638437783",
    "city": "Barcelona",
    "auxiliar": "Se identifica como de propietarias mujeres",
    "reviews_rating": "4.0",
    "num_reviews": "63",
    "description": "NOT_FOUND",
    "schedule": [
      {
        "day": "domingo",
        "hours": "Abierto 24 horas"
      },
      {
        "day": "lunes",
        "hours": "Abierto 24 horas"
      },
      {
        "day": "martes",
        "hours": "Abierto 24 horas"
      },
      {
        "day": "miércoles(Día del Padre)",
        "hours": "Abierto 24 horas El horario podría cambiar"
      },
      {
        "day": "jueves",
        "hours": "Abierto 24 horas"
      },
      {
        "day": "viernes",
        "hours": "Abierto 24 horas"
      },
      {
        "day": "sábado",
        "hours": "Abierto 24 horas"
      }
    ],
    "images": {
      "main": "https://lh5.googleusercontent.com/p/AF1QipPFf3_wA0IuktrchlDtH4KB2r6nVjL7VNtIlfRk=w122-h92-k-no",
      "img1": "https://lh5.googleusercontent.com/p/AF1QipPFf3_wA0IuktrchlDtH4KB2r6nVjL7VNtIlfRk=w203-h152-k-no",
      "img2": "https://lh3.googleusercontent.com/gps-cs-s/AB5caB_wqEGroaqgnI1hU5N6Bt2fq_jVeq4Xn-yEZ4XLW8HrZXvRgkjrv-e74weH1WH-GuztbJGN6nP6dkAS_bveuN4amvV76PelgKE9dZh9DvQq1CxdhkYaI0jsVZElWZsQJUrvIW4E=w203-h100-k-no-pi-10-ya42.73204-ro-0-fo100",
      "img3": "https://lh3.googleusercontent.com/gps-cs-s/AB5caB8t33N5zaMs0a5HXOaiz5U7FjlqIuUEWMUia-ZrVXGKA78Y0XnEfnKjOA3DdPn8iqZu6Ec6cCprVdLViV4FA1Eo6l8pNZvKIrtALAoVTtEsPxsrmn8t8klwOSThjtg1EikRO05Mog=w203-h100-k-no-pi-10-ya321.85968-ro-0-fo100"
    },
    "email": "reservas@lavieenrose.es"
  },
  {
    "name": "El Cinco Club Barcelona",
    "category": "NOT_FOUND",
    "address": "NO_ADDRESS",
    "website": "NO_WEBSITE",
    "phone": "NO_PHONE",
    "city": "NO_CITY",
    "auxiliar": "NOT_FOUND",
    "reviews_rating": "3.8",
    "num_reviews": "361",
    "description": "NOT_FOUND",
    "schedule": [
      {
        "day": "domingo",
        "hours": "0:00–6:00"
      },
      {
        "day": "lunes",
        "hours": "Cerrado"
      },
      {
        "day": "martes",
        "hours": "Cerrado"
      },
      {
        "day": "miércoles(Día del Padre)",
        "hours": "Cerrado El horario podría cambiar"
      },
      {
        "day": "jueves",
        "hours": "23:55–24:00"
      },
      {
        "day": "viernes",
        "hours": "0:00–5:0023:55–24:00"
      },
      {
        "day": "sábado",
        "hours": "0:00–6:0023:55–24:00"
      }
    ],
    "images": {
      "main": "https://lh5.googleusercontent.com/p/AF1QipNR1EwxMhXIQ3_w36MkcXEIvjzoLL3pMuabfrfe=w138-h92-k-no",
      "img1": "https://lh5.googleusercontent.com/p/AF1QipOSJk4Wa1ywEvBGbrqBRz0RONLVgb8pc2DVSKjC=w203-h135-k-no",
      "img2": "https://lh3.googleusercontent.com/p/AF1QipMxc5ZZoxtkvus7zrs3eb__xjyFj9warow-O2a9=w203-h360-k-no",
      "img3": "https://lh5.googleusercontent.com/p/AF1QipNR1EwxMhXIQ3_w36MkcXEIvjzoLL3pMuabfrfe=w203-h135-k-no"
    }
  },
  {
    "name": "The End Bar",
    "category": "NOT_FOUND",
    "address": "NO_ADDRESS",
    "website": "NO_WEBSITE",
    "phone": "NO_PHONE",
    "city": "NO_CITY",
    "auxiliar": "NOT_FOUND",
    "reviews_rating": "3.7",
    "num_reviews": "260",
    "description": "Sala y bar de copas de elegante diseño en tonos neutros que ofrece menús para grupos y acoge fiestas privadas.",
    "schedule": [
      {
        "day": "domingo",
        "hours": "Cerrado"
      },
      {
        "day": "lunes",
        "hours": "Cerrado"
      },
      {
        "day": "martes",
        "hours": "Cerrado"
      },
      {
        "day": "miércoles(Día del Padre)",
        "hours": "Cerrado El horario podría cambiar"
      },
      {
        "day": "jueves",
        "hours": "22:00–2:30"
      },
      {
        "day": "viernes",
        "hours": "20:00–3:00"
      },
      {
        "day": "sábado",
        "hours": "20:00–3:00"
      }
    ],
    "images": {
      "main": "https://lh5.googleusercontent.com/p/AF1QipPPJ8n28EzpeV5eqQWsmOcyu_TV4Eee0av1M7tL=w138-h92-k-no",
      "img1": "https://lh5.googleusercontent.com/p/AF1QipPPJ8n28EzpeV5eqQWsmOcyu_TV4Eee0av1M7tL=w203-h135-k-no",
      "img2": "https://lh5.googleusercontent.com/p/AF1QipMT6Bri77oH7KRAb01esSYK3CDWh1UMMHX9WDk4=w203-h270-k-no",
      "img3": "https://lh5.googleusercontent.com/p/AF1QipNC5hm2VaB3Z45mP1X1fNdSZojCiCBcRn9bbbvD=w203-h270-k-no"
    }
  },
  {
    "name": "Sala B Barcelona",
    "category": "Discoteca",
    "address": "C/ de Muntaner, 244, Sarrià-Sant Gervasi, 08021 Barcelona",
    "website": "luzdegas.com",
    "phone": "932097711",
    "city": "Barcelona",
    "auxiliar": "NOT_FOUND",
    "reviews_rating": "2.6",
    "num_reviews": "51",
    "description": "NOT_FOUND",
    "schedule": [
      {
        "day": "domingo",
        "hours": "0:00–6:00"
      },
      {
        "day": "lunes",
        "hours": "Cerrado"
      },
      {
        "day": "martes",
        "hours": "Cerrado"
      },
      {
        "day": "miércoles(Día del Padre)",
        "hours": "Cerrado El horario podría cambiar"
      },
      {
        "day": "jueves",
        "hours": "23:59–24:00"
      },
      {
        "day": "viernes",
        "hours": "0:00–5:0023:59–24:00"
      },
      {
        "day": "sábado",
        "hours": "0:00–6:0023:59–24:00"
      }
    ],
    "images": {
      "main": "https://lh5.googleusercontent.com/p/AF1QipOoWRkpQHquYfNgTyrcEeGM6GHYlpH1JhcndzaC=w80-h177-k-no",
      "img1": "https://lh5.googleusercontent.com/p/AF1QipOoWRkpQHquYfNgTyrcEeGM6GHYlpH1JhcndzaC=w203-h450-k-no",
      "img2": "https://lh3.googleusercontent.com/p/AF1QipNnk4wM50P-Hcp913tLABo7Ax3nfxkTKOzOSWFx=w203-h360-k-no",
      "img3": "//:0"
    },
    "email": "comunicacio@luzdegas.com"
  },
  {
    "name": "Quatre Cocteleria",
    "category": "Coctelería",
    "address": "Carrer de Lincoln, 3, Sarrià-Sant Gervasi, 08006 Barcelona",
    "website": "instagram.com",
    "phone": "645320677",
    "city": "NO_CITY",
    "auxiliar": "Carta",
    "reviews_rating": "4.9",
    "num_reviews": "389",
    "description": "NOT_FOUND",
    "schedule": "NOT_FOUND",
    "images": {
      "main": "https://lh5.googleusercontent.com/p/AF1QipM1GWnGYlvLMC4xYUVfmBsTLXjUqLF76_NHv1xk=w163-h92-k-no",
      "img1": "https://lh5.googleusercontent.com/p/AF1QipM1GWnGYlvLMC4xYUVfmBsTLXjUqLF76_NHv1xk=w203-h114-k-no",
      "img2": "https://lh3.googleusercontent.com/p/AF1QipPAs9VgGKsE7WCi-Yw1bEEa1hDDp9-ULNLTC7F8=w203-h203-k-no",
      "img3": "https://lh5.googleusercontent.com/p/AF1QipNRAgB0Etz-FcZFUgx5UBvmqBK8ZMTBWWnI5fTQ=w203-h270-k-no"
    },
    "email": "NO_EMAIL"
  },
  {
    "name": "Monterrey",
    "category": "Bar",
    "address": "Carrer Major de Sarrià, 68, Sarrià-Sant Gervasi, 08017 Barcelona",
    "website": "NO_WEBSITE",
    "phone": "NO_PHONE",
    "city": "NO_CITY",
    "auxiliar": "NOT_FOUND",
    "reviews_rating": "4.2",
    "num_reviews": "717",
    "description": "NOT_FOUND",
    "schedule": [
      {
        "day": "domingo",
        "hours": "Cerrado"
      },
      {
        "day": "lunes",
        "hours": "7:30–1:00"
      },
      {
        "day": "martes",
        "hours": "7:30–1:00"
      },
      {
        "day": "miércoles(Día del Padre)",
        "hours": "7:30–1:00 El horario podría cambiar"
      },
      {
        "day": "jueves",
        "hours": "7:30–1:00"
      },
      {
        "day": "viernes",
        "hours": "7:30–1:00"
      },
      {
        "day": "sábado",
        "hours": "7:30–2:00"
      }
    ],
    "images": {
      "main": "https://lh5.googleusercontent.com/p/AF1QipO2W8tvapOwsmDFnvt8bT7isyBb8Dw6gJbvMNE=w163-h92-k-no",
      "img1": "https://lh5.googleusercontent.com/p/AF1QipMWh82uB94JnmJmwPahfu9Rjj4rUa-wUVO9G1H2=w203-h152-k-no",
      "img2": "https://lh5.googleusercontent.com/p/AF1QipPbIfMiqZ2eGcc8AC4RnVVZ0Wmo4NPLmZzzVGWA=w203-h152-k-no",
      "img3": "https://lh5.googleusercontent.com/p/AF1QipNQLPx5kVveYdyyKdvSNH3JZkGXaTxeSvruHVmy=w203-h152-k-no"
    }
  },
  {
    "name": "Bling Bling Barcelona",
    "category": "Discoteca",
    "address": "Carrer de Tuset, 8-10, Sarrià-Sant Gervasi, 08006 Barcelona",
    "website": "blingblingbcn.com",
    "phone": "664244209",
    "city": "NO_CITY",
    "auxiliar": "Carta",
    "reviews_rating": "3.1",
    "num_reviews": "3324",
    "description": "Aperitivos de bar clásicos, champán y narguiles en una glamurosa discoteca de moda con pista de baile.",
    "schedule": [
      {
        "day": "domingo",
        "hours": "Cerrado"
      },
      {
        "day": "lunes",
        "hours": "Cerrado"
      },
      {
        "day": "martes",
        "hours": "Cerrado"
      },
      {
        "day": "miércoles(Día del Padre)",
        "hours": "0:30–5:00 El horario podría cambiar"
      },
      {
        "day": "jueves",
        "hours": "0:30–5:00"
      },
      {
        "day": "viernes",
        "hours": "0:30–6:00"
      },
      {
        "day": "sábado",
        "hours": "0:30–6:00"
      }
    ],
    "images": {
      "main": "https://lh5.googleusercontent.com/p/AF1QipOhQUp2ae80kROr8Ff6CUhhqTfcBS-oJD6Bkvg=w137-h92-k-no",
      "img1": "https://lh5.googleusercontent.com/p/AF1QipOYSBXRKgbhIktKpPKNNOtuwHIhoybapSUloK8=w203-h135-k-no",
      "img2": "https://lh3.googleusercontent.com/gps-cs-s/AB5caB8mBwnphpgrPgeydB_HEunH29AevqsRpOzr_pa93VI8XhaqQrF38EAX3b_JyQKsvsrGIRryqotl2iggrLg6tKPoq9r5tglZc2cbkcbJvLEIAAf6lr2A3vH5lRux7RDQ_zpAB3U=w203-h114-k-no",
      "img3": "https://lh3.googleusercontent.com/gps-cs-s/AB5caB9sKOgIaO_SwaeC8LagO_ezdtZmMhxUFFktImWlG-3XnXVlwcOeB6R0Sm3r7xWI5r20Jnh1eJ2LZLIbUT70SP50Og0ZlVfNv--gZCvkNPqGfzLue5bELHop8X1TF2-qxzaOAGpx=w203-h135-k-no"
    },
    "email": "NO_EMAIL"
  },
  {
    "name": "Merbeyé Cocktail Bar",
    "category": "Coctelería",
    "address": "Plaça del Doctor Andreu, 2, Sarrià-Sant Gervasi, 08035 Barcelona",
    "website": "merbeye.net",
    "phone": "934173549",
    "city": "Barcelona",
    "auxiliar": "NOT_FOUND",
    "reviews_rating": "3.9",
    "num_reviews": "619",
    "description": "Íntima coctelería decorada con telas y palmeras, que dispone de terraza en la planta baja y otra en la azotea.",
    "schedule": [
      {
        "day": "domingo",
        "hours": "12:00–24:00"
      },
      {
        "day": "lunes",
        "hours": "Cerrado"
      },
      {
        "day": "martes",
        "hours": "Cerrado"
      },
      {
        "day": "miércoles(Día del Padre)",
        "hours": "Cerrado El horario podría cambiar"
      },
      {
        "day": "jueves",
        "hours": "12:00–1:00"
      },
      {
        "day": "viernes",
        "hours": "12:00–3:00"
      },
      {
        "day": "sábado",
        "hours": "12:00–3:00"
      }
    ],
    "images": {
      "main": "https://lh5.googleusercontent.com/p/AF1QipNfgfRPIrRS3aqOlg5BrEoiyRHDlqAQyeeZ7Pax=w122-h92-k-no",
      "img1": "https://lh5.googleusercontent.com/p/AF1QipP62WqNHy1qQShS3FRuQNxGdBwJWId47anjVsX9=w203-h151-k-no",
      "img2": "https://lh3.googleusercontent.com/p/AF1QipMarUPiynE27xGd8Tvw57FyZKnGfDUbRxkzr08n=w203-h360-k-no",
      "img3": "https://lh5.googleusercontent.com/p/AF1QipOqj6V_Jq-bLlJYhtwPZAckO8tFVsZZhNwC4xoU=w203-h203-k-no"
    },
    "email": "merbeye@merbeye.net"
  },
  {
    "name": "Bar El Tomás de Sarriá",
    "category": "Bar de tapas",
    "address": "Carrer Major de Sarrià, 49, Sarrià-Sant Gervasi, 08017 Barcelona",
    "website": "eltomasdesarria.com",
    "phone": "932031077",
    "city": "Barcelona",
    "auxiliar": "NOT_FOUND",
    "reviews_rating": "4.3",
    "num_reviews": "6655",
    "description": "Bar clásico, especializado en patatas fritas al estilo tradicional con salsa picante, donde se sirven tapas y cerveza artesanal.",
    "schedule": [
      {
        "day": "domingo",
        "hours": "Cerrado"
      },
      {
        "day": "lunes",
        "hours": "12:30–16:0018:30–22:00"
      },
      {
        "day": "martes",
        "hours": "12:30–16:0018:30–22:00"
      },
      {
        "day": "miércoles(Día del Padre)",
        "hours": "12:30–16:0018:30–22:00 El horario podría cambiar"
      },
      {
        "day": "jueves",
        "hours": "12:30–16:0018:30–22:00"
      },
      {
        "day": "viernes",
        "hours": "12:30–16:0018:30–22:00"
      },
      {
        "day": "sábado",
        "hours": "12:00–16:0018:30–22:00"
      }
    ],
    "images": {
      "main": "https://lh5.googleusercontent.com/p/AF1QipOZkIfbv7fTIi7LY3K8jUtENnknq_mw5dYK9k5i=w122-h92-k-no",
      "img1": "https://lh5.googleusercontent.com/p/AF1QipMG0zSS6rFcCMeZ1XavyBbemBKTA-sQWmjtboNF=w244-h100-k-no",
      "img2": "https://lh3.googleusercontent.com/p/AF1QipNFFJAZbaAo016NAt-AMuAbt-s3y9jcWCj3_-Fu=w203-h360-k-no",
      "img3": "https://lh5.googleusercontent.com/p/AF1QipPD1CLFwpLDxVVO_QpRlQW9PUmixlooM4CRt7Km=w203-h304-k-no"
    },
    "email": "NO_EMAIL"
  },
  {
    "name": "A Viva Voz | Muntaner",
    "category": "NOT_FOUND",
    "address": "NO_ADDRESS",
    "website": "NO_WEBSITE",
    "phone": "NO_PHONE",
    "city": "NO_CITY",
    "auxiliar": "NOT_FOUND",
    "reviews_rating": "4.2",
    "num_reviews": "466",
    "description": "NOT_FOUND",
    "schedule": "NOT_FOUND",
    "images": {
      "main": "https://lh5.googleusercontent.com/p/AF1QipNqJaIEFifs1Vaqnmh_iLMEXAGInlJYYTU8oy13=w131-h92-k-no",
      "img1": "https://lh5.googleusercontent.com/p/AF1QipMj2QvAJBvuOP_CnLoPLRVwlDedAt_n9BXBJCZw=w203-h114-k-no",
      "img2": "https://lh3.googleusercontent.com/p/AF1QipM3jHczWN9WNN8cnP_cgO_sozMaRi-_ueAvJClW=w203-h114-k-no",
      "img3": "https://lh5.googleusercontent.com/p/AF1QipOfMQPJ_1BgJstwmHOLkijpbfzV8duGyZ6OlgfV=w203-h114-k-no"
    }
  },
  {
    "name": "Pary Gratis",
    "category": "Discoteca",
    "address": "Plaça de Molina, Distrito de Sarrià-Sant Gervasi, 08006 Barcelona",
    "website": "NO_WEBSITE",
    "phone": "NO_PHONE",
    "city": "NO_CITY",
    "auxiliar": "NOT_FOUND",
    "reviews_rating": "NOT_FOUND",
    "num_reviews": "",
    "description": "NOT_FOUND",
    "schedule": "NOT_FOUND",
    "images": {
      "main": "https://streetviewpixels-pa.googleapis.com/v1/thumbnail?panoid=EEokrTCbnDLvSKQu9Eg3yg&cb_client=search.gws-prod.gps&w=80&h=92&yaw=195.42682&pitch=0&thumbfov=100",
      "img1": "NOT_FOUND",
      "img2": "NOT_FOUND",
      "img3": "NOT_FOUND"
    }
  },
  {
    "name": "Mobster's Barcelona",
    "category": "Coctelería",
    "address": "Carrer de Moià, 1, Sarrià-Sant Gervasi, 08006 Barcelona",
    "website": "NO_WEBSITE",
    "phone": "NO_PHONE",
    "city": "NO_CITY",
    "auxiliar": "NOT_FOUND",
    "reviews_rating": "3.5",
    "num_reviews": "215",
    "description": "NOT_FOUND",
    "schedule": [
      {
        "day": "domingo",
        "hours": "Cerrado"
      },
      {
        "day": "lunes",
        "hours": "Cerrado"
      },
      {
        "day": "martes",
        "hours": "Cerrado"
      },
      {
        "day": "miércoles(Día del Padre)",
        "hours": "22:00–2:30 El horario podría cambiar"
      },
      {
        "day": "jueves",
        "hours": "22:00–2:30"
      },
      {
        "day": "viernes",
        "hours": "22:00–3:00"
      },
      {
        "day": "sábado",
        "hours": "22:00–3:00"
      }
    ],
    "images": {
      "main": "https://lh5.googleusercontent.com/p/AF1QipOrs8hQQ9d_V-kQiXskpOfwodfIXruieN5d6pj2=w138-h92-k-no",
      "img1": "https://lh5.googleusercontent.com/p/AF1QipMYWZozCUPCXcLJJhFCG_gFIsBjUBHSEgYM9bZb=w203-h142-k-no",
      "img2": "https://lh3.googleusercontent.com/p/AF1QipM7eNGriOyAnQoAwjYIOWFh2M2UHJKETfmApfTc=w203-h360-k-no",
      "img3": "https://lh5.googleusercontent.com/p/AF1QipOvHO1TzhJR6y171qGQ04fy5Yu8JhdujnZWxR1b=w203-h114-k-no"
    }
  },
  {
    "name": "Strip Club Barcelona | Las Vegas Night Girl",
    "category": "Club de entretenimiento para adultos",
    "address": "Calle de Aribau, 229, Distrito de Sarrià-Sant Gervasi, 08021 Barcelona",
    "website": "lasvegasbcn.com",
    "phone": "671858964",
    "city": "Barcelona",
    "auxiliar": "NOT_FOUND",
    "reviews_rating": "4.2",
    "num_reviews": "22",
    "description": "NOT_FOUND",
    "schedule": [
      {
        "day": "domingo",
        "hours": "Cerrado"
      },
      {
        "day": "lunes",
        "hours": "17:00–4:00"
      },
      {
        "day": "martes",
        "hours": "17:00–4:00"
      },
      {
        "day": "miércoles(Día del Padre)",
        "hours": "17:00–4:00 El horario podría cambiar"
      },
      {
        "day": "jueves",
        "hours": "17:00–4:00"
      },
      {
        "day": "viernes",
        "hours": "17:00–5:00"
      },
      {
        "day": "sábado",
        "hours": "17:00–5:00"
      }
    ],
    "images": {
      "main": "https://lh5.googleusercontent.com/p/AF1QipPEjfwpq6YOqbD82mFrKpnB92ZVs2D-vlKaL7m5=w138-h92-k-no",
      "img1": "https://streetviewpixels-pa.googleapis.com/v1/thumbnail?panoid=lZoB3lwtf-yhFpT3C1ZAwQ&cb_client=maps_sv.tactile.gps&w=203&h=100&yaw=216.96397&pitch=0&thumbfov=100",
      "img2": "https://lh5.googleusercontent.com/p/AF1QipNdWux7j612Jjuz7RU8g4FLZwAOsDXAIOM7za1v=w203-h304-k-no",
      "img3": "https://lh5.googleusercontent.com/p/AF1QipN-YZN7GD14HyS9k9qLqNhQl8l4zXdC0RNnmvZN=w203-h135-k-no"
    },
    "email": "info@lasvegasbcn.com"
  },
  {
    "name": "La Biblio Barcelona",
    "category": "NOT_FOUND",
    "address": "NO_ADDRESS",
    "website": "NO_WEBSITE",
    "phone": "NO_PHONE",
    "city": "NO_CITY",
    "auxiliar": "NOT_FOUND",
    "reviews_rating": "3.6",
    "num_reviews": "1002",
    "description": "NOT_FOUND",
    "schedule": [
      {
        "day": "domingo",
        "hours": "0:00–6:00"
      },
      {
        "day": "lunes",
        "hours": "Cerrado"
      },
      {
        "day": "martes",
        "hours": "Cerrado"
      },
      {
        "day": "miércoles(Día del Padre)",
        "hours": "Cerrado El horario podría cambiar"
      },
      {
        "day": "jueves",
        "hours": "23:59–24:00"
      },
      {
        "day": "viernes",
        "hours": "0:00–5:0023:59–24:00"
      },
      {
        "day": "sábado",
        "hours": "0:00–6:0023:59–24:00"
      }
    ],
    "images": {
      "main": "https://lh5.googleusercontent.com/p/AF1QipOqd5OBLp4DeOJXAaK1KBjxGyYkSK3U6dS5CMqB=w138-h92-k-no",
      "img1": "https://lh3.googleusercontent.com/gps-cs-s/AB5caB8nhR4tXfklKB8UTHSRT_MMpTFQ_Dhew-qVx99Rov-qmx1eGGRVSPeJoD4b5fUiqg_6x--En6sC4lfw5TU6M3RpuI9UGBjVU9a_oEaGzVlPPrQMxIhjvQ05aEELgAtXJju_SBCY=w203-h270-k-no",
      "img2": "https://lh3.googleusercontent.com/p/AF1QipP2aPO5ViWmTwFfmTxsIxCIM4pA8hwp51flE4aN=w203-h358-k-no",
      "img3": "//:0"
    }
  },
  {
    "name": "Mirablau",
    "category": "NOT_FOUND",
    "address": "Plaça del Doctor Andreu, s/n, Sarrià-Sant Gervasi, 08035 Barcelona",
    "website": "mirablaubcn.com",
    "phone": "934185879",
    "city": "NO_CITY",
    "auxiliar": "Carta",
    "reviews_rating": "4.3",
    "num_reviews": "12118",
    "description": "Tapas y vinos catalanes en una terraza con vistas a la montaña, música dance y ambiente animado por las noches.",
    "schedule": [
      {
        "day": "domingo",
        "hours": "0:00–6:0011:00–24:00"
      },
      {
        "day": "lunes",
        "hours": "0:00–3:0011:00–24:00"
      },
      {
        "day": "martes",
        "hours": "0:00–3:0011:00–24:00"
      },
      {
        "day": "miércoles(Día del Padre)",
        "hours": "0:00–3:0011:00–24:00 El horario podría cambiar"
      },
      {
        "day": "jueves",
        "hours": "0:00–3:0011:00–24:00"
      },
      {
        "day": "viernes",
        "hours": "0:00–3:0011:00–24:00"
      },
      {
        "day": "sábado",
        "hours": "0:00–6:0011:00–24:00"
      }
    ],
    "images": {
      "main": "https://lh5.googleusercontent.com/p/AF1QipN-w_CGnyxVI2RGz4ZYUo3B808R-yr_3jYpjZ5f=w163-h92-k-no",
      "img1": "https://lh5.googleusercontent.com/p/AF1QipMFPU-N5T3BktjORbEBPQQ_RsscULq0ucrhBG10=w203-h114-k-no",
      "img2": "https://lh3.googleusercontent.com/gps-cs-s/AB5caB8q3kwydlXy8K9ctykAK4piHkm_4Y5K_x2Usz3TKNWf7OxRLkNH8BgBVLKHXDr5iYPWIoyZnTXQU5jRSZmry_Y-zPOl2zLK4ZrZRYUFXNdeUHs0MBbUpcJnCdEDrwON4SsGTJxN=w203-h114-k-no",
      "img3": "https://lh3.googleusercontent.com/gps-cs-s/AB5caB_bZRxqP5U84t2xKQMLozpjUmFV0I18z4LzEciDPyNVVuDgsSZ9P3AqGmi4IaXD9AIC1AIRybToYO3aVQE3u_XYOXhvkyKweKVprt7gMeQZ19mpPYgE8wRpD5gpegetXllWCZOvkQ=w203-h270-k-no"
    },
    "email": "mirablau@mirablaubcn.com"
  },
  {
    "name": "Karamba Discotek",
    "category": "Club nocturno",
    "address": "Carrer de Santa Fe de Nou Mèxic, 3, Sarrià-Sant Gervasi, 08017 Barcelona",
    "website": "NO_WEBSITE",
    "phone": "NO_PHONE",
    "city": "NO_CITY",
    "auxiliar": "NOT_FOUND",
    "reviews_rating": "5.0",
    "num_reviews": "2",
    "description": "NOT_FOUND",
    "schedule": "NOT_FOUND",
    "images": {
      "main": "https://streetviewpixels-pa.googleapis.com/v1/thumbnail?panoid=rOvc25JjFM4TGyRFK-kO9A&cb_client=search.gws-prod.gps&w=80&h=92&yaw=316.127&pitch=0&thumbfov=100",
      "img1": "NOT_FOUND",
      "img2": "NOT_FOUND",
      "img3": "NOT_FOUND"
    }
  },
  {
    "name": "El Canalla",
    "category": "Restaurante",
    "address": "Carrer Major de Sarrià, 95, Sarrià-Sant Gervasi, 08017 Barcelona",
    "website": "gruposantelmo.com",
    "phone": "932058806",
    "city": "NO_CITY",
    "auxiliar": "Carta",
    "reviews_rating": "4.0",
    "num_reviews": "1198",
    "description": "NOT_FOUND",
    "schedule": [
      {
        "day": "domingo",
        "hours": "12:00–23:00"
      },
      {
        "day": "lunes",
        "hours": "13:00–24:00"
      },
      {
        "day": "martes",
        "hours": "13:00–24:00"
      },
      {
        "day": "miércoles(Día del Padre)",
        "hours": "13:00–24:00 El horario podría cambiar"
      },
      {
        "day": "jueves",
        "hours": "13:00–24:00"
      },
      {
        "day": "viernes",
        "hours": "13:00–24:00"
      },
      {
        "day": "sábado",
        "hours": "12:00–24:00"
      }
    ],
    "images": {
      "main": "https://lh5.googleusercontent.com/p/AF1QipNits6HT-2-xARikVFIf31J0ZZPM_HewP2eT8t1=w184-h92-k-no",
      "img1": "https://lh5.googleusercontent.com/p/AF1QipPiw5O6nFKvU7HheO3U16VBvPTvuIN_te-bpe7u=w203-h304-k-no",
      "img2": "https://lh3.googleusercontent.com/p/AF1QipN97pNDHpTxbESQ9hYynnvfeVTtOhQrhZyBgGw7=w203-h360-k-no",
      "img3": "https://lh5.googleusercontent.com/p/AF1QipN0g9SRq2WKjplFPNcgOTWpslEXrhiO4Q6xL2bO=w203-h135-k-no"
    },
    "email": "reservas@gruposantelmo.com"
  },
  {
    "name": "Snack Bar Torre de l'Or",
    "category": "Snack bar",
    "address": "NOT_FOUND",
    "website": "Av. de Sarrià, 36, Les Corts, 08029 Barcelona",
    "phone": "933223504",
    "city": "Barcelona",
    "auxiliar": "NOT_FOUND",
    "reviews_rating": "4.0",
    "num_reviews": "141",
    "description": "NOT_FOUND",
    "schedule": [
      {
        "day": "domingo",
        "hours": "Cerrado"
      },
      {
        "day": "lunes",
        "hours": "6:30–23:00"
      },
      {
        "day": "martes",
        "hours": "6:30–23:00"
      },
      {
        "day": "miércoles(Día del Padre)",
        "hours": "6:30–23:00 El horario podría cambiar"
      },
      {
        "day": "jueves",
        "hours": "6:30–23:00"
      },
      {
        "day": "viernes",
        "hours": "6:30–23:00"
      },
      {
        "day": "sábado",
        "hours": "6:30–17:00"
      }
    ],
    "images": {
      "main": "https://lh5.googleusercontent.com/p/AF1QipNEKvSgIBIQJX101FutjvbhWd5nbwGHz98qPhWi=w122-h92-k-no",
      "img1": "https://lh5.googleusercontent.com/p/AF1QipNEKvSgIBIQJX101FutjvbhWd5nbwGHz98qPhWi=w203-h152-k-no",
      "img2": "https://lh5.googleusercontent.com/p/AF1QipMKyIsNfILHT87CwzTY1AIE8vcJI8GkHzCps2xG=w203-h152-k-no",
      "img3": "https://lh5.googleusercontent.com/p/AF1QipPkhqmayqzY6WNpmVwq4s3VGyFxNC8m5JlD3vZK=w203-h114-k-no"
    },
    "email": "NO_EMAIL"
  },
  {
    "name": "Luz de Gas Barcelona",
    "category": "Discoteca",
    "address": "C/ de Muntaner, 246, Sarrià-Sant Gervasi, 08021 Barcelona",
    "website": "luzdegas.com",
    "phone": "932097711",
    "city": "Barcelona",
    "auxiliar": "NOT_FOUND",
    "reviews_rating": "4.0",
    "num_reviews": "6393",
    "description": "Sala de conciertos y local nocturno con una decoración refinada, lámparas de araña, escenario y bar.",
    "schedule": [
      {
        "day": "domingo",
        "hours": "Cerrado"
      },
      {
        "day": "lunes",
        "hours": "Cerrado"
      },
      {
        "day": "martes",
        "hours": "Cerrado"
      },
      {
        "day": "miércoles(Día del Padre)",
        "hours": "Cerrado El horario podría cambiar"
      },
      {
        "day": "jueves",
        "hours": "0:00–6:00"
      },
      {
        "day": "viernes",
        "hours": "0:00–6:00"
      },
      {
        "day": "sábado",
        "hours": "0:00–6:00"
      }
    ],
    "images": {
      "main": "https://lh5.googleusercontent.com/p/AF1QipM02QTPvcjW6esK6ca1XOiO8z50yUd5wMxgcsGx=w163-h92-k-no",
      "img1": "https://lh3.googleusercontent.com/p/AF1QipMkT847UdpW2fMy-Vf9h6d8fJtUEdPbP55q__iE=w203-h114-k-no",
      "img2": "https://lh3.googleusercontent.com/p/AF1QipNJ3Vxa939kWNdZDOTCMCQPBP2qdjZPKxt3cIQw=w203-h114-k-no",
      "img3": "https://lh5.googleusercontent.com/p/AF1QipMrJYMm_Do2fFw3rrIFwjxj5R5B5kqqGLFtYSEh=w203-h114-k-no"
    },
    "email": "comunicacio@luzdegas.com"
  },
  {
    "name": "Casa Fernández",
    "category": "NOT_FOUND",
    "address": "NO_ADDRESS",
    "website": "NO_WEBSITE",
    "phone": "NO_PHONE",
    "city": "NO_CITY",
    "auxiliar": "NOT_FOUND",
    "reviews_rating": "4.2",
    "num_reviews": "540",
    "description": "Tapas y platos caseros de la cocina española y mediterránea en un restaurante sencillo abierto desde 1989.",
    "schedule": [
      {
        "day": "domingo",
        "hours": "12:00–24:00"
      },
      {
        "day": "lunes",
        "hours": "13:00–17:0019:00–24:00"
      },
      {
        "day": "martes",
        "hours": "13:00–17:0019:00–24:00"
      },
      {
        "day": "miércoles(Día del Padre)",
        "hours": "13:00–17:0019:00–24:00 El horario podría cambiar"
      },
      {
        "day": "jueves",
        "hours": "13:00–17:0019:00–24:00"
      },
      {
        "day": "viernes",
        "hours": "13:00–17:0019:00–1:00"
      },
      {
        "day": "sábado",
        "hours": "12:00–17:0019:00–1:00"
      }
    ],
    "images": {
      "main": "https://lh5.googleusercontent.com/p/AF1QipNyUenE8aeNRKRgDYpj3HBvhbkg1KK468cfTmfg=w137-h92-k-no",
      "img1": "https://lh5.googleusercontent.com/p/AF1QipNlzWX-fncNyTuD2RaHG0VRMoOXitTk-LTAjuAc=w203-h135-k-no",
      "img2": "https://lh5.googleusercontent.com/p/AF1QipMGcqGPq9IQNsGb-j4CBMWWBV6995Bj7_TChbIV=w203-h134-k-no",
      "img3": "https://lh5.googleusercontent.com/p/AF1QipPcxyeZOM2SNwQB8ZdEBCiWSNv2dh57jqJymzz1=w203-h152-k-no"
    }
  },
  {
    "name": "La Orquidea Karaoke",
    "category": "NOT_FOUND",
    "address": "NO_ADDRESS",
    "website": "NO_WEBSITE",
    "phone": "NO_PHONE",
    "city": "NO_CITY",
    "auxiliar": "NOT_FOUND",
    "reviews_rating": "2.9",
    "num_reviews": "284",
    "description": "NOT_FOUND",
    "schedule": "NOT_FOUND",
    "images": {
      "main": "https://lh5.googleusercontent.com/p/AF1QipOycIdBIHEKP5wehcKAEI6-6Dg4PJME_KQvfOEV=w163-h92-k-no",
      "img1": "https://lh5.googleusercontent.com/p/AF1QipOycIdBIHEKP5wehcKAEI6-6Dg4PJME_KQvfOEV=w203-h114-k-no",
      "img2": "https://lh5.googleusercontent.com/p/AF1QipMuoYtqCHruyJmBe3OW3fxr1e3vQBlAOrAX5tD3=w203-h178-k-no",
      "img3": "https://lh5.googleusercontent.com/p/AF1QipPLplwWKRs_aL8lebz9qL3Mnc4-IfTleH3TH2Tx=w203-h270-k-no"
    }
  },
  {
    "name": "Discoteca Barcelona / Night Club Barcelona",
    "category": "Discoteca",
    "address": "Carrer de Tuset, 12, Sarrià-Sant Gervasi, 08006 Barcelona",
    "website": "youbarcelona.com",
    "phone": "NO_PHONE",
    "city": "NO_CITY",
    "auxiliar": "Planta 0 · Monitor Building",
    "reviews_rating": "4.0",
    "num_reviews": "20",
    "description": "NOT_FOUND",
    "schedule": "NOT_FOUND",
    "images": {
      "main": "https://lh5.googleusercontent.com/p/AF1QipP0yHc0i_GN2N-lItKYamYKrWdLMMFqhT3RvJ7x=w143-h92-k-no",
      "img1": "https://lh5.googleusercontent.com/p/AF1QipO3oiDk84LxkzcMsmO1Ica0XcXtPUGX3Al5p2V1=w203-h131-k-no",
      "img2": "https://lh3.googleusercontent.com/p/AF1QipMSqn8sirgaAa6iX27JMnae1nfvRDt0mIAbA2Ei=w203-h360-k-no",
      "img3": "https://lh5.googleusercontent.com/p/AF1QipMNxiHO89NeDUpo9KtHXluOgEtzqC_ohNNaTpXh=w203-h135-k-no"
    },
    "email": "NO_EMAIL"
  },
  {
    "name": "Otto Zutz Barcelona",
    "category": "NOT_FOUND",
    "address": "NO_ADDRESS",
    "website": "NO_WEBSITE",
    "phone": "NO_PHONE",
    "city": "NO_CITY",
    "auxiliar": "NOT_FOUND",
    "reviews_rating": "3.3",
    "num_reviews": "5055",
    "description": "Discoteca con varias salas e iluminación ambiental, especializada en R&B, hiphop y reguetón.",
    "schedule": [
      {
        "day": "domingo",
        "hours": "0:00–6:00"
      },
      {
        "day": "lunes",
        "hours": "Cerrado"
      },
      {
        "day": "martes",
        "hours": "Cerrado"
      },
      {
        "day": "miércoles(Día del Padre)",
        "hours": "Cerrado El horario podría cambiar"
      },
      {
        "day": "jueves",
        "hours": "23:55–24:00"
      },
      {
        "day": "viernes",
        "hours": "0:00–5:0023:55–24:00"
      },
      {
        "day": "sábado",
        "hours": "0:00–6:0018:30–24:00"
      }
    ],
    "images": {
      "main": "https://lh5.googleusercontent.com/p/AF1QipMoN29MIXnuoQuLnBgZ9IrX78aeFFfItTY1cIOO=w138-h92-k-no",
      "img1": "https://lh3.googleusercontent.com/gps-cs-s/AB5caB8pY87rNG6uNz4EL2cAyxIkoKMMVaaT23MmTt2JFF5d6DiBJisbJomSuqMPGOnmTkXYGfDpQay8IzcY8sxeXcurUoQO_5em9l169iRtVEu2iTgrnoB81v7v6_hd3LqllIDMuxiTqw=w203-h271-k-no",
      "img2": "https://lh3.googleusercontent.com/gps-cs-s/AB5caB9T2V6f8m1jAhiXxvRt33pfARHLC7v_xvbCnlLliIloWbmPA0NCzBMhNt6-vXwx2AOC-koB0u0pcQ7qv3QXFqq1mrNhMSZchPHnxq6pgmFYD20Jsluc-CDqvBFnpefriPBbaulQ=w203-h114-k-no",
      "img3": "https://lh3.googleusercontent.com/p/AF1QipMWAXBBxzaS_-i7akpd7aK2Ap6xLHgJv8ql9lPX=w203-h100-k-no-pi0-ya180-ro0-fo100"
    }
  },
  {
    "name": "New Balmes",
    "category": "Club nocturno",
    "address": "Carrer de Balmes, 369, 365, Distrito de Sarrià-Sant Gervasi, 08006 Barcelona",
    "website": "NO_WEBSITE",
    "phone": "NO_PHONE",
    "city": "NO_CITY",
    "auxiliar": "NOT_FOUND",
    "reviews_rating": "5.0",
    "num_reviews": "5",
    "description": "NOT_FOUND",
    "schedule": "NOT_FOUND",
    "images": {
      "main": "https://streetviewpixels-pa.googleapis.com/v1/thumbnail?panoid=gU41N3PrY5kUuQwF6_wRVw&cb_client=search.gws-prod.gps&w=80&h=92&yaw=156.5989&pitch=0&thumbfov=100",
      "img1": "NOT_FOUND",
      "img2": "NOT_FOUND",
      "img3": "NOT_FOUND"
    }
  }
]