[
  {
    "name": "Lennon's Club",
    "category": "Discoteca",
    "address": "Av. Fabregada, 91, 08901 L'Hospitalet de Llobregat, Barcelona",
    "website": "lennonsclub.com",
    "phone": "NO_PHONE",
    "city": "NO_CITY",
    "auxiliar": "NOT_FOUND",
    "reviews_rating": "3.8",
    "num_reviews": "120",
    "description": "NOT_FOUND",
    "schedule": [
      {
        "day": "viernes",
        "hours": "21:00–24:00"
      },
      {
        "day": "sábado",
        "hours": "0:00–6:0021:00–24:00"
      },
      {
        "day": "domingo",
        "hours": "0:00–6:00"
      },
      {
        "day": "lunes",
        "hours": "Cerrado"
      },
      {
        "day": "martes",
        "hours": "Cerrado"
      },
      {
        "day": "miércoles",
        "hours": "Cerrado"
      },
      {
        "day": "jueves",
        "hours": "Cerrado"
      }
    ],
    "img1": "https://lh5.googleusercontent.com/p/AF1QipN_pjesaYgDr7_tCVmnepo04aIB1O5SCH1AxMVC=w122-h92-k-no",
    "img2": "https://lh5.googleusercontent.com/p/AF1QipOvDhXFfWAQf6zUxuP-ndv0_vFfb8JFJuoD3z_6=w408-h296-k-no",
    "email": "NO_EMAIL"
  },
  {
    "name": "Bar Odisea 5.0",
    "category": "Bar musical",
    "address": "Carrer de Barcelona, 49, 08901 L'Hospitalet de Llobregat, Barcelona",
    "website": "wa.link",
    "phone": "689024401",
    "city": "NO_CITY",
    "auxiliar": "Carta",
    "reviews_rating": "4.2",
    "num_reviews": "576",
    "description": "NOT_FOUND",
    "schedule": [
      {
        "day": "viernes",
        "hours": "21:00–3:00"
      },
      {
        "day": "sábado",
        "hours": "19:00–3:00"
      },
      {
        "day": "domingo",
        "hours": "19:00–2:00"
      },
      {
        "day": "lunes",
        "hours": "Cerrado"
      },
      {
        "day": "martes",
        "hours": "Cerrado"
      },
      {
        "day": "miércoles",
        "hours": "21:00–2:00"
      },
      {
        "day": "jueves",
        "hours": "21:00–2:00"
      }
    ],
    "img1": "https://lh5.googleusercontent.com/p/AF1QipOc4924CZu19ORaK3M3F2SbPvk9pPd4krk9dXOH=w138-h92-k-no",
    "img2": "https://lh5.googleusercontent.com/p/AF1QipPUM1hc0SjoH6TAH-PNGyoP2iMYq0BKlsciEDYc=w408-h544-k-no",
    "email": "NO_EMAIL"
  },
  {
    "name": "Karaoke Rooms Barcelona",
    "category": "Karaoke",
    "address": "Reservar una mesa",
    "website": "Av. del Carrilet, 237, 08907 L'Hospitalet de Llobregat, Barcelona",
    "phone": "675923826",
    "city": "NO_CITY",
    "auxiliar": "Carta",
    "reviews_rating": "4.6",
    "num_reviews": "393",
    "description": "NOT_FOUND",
    "schedule": [
      {
        "day": "viernes",
        "hours": "10:00–2:00"
      },
      {
        "day": "sábado",
        "hours": "10:00–2:00"
      },
      {
        "day": "domingo",
        "hours": "10:00–24:00"
      },
      {
        "day": "lunes",
        "hours": "9:00–17:00"
      },
      {
        "day": "martes",
        "hours": "10:00–24:00"
      },
      {
        "day": "miércoles",
        "hours": "10:00–24:00"
      },
      {
        "day": "jueves",
        "hours": "10:00–24:00"
      }
    ],
    "img1": "https://lh5.googleusercontent.com/p/AF1QipMsCjh9G20qci8QQ-pUYfhPCUM8oVdz5NVG_spi=w124-h92-k-no",
    "img2": "https://lh5.googleusercontent.com/p/AF1QipOZ3gEh88jeQiJ_LDWSBPelTDFyUUQidzI-u5wI=w408-h272-k-no",
    "email": "NO_EMAIL"
  },
  {
    "name": "KRAW CLUB",
    "category": "Discoteca",
    "address": "Passatge Can Polític, 13, 08907 L'Hospitalet de Llobregat, Barcelona",
    "website": "instagram.com",
    "phone": "NO_PHONE",
    "city": "NO_CITY",
    "auxiliar": "NOT_FOUND",
    "reviews_rating": "5.0",
    "num_reviews": "1",
    "description": "NOT_FOUND",
    "schedule": "NOT_FOUND",
    "img1": "https://lh5.googleusercontent.com/p/AF1QipONDWEZdj8cqC_SN5mi0g63kR-IPwUGXWNO-O-U=w80-h106-k-no",
    "img2": "https://streetviewpixels-pa.googleapis.com/v1/thumbnail?panoid=0wzWoPWdGihLFKe8gcEVQQ&cb_client=search.gws-prod.gps&w=408&h=240&yaw=64.09623&pitch=0&thumbfov=100",
    "email": "NO_EMAIL"
  },
  {
    "name": "Bar 1×2",
    "category": "Lounge",
    "address": "Carrer de les Mimoses, 21, 08905 L'Hospitalet de Llobregat, Barcelona",
    "website": "NO_WEBSITE",
    "phone": "NO_PHONE",
    "city": "NO_CITY",
    "auxiliar": "NOT_FOUND",
    "reviews_rating": "4.0",
    "num_reviews": "22",
    "description": "NOT_FOUND",
    "schedule": [
      {
        "day": "viernes",
        "hours": "10:00–23:00"
      },
      {
        "day": "sábado",
        "hours": "10:00–23:00"
      },
      {
        "day": "domingo",
        "hours": "10:00–23:00"
      },
      {
        "day": "lunes",
        "hours": "10:00–23:00"
      },
      {
        "day": "martes",
        "hours": "10:00–23:00"
      },
      {
        "day": "miércoles",
        "hours": "10:00–23:00"
      },
      {
        "day": "jueves",
        "hours": "10:00–23:00"
      }
    ],
    "img1": "https://streetviewpixels-pa.googleapis.com/v1/thumbnail?panoid=A0AhZLABbtqG_nK4qfp65w&cb_client=search.gws-prod.gps&w=80&h=92&yaw=32.476707&pitch=0&thumbfov=100",
    "img2": "https://streetviewpixels-pa.googleapis.com/v1/thumbnail?panoid=A0AhZLABbtqG_nK4qfp65w&cb_client=search.gws-prod.gps&w=408&h=240&yaw=32.476707&pitch=0&thumbfov=100"
  },
  {
    "name": ".",
    "category": "Bar",
    "address": "Carrer de la Pubilla Cases, 18, 08906 L'Hospitalet de Llobregat, Barcelona",
    "website": "NO_WEBSITE",
    "phone": "NO_PHONE",
    "city": "NO_CITY",
    "auxiliar": "NOT_FOUND",
    "reviews_rating": "4.1",
    "num_reviews": "41",
    "description": "NOT_FOUND",
    "schedule": [
      {
        "day": "viernes",
        "hours": "6:00–1:00"
      },
      {
        "day": "sábado",
        "hours": "6:00–1:00"
      },
      {
        "day": "domingo",
        "hours": "6:00–24:00"
      },
      {
        "day": "lunes",
        "hours": "Cerrado"
      },
      {
        "day": "martes",
        "hours": "0:00–1:006:00–1:00"
      },
      {
        "day": "miércoles",
        "hours": "6:00–1:00"
      },
      {
        "day": "jueves",
        "hours": "6:00–1:00"
      }
    ],
    "img1": "https://lh5.googleusercontent.com/p/AF1QipPTG3QjfAX94tfwuJ3Sb4qel-lLTbJHemi6K5Qs=w80-h139-k-no",
    "img2": "https://lh5.googleusercontent.com/p/AF1QipPTG3QjfAX94tfwuJ3Sb4qel-lLTbJHemi6K5Qs=w408-h711-k-no"
  },
  {
    "name": "Casablanca Hospitalet",
    "category": "Bar musical",
    "address": "Carrer de Rodés, 32, 34, 08901 L'HOSPITALET, Barcelona",
    "website": "NO_WEBSITE",
    "phone": "NO_PHONE",
    "city": "NO_CITY",
    "auxiliar": "NOT_FOUND",
    "reviews_rating": "4.1",
    "num_reviews": "274",
    "description": "NOT_FOUND",
    "schedule": [
      {
        "day": "viernes",
        "hours": "19:00–3:30"
      },
      {
        "day": "sábado",
        "hours": "19:00–3:30"
      },
      {
        "day": "domingo",
        "hours": "Cerrado"
      },
      {
        "day": "lunes",
        "hours": "Cerrado"
      },
      {
        "day": "martes",
        "hours": "Cerrado"
      },
      {
        "day": "miércoles",
        "hours": "Cerrado"
      },
      {
        "day": "jueves",
        "hours": "Cerrado"
      }
    ],
    "img1": "https://lh5.googleusercontent.com/p/AF1QipPs1Hh_2kRphwAHS0IxyOM6D0KYme7ugWb2Lom8=w122-h92-k-no",
    "img2": "https://lh5.googleusercontent.com/p/AF1QipPyiBr16wdbsyri5_PdRjkz7PXYs54xv5h7Bdev=w408-h306-k-no"
  },
  {
    "name": "Bar Anubis",
    "category": "Lounge",
    "address": "Carrer de Rafael Campalans, 166, 08903 L'Hospitalet de Llobregat, Barcelona",
    "website": "facebook.com",
    "phone": "933325692",
    "city": "L'Hospitalet de Llobregat",
    "auxiliar": "NOT_FOUND",
    "reviews_rating": "3.9",
    "num_reviews": "58",
    "description": "NOT_FOUND",
    "schedule": [
      {
        "day": "viernes",
        "hours": "8:00–22:00"
      },
      {
        "day": "sábado",
        "hours": "8:00–22:00"
      },
      {
        "day": "domingo",
        "hours": "8:00–22:00"
      },
      {
        "day": "lunes",
        "hours": "8:00–22:00"
      },
      {
        "day": "martes",
        "hours": "8:00–22:00"
      },
      {
        "day": "miércoles",
        "hours": "8:00–22:00"
      },
      {
        "day": "jueves",
        "hours": "8:00–22:00"
      }
    ],
    "img1": "https://lh5.googleusercontent.com/p/AF1QipMSUvbU9OvG6Wgk_2NfHXqZKzXhoHKoriv6ohCF=w122-h92-k-no",
    "img2": "https://lh5.googleusercontent.com/p/AF1QipMSUvbU9OvG6Wgk_2NfHXqZKzXhoHKoriv6ohCF=w408-h306-k-no",
    "email": "NO_EMAIL"
  },
  {
    "name": "Vermuteria Ermita",
    "category": "Club nocturno",
    "address": "Planta G · Parroquia de Nuestra Señora de Bellvitge",
    "website": "Av. Mare de Déu de Bellvitge, 3, 08907 L'Hospitalet de Llobregat, Barcelona",
    "phone": "935417321",
    "city": "L'Hospitalet de Llobregat",
    "auxiliar": "Reclamar esta empresa",
    "reviews_rating": "5.0",
    "num_reviews": "1",
    "description": "NOT_FOUND",
    "schedule": "NOT_FOUND",
    "img1": "https://maps.gstatic.com/tactile/pane/result-no-thumbnail-1x.png",
    "img2": "https://maps.gstatic.com/tactile/pane/default_geocode-1x.png",
    "email": "NO_EMAIL"
  },
  {
    "name": "Bar Terraza",
    "category": "Lounge",
    "address": "Carrer del Molí, 23, 08906 L'Hospitalet de Llobregat, Barcelona",
    "website": "NO_WEBSITE",
    "phone": "NO_PHONE",
    "city": "NO_CITY",
    "auxiliar": "NOT_FOUND",
    "reviews_rating": "4.6",
    "num_reviews": "47",
    "description": "NOT_FOUND",
    "schedule": [
      {
        "day": "viernes",
        "hours": "8:30–23:30"
      },
      {
        "day": "sábado",
        "hours": "8:30–23:30"
      },
      {
        "day": "domingo",
        "hours": "9:00–23:30"
      },
      {
        "day": "lunes",
        "hours": "8:30–23:30"
      },
      {
        "day": "martes",
        "hours": "8:30–23:30"
      },
      {
        "day": "miércoles",
        "hours": "8:30–23:30"
      },
      {
        "day": "jueves",
        "hours": "Cerrado"
      }
    ],
    "img1": "https://lh5.googleusercontent.com/p/AF1QipM8tkZiTQP6nYVDcRTkOXMGZOqgFLAsbqK7WQQ9=w80-h106-k-no",
    "img2": "https://lh5.googleusercontent.com/p/AF1QipM8tkZiTQP6nYVDcRTkOXMGZOqgFLAsbqK7WQQ9=w408-h544-k-no"
  },
  {
    "name": "L'Oncle Jack Music & Cocktail Bar",
    "category": "Bar musical",
    "address": "Carrer de les Roselles, 32, 08901 L'Hospitalet de Llobregat, Barcelona",
    "website": "mizuwaricocktailbar.es",
    "phone": "692123697",
    "city": "L'Hospitalet de Llobregat",
    "auxiliar": "NOT_FOUND",
    "reviews_rating": "4.6",
    "num_reviews": "652",
    "description": "NOT_FOUND",
    "schedule": [
      {
        "day": "viernes",
        "hours": "18:00–3:00"
      },
      {
        "day": "sábado",
        "hours": "17:00–3:00"
      },
      {
        "day": "domingo",
        "hours": "17:00–22:00"
      },
      {
        "day": "lunes",
        "hours": "Cerrado"
      },
      {
        "day": "martes",
        "hours": "Cerrado"
      },
      {
        "day": "miércoles",
        "hours": "18:00–2:00"
      },
      {
        "day": "jueves",
        "hours": "18:00–2:00"
      }
    ],
    "img1": "https://lh5.googleusercontent.com/p/AF1QipOniT6KKlwoTF7eiMINmXt3J2B12wFsipo-txbZ=w122-h92-k-no",
    "img2": "https://lh5.googleusercontent.com/p/AF1QipM9__E9xsN82MIUwhKrXccSVGd_7RRmwvoqDxMX=w426-h240-k-no",
    "email": "NO_EMAIL"
  },
  {
    "name": "Juanchito",
    "category": "Discoteca",
    "address": "Carrer d'Enric Prat de la Riba, 61, 08901 L'Hospitalet de Llobregat, Barcelona",
    "website": "NO_WEBSITE",
    "phone": "NO_PHONE",
    "city": "NO_CITY",
    "auxiliar": "NOT_FOUND",
    "reviews_rating": "3.9",
    "num_reviews": "496",
    "description": "NOT_FOUND",
    "schedule": [
      {
        "day": "viernes",
        "hours": "23:00–24:00"
      },
      {
        "day": "sábado",
        "hours": "0:00–17:0023:00–24:00"
      },
      {
        "day": "domingo",
        "hours": "0:00–17:00"
      },
      {
        "day": "lunes",
        "hours": "Cerrado"
      },
      {
        "day": "martes",
        "hours": "Cerrado"
      },
      {
        "day": "miércoles",
        "hours": "Cerrado"
      },
      {
        "day": "jueves",
        "hours": "Cerrado"
      }
    ],
    "img1": "https://lh5.googleusercontent.com/p/AF1QipO6ec-IT7YRMI_g3f5goc7Sc777X0jshEnO4pAZ=w122-h92-k-no",
    "img2": "https://lh5.googleusercontent.com/p/AF1QipM6xDhlidUzrBdSvHONQ2N0FqK9nVi2kLTUVuQ_=w408-h544-k-no"
  },
  {
    "name": "Albaicín",
    "category": "Bar",
    "address": "Carrer de Josep Pla, 6, 08901 L'Hospitalet de Llobregat, Barcelona",
    "website": "NO_WEBSITE",
    "phone": "NO_PHONE",
    "city": "NO_CITY",
    "auxiliar": "NOT_FOUND",
    "reviews_rating": "4.3",
    "num_reviews": "136",
    "description": "NOT_FOUND",
    "schedule": [
      {
        "day": "viernes",
        "hours": "6:15–23:00"
      },
      {
        "day": "sábado",
        "hours": "7:30–23:00"
      },
      {
        "day": "domingo",
        "hours": "Cerrado"
      },
      {
        "day": "lunes",
        "hours": "6:15–23:00"
      },
      {
        "day": "martes",
        "hours": "6:15–23:00"
      },
      {
        "day": "miércoles",
        "hours": "6:15–23:00"
      },
      {
        "day": "jueves",
        "hours": "6:15–23:00"
      }
    ],
    "img1": "https://lh5.googleusercontent.com/p/AF1QipMNA0W6E3EffVp3QdYisf52_aXgako5Z-gLotXU=w80-h142-k-no",
    "img2": "https://lh5.googleusercontent.com/p/AF1QipMNA0W6E3EffVp3QdYisf52_aXgako5Z-gLotXU=w408-h725-k-no"
  },
  {
    "name": "LOUNGE LA LIBERTAD 2",
    "category": "Lounge",
    "address": "Carrer de Diògenes, 19, 08905 L'Hospitalet de Llobregat, Barcelona",
    "website": "NO_WEBSITE",
    "phone": "NO_PHONE",
    "city": "NO_CITY",
    "auxiliar": "NOT_FOUND",
    "reviews_rating": "4.7",
    "num_reviews": "31",
    "description": "NOT_FOUND",
    "schedule": [
      {
        "day": "viernes",
        "hours": "17:00–3:00"
      },
      {
        "day": "sábado",
        "hours": "17:00–3:00"
      },
      {
        "day": "domingo",
        "hours": "17:00–2:30"
      },
      {
        "day": "lunes",
        "hours": "17:00–2:30"
      },
      {
        "day": "martes",
        "hours": "17:00–2:30"
      },
      {
        "day": "miércoles",
        "hours": "17:00–2:30"
      },
      {
        "day": "jueves",
        "hours": "17:00–2:30"
      }
    ],
    "img1": "https://lh5.googleusercontent.com/p/AF1QipP2NB6ypIdgjHXh6dD1I8MTeMB1djRYpQ2px8gk=w204-h92-k-no",
    "img2": "https://lh5.googleusercontent.com/p/AF1QipPXczci3pA_MdYAMEHjVrG0cB0UM1txh9VNBGqf=w408-h544-k-no"
  },
  {
    "name": "Skyfall Cocktail Club",
    "category": "Club nocturno",
    "address": "Avinguda de la Granvia de l’Hospitalet, 144, 08907 L'Hospitalet de Llobregat, Barcelona",
    "website": "skyfallbcn.com",
    "phone": "613012610",
    "city": "L'Hospitalet de Llobregat",
    "auxiliar": "Planta 0 · Restaurant Terrum",
    "reviews_rating": "3.9",
    "num_reviews": "1029",
    "description": "NOT_FOUND",
    "schedule": [
      {
        "day": "viernes",
        "hours": "19:00–3:30"
      },
      {
        "day": "sábado",
        "hours": "19:00–3:30"
      },
      {
        "day": "domingo",
        "hours": "17:00–1:00"
      },
      {
        "day": "lunes",
        "hours": "19:00–2:00"
      },
      {
        "day": "martes",
        "hours": "19:00–2:00"
      },
      {
        "day": "miércoles",
        "hours": "19:00–2:00"
      },
      {
        "day": "jueves",
        "hours": "19:00–2:00"
      }
    ],
    "img1": "https://lh5.googleusercontent.com/p/AF1QipOYEU9cYzQT5lvYfvm0dIn5pTQ3ee0JYsqah2uM=w128-h92-k-no",
    "img2": "https://lh5.googleusercontent.com/p/AF1QipPDlLhjoEN2P2yqJB_0ktV1Wo0E0dJehgZZ_FDf=w408-h271-k-no",
    "email": "info@skyfallbcn.com"
  },
  {
    "name": "Sala River",
    "category": "Bar con música en directo",
    "address": "Carrer Santa Anna, 14, 08901 L'Hospitalet de Llobregat, Barcelona",
    "website": "NO_WEBSITE",
    "phone": "NO_PHONE",
    "city": "NO_CITY",
    "auxiliar": "NOT_FOUND",
    "reviews_rating": "4.6",
    "num_reviews": "136",
    "description": "NOT_FOUND",
    "schedule": [
      {
        "day": "viernes",
        "hours": "23:00–3:00"
      },
      {
        "day": "sábado",
        "hours": "19:30–3:00"
      },
      {
        "day": "domingo",
        "hours": "Cerrado"
      },
      {
        "day": "lunes",
        "hours": "Cerrado"
      },
      {
        "day": "martes",
        "hours": "Cerrado"
      },
      {
        "day": "miércoles",
        "hours": "Cerrado"
      },
      {
        "day": "jueves",
        "hours": "20:00–1:00"
      }
    ],
    "img1": "https://lh5.googleusercontent.com/p/AF1QipM4cFs5ezUid_YP-ZGspYJOkkfVQqatjjMfUECK=w80-h106-k-no",
    "img2": "https://lh5.googleusercontent.com/p/AF1QipNir7FF0IS9MrBTbmuAvTHWtW2_G30bljikewnN=w408-h306-k-no"
  },
  {
    "name": "L'Oncle Jack Music & Cocktail Bar",
    "category": "Bar de alterne",
    "address": "Carrer de les Roselles, 32, 08901 L'Hospitalet de Llobregat, Barcelona",
    "website": "mizuwaricocktailbar.es",
    "phone": "692123697",
    "city": "L'Hospitalet de Llobregat",
    "auxiliar": "Carta",
    "reviews_rating": "4.7",
    "num_reviews": "324",
    "description": "NOT_FOUND",
    "schedule": "NOT_FOUND",
    "img1": "https://lh5.googleusercontent.com/p/AF1QipPQlrSMO_Mlo1bOrA7T3a-TREuqQjfX2xCaO6wy=w122-h92-k-no",
    "img2": "https://lh5.googleusercontent.com/p/AF1QipP847JDRX2xFN-qC-QpGymeqotJpu2mHuy6DetZ=w427-h240-k-no",
    "email": "NO_EMAIL"
  },
  {
    "name": "Cocktelería Mary Pickford",
    "category": "Coctelería",
    "address": "Carrer d'Enric Prat de la Riba, 246, 08901 L'Hospitalet de Llobregat, Barcelona",
    "website": "facebook.com",
    "phone": "933379165",
    "city": "L'Hospitalet de Llobregat",
    "auxiliar": "NOT_FOUND",
    "reviews_rating": "4.6",
    "num_reviews": "565",
    "description": "NOT_FOUND",
    "schedule": [
      {
        "day": "viernes",
        "hours": "19:00–3:00"
      },
      {
        "day": "sábado",
        "hours": "19:00–3:00"
      },
      {
        "day": "domingo",
        "hours": "19:00–2:00"
      },
      {
        "day": "lunes",
        "hours": "Cerrado"
      },
      {
        "day": "martes",
        "hours": "Cerrado"
      },
      {
        "day": "miércoles",
        "hours": "19:00–2:00"
      },
      {
        "day": "jueves",
        "hours": "19:00–2:00"
      }
    ],
    "img1": "https://lh5.googleusercontent.com/p/AF1QipMu0NoFG4pk6r7LNDuNl_d8m3Y9Ub8CoIxdoxWA=w122-h92-k-no",
    "img2": "https://lh3.googleusercontent.com/p/AF1QipN7jEuRu2Gjhg6TSclI7D8hw-2JEDba66LBuBRk=w408-h240-k-no-pi0-ya60-ro0-fo100",
    "email": "NO_EMAIL"
  },
  {
    "name": "Pacheco",
    "category": "Lounge",
    "address": "Carrer Jardí, 7, 08905 L'Hospitalet de Llobregat, Barcelona",
    "website": "NO_WEBSITE",
    "phone": "NO_PHONE",
    "city": "NO_CITY",
    "auxiliar": "NOT_FOUND",
    "reviews_rating": "4.1",
    "num_reviews": "27",
    "description": "NOT_FOUND",
    "schedule": [
      {
        "day": "viernes",
        "hours": "8:30–22:30"
      },
      {
        "day": "sábado",
        "hours": "8:30–22:30"
      },
      {
        "day": "domingo",
        "hours": "15:00–23:00"
      },
      {
        "day": "lunes",
        "hours": "8:30–22:30"
      },
      {
        "day": "martes",
        "hours": "8:30–22:30"
      },
      {
        "day": "miércoles",
        "hours": "8:30–22:30"
      },
      {
        "day": "jueves",
        "hours": "8:30–22:30"
      }
    ],
    "img1": "https://lh5.googleusercontent.com/p/AF1QipPT83JdNZ4rc0YOo8nTFGBtkX9FAAFFBgA5u8Kz=w80-h106-k-no",
    "img2": "https://lh5.googleusercontent.com/p/AF1QipPT83JdNZ4rc0YOo8nTFGBtkX9FAAFFBgA5u8Kz=w408-h544-k-no"
  },
  {
    "name": "Bar Salvador",
    "category": "Lounge",
    "address": "Plaça del Repartidor, 08901 Hospitalet de Llobregat (L'), Barcelona",
    "website": "NO_WEBSITE",
    "phone": "NO_PHONE",
    "city": "NO_CITY",
    "auxiliar": "NOT_FOUND",
    "reviews_rating": "3.2",
    "num_reviews": "41",
    "description": "NOT_FOUND",
    "schedule": [
      {
        "day": "viernes",
        "hours": "7:00–24:00"
      },
      {
        "day": "sábado",
        "hours": "7:00–24:00"
      },
      {
        "day": "domingo",
        "hours": "7:00–24:00"
      },
      {
        "day": "lunes",
        "hours": "7:00–24:00"
      },
      {
        "day": "martes",
        "hours": "7:00–24:00"
      },
      {
        "day": "miércoles",
        "hours": "7:00–24:00"
      },
      {
        "day": "jueves",
        "hours": "7:00–24:00"
      }
    ],
    "img1": "https://streetviewpixels-pa.googleapis.com/v1/thumbnail?panoid=ZKfpicT7AolWeNpPd12c9g&cb_client=search.gws-prod.gps&w=80&h=92&yaw=3.097971&pitch=0&thumbfov=100",
    "img2": "https://streetviewpixels-pa.googleapis.com/v1/thumbnail?panoid=ZKfpicT7AolWeNpPd12c9g&cb_client=search.gws-prod.gps&w=408&h=240&yaw=3.097971&pitch=0&thumbfov=100"
  },
  {
    "name": "El Sueño",
    "category": "Bar de tapas",
    "address": "Carrer de les Aigües del Llobregat, 110B, 08906 L'Hospitalet de Llobregat, Barcelona",
    "website": "instagram.com",
    "phone": "937043141",
    "city": "NO_CITY",
    "auxiliar": "Carta",
    "reviews_rating": "4.3",
    "num_reviews": "1205",
    "description": "Amplio menú con gran variedad de tapas caseras de cocina española en un restaurante informal regentado por gente de la zona.",
    "schedule": [
      {
        "day": "viernes",
        "hours": "11:30–16:0019:00–23:00"
      },
      {
        "day": "sábado",
        "hours": "11:30–16:0019:00–23:00"
      },
      {
        "day": "domingo",
        "hours": "11:30–16:0019:00–23:00"
      },
      {
        "day": "lunes",
        "hours": "Cerrado"
      },
      {
        "day": "martes",
        "hours": "11:30–16:0019:00–23:00"
      },
      {
        "day": "miércoles",
        "hours": "11:30–16:0019:00–23:00"
      },
      {
        "day": "jueves",
        "hours": "11:30–16:0019:00–23:00"
      }
    ],
    "img1": "https://lh5.googleusercontent.com/p/AF1QipMAZp3SQlI0XLXQDZG2zOt3tTeRpTJW9wQrYxBw=w122-h92-k-no",
    "img2": "https://lh5.googleusercontent.com/p/AF1QipOc23Dy6J6mvW9-cxknDPjLbTSnUAZNi9-O4yJ0=w426-h240-k-no",
    "email": "NO_EMAIL"
  },
  {
    "name": "Skyfall Cocktail Club",
    "category": "Club nocturno",
    "address": "Avinguda de la Granvia de l’Hospitalet, 144, 08907 L'Hospitalet de Llobregat, Barcelona",
    "website": "skyfallbcn.com",
    "phone": "613012610",
    "city": "L'Hospitalet de Llobregat",
    "auxiliar": "Planta 0 · Restaurant Terrum",
    "reviews_rating": "3.9",
    "num_reviews": "1029",
    "description": "NOT_FOUND",
    "schedule": [
      {
        "day": "viernes",
        "hours": "19:00–3:30"
      },
      {
        "day": "sábado",
        "hours": "19:00–3:30"
      },
      {
        "day": "domingo",
        "hours": "17:00–1:00"
      },
      {
        "day": "lunes",
        "hours": "19:00–2:00"
      },
      {
        "day": "martes",
        "hours": "19:00–2:00"
      },
      {
        "day": "miércoles",
        "hours": "19:00–2:00"
      },
      {
        "day": "jueves",
        "hours": "19:00–2:00"
      }
    ],
    "img1": "https://lh5.googleusercontent.com/p/AF1QipOYEU9cYzQT5lvYfvm0dIn5pTQ3ee0JYsqah2uM=w128-h92-k-no",
    "img2": "https://lh5.googleusercontent.com/p/AF1QipPDlLhjoEN2P2yqJB_0ktV1Wo0E0dJehgZZ_FDf=w408-h271-k-no",
    "email": "info@skyfallbcn.com"
  },
  {
    "name": "Juanchito",
    "category": "Discoteca",
    "address": "Carrer d'Enric Prat de la Riba, 61, 08901 L'Hospitalet de Llobregat, Barcelona",
    "website": "NO_WEBSITE",
    "phone": "NO_PHONE",
    "city": "NO_CITY",
    "auxiliar": "NOT_FOUND",
    "reviews_rating": "3.9",
    "num_reviews": "496",
    "description": "NOT_FOUND",
    "schedule": [
      {
        "day": "viernes",
        "hours": "23:00–24:00"
      },
      {
        "day": "sábado",
        "hours": "0:00–17:0023:00–24:00"
      },
      {
        "day": "domingo",
        "hours": "0:00–17:00"
      },
      {
        "day": "lunes",
        "hours": "Cerrado"
      },
      {
        "day": "martes",
        "hours": "Cerrado"
      },
      {
        "day": "miércoles",
        "hours": "Cerrado"
      },
      {
        "day": "jueves",
        "hours": "Cerrado"
      }
    ],
    "img1": "https://lh5.googleusercontent.com/p/AF1QipO6ec-IT7YRMI_g3f5goc7Sc777X0jshEnO4pAZ=w122-h92-k-no",
    "img2": "https://lh5.googleusercontent.com/p/AF1QipM6xDhlidUzrBdSvHONQ2N0FqK9nVi2kLTUVuQ_=w408-h544-k-no"
  },
  {
    "name": "Shisha Lounge Dejavu - Shisha Hospitalet del Llobregat",
    "category": "Lounge",
    "address": "Carrer de Pere Pelegrí, 32, 08906 Esplugues de Llobregat, Barcelona",
    "website": "NO_WEBSITE",
    "phone": "NO_PHONE",
    "city": "NO_CITY",
    "auxiliar": "NOT_FOUND",
    "reviews_rating": "4.5",
    "num_reviews": "74",
    "description": "NOT_FOUND",
    "schedule": [
      {
        "day": "viernes",
        "hours": "20:00–3:00"
      },
      {
        "day": "sábado",
        "hours": "20:00–3:00"
      },
      {
        "day": "domingo",
        "hours": "20:00–3:00"
      },
      {
        "day": "lunes",
        "hours": "20:00–2:30"
      },
      {
        "day": "martes",
        "hours": "Cerrado"
      },
      {
        "day": "miércoles",
        "hours": "20:00–2:30"
      },
      {
        "day": "jueves",
        "hours": "20:00–2:30"
      }
    ],
    "img1": "https://lh5.googleusercontent.com/p/AF1QipPJWvNVENpxTl-yyDHwp0EMlee_qF5tZ1ZffVrs=w80-h106-k-no",
    "img2": "https://lh5.googleusercontent.com/p/AF1QipNm86PUZl6KlYJtAubHAjBPZItrQnTP671mBkyI=w427-h240-k-no"
  },
  {
    "name": "Bar Lugo",
    "category": "Bar musical",
    "address": "Carrer de Llevant, 43, 08905 L'Hospitalet de Llobregat, Barcelona",
    "website": "NO_WEBSITE",
    "phone": "NO_PHONE",
    "city": "NO_CITY",
    "auxiliar": "NOT_FOUND",
    "reviews_rating": "4.4",
    "num_reviews": "30",
    "description": "NOT_FOUND",
    "schedule": [
      {
        "day": "viernes",
        "hours": "19:00–3:00"
      },
      {
        "day": "sábado",
        "hours": "19:00–3:00"
      },
      {
        "day": "domingo",
        "hours": "19:00–2:30"
      },
      {
        "day": "lunes",
        "hours": "19:00–2:30"
      },
      {
        "day": "martes",
        "hours": "19:00–2:30"
      },
      {
        "day": "miércoles",
        "hours": "19:00–2:30"
      },
      {
        "day": "jueves",
        "hours": "19:00–2:30"
      }
    ],
    "img1": "https://lh5.googleusercontent.com/p/AF1QipPW9KZdDAOmlr2HZWcS1mBPf_TylwA5AvVfsyOY=w122-h92-k-no",
    "img2": "https://lh5.googleusercontent.com/p/AF1QipNsFGJg0jgt1IbBtuygi6LPHLScGS_4KzCOKd6w=w408-h544-k-no"
  },
  {
    "name": "Bar Musical Luna",
    "category": "Pub",
    "address": "NOT_FOUND",
    "website": "Av. de Josep Tarradellas i Joan, 197, 08901 L'Hospitalet de Llobregat, Barcelona",
    "phone": "615348505",
    "city": "L'Hospitalet de Llobregat",
    "auxiliar": "NOT_FOUND",
    "reviews_rating": "3.8",
    "num_reviews": "199",
    "description": "NOT_FOUND",
    "schedule": [
      {
        "day": "viernes",
        "hours": "18:00–3:00"
      },
      {
        "day": "sábado",
        "hours": "18:00–3:00"
      },
      {
        "day": "domingo",
        "hours": "18:00–3:00"
      },
      {
        "day": "lunes",
        "hours": "Cerrado"
      },
      {
        "day": "martes",
        "hours": "18:00–3:00"
      },
      {
        "day": "miércoles",
        "hours": "18:00–3:00"
      },
      {
        "day": "jueves",
        "hours": "18:00–3:00"
      }
    ],
    "img1": "https://lh5.googleusercontent.com/p/AF1QipPmKq6dufKnM_ria5Uhlpwfa1g6R8rYyhWrUdeE=w80-h106-k-no",
    "img2": "https://lh5.googleusercontent.com/p/AF1QipPmKq6dufKnM_ria5Uhlpwfa1g6R8rYyhWrUdeE=w408-h544-k-no",
    "email": "NO_EMAIL"
  },
  {
    "name": "Bar musical gotham",
    "category": "Bar",
    "address": "C Mas, 44, 08903 L'Hospitalet de Llobregat, Barcelona",
    "website": "NO_WEBSITE",
    "phone": "NO_PHONE",
    "city": "NO_CITY",
    "auxiliar": "NOT_FOUND",
    "reviews_rating": "4.5",
    "num_reviews": "2",
    "description": "NOT_FOUND",
    "schedule": "NOT_FOUND",
    "img1": "https://streetviewpixels-pa.googleapis.com/v1/thumbnail?panoid=6l1BkEoluWBtc7mqQI44cg&cb_client=search.gws-prod.gps&w=80&h=92&yaw=290.4455&pitch=0&thumbfov=100",
    "img2": "https://streetviewpixels-pa.googleapis.com/v1/thumbnail?panoid=6l1BkEoluWBtc7mqQI44cg&cb_client=search.gws-prod.gps&w=408&h=240&yaw=290.4455&pitch=0&thumbfov=100"
  },
  {
    "name": "Bar Serra",
    "category": "Bar",
    "address": "Carrer Santa Eulàlia, 100, 08902 L'Hospitalet de Llobregat, Barcelona",
    "website": "NO_WEBSITE",
    "phone": "NO_PHONE",
    "city": "NO_CITY",
    "auxiliar": "NOT_FOUND",
    "reviews_rating": "3.9",
    "num_reviews": "708",
    "description": "NOT_FOUND",
    "schedule": [
      {
        "day": "viernes",
        "hours": "7:00–0:30"
      },
      {
        "day": "sábado",
        "hours": "9:00–22:00"
      },
      {
        "day": "domingo",
        "hours": "9:00–17:00"
      },
      {
        "day": "lunes",
        "hours": "7:00–0:30"
      },
      {
        "day": "martes",
        "hours": "7:00–0:30"
      },
      {
        "day": "miércoles",
        "hours": "7:00–0:30"
      },
      {
        "day": "jueves",
        "hours": "7:00–0:30"
      }
    ],
    "img1": "https://lh5.googleusercontent.com/p/AF1QipNDAawLncnj3z25sJHIg37W2I4voIFsN-xxcM7i=w163-h92-k-no",
    "img2": "https://lh5.googleusercontent.com/p/AF1QipPH5BSrseTnM7hDjdc3Lg_stDCrcHhgXQzdwllB=w426-h240-k-no"
  },
  {
    "name": "Bar Musical Punta Dulce 2",
    "category": "Bar musical",
    "address": "Carrer de la Renclusa, 32, 08905 L'Hospitalet de Llobregat, Barcelona",
    "website": "NO_WEBSITE",
    "phone": "NO_PHONE",
    "city": "NO_CITY",
    "auxiliar": "NOT_FOUND",
    "reviews_rating": "5.0",
    "num_reviews": "1",
    "description": "NOT_FOUND",
    "schedule": [
      {
        "day": "viernes",
        "hours": "20:00–3:00"
      },
      {
        "day": "sábado",
        "hours": "20:00–3:00"
      },
      {
        "day": "domingo",
        "hours": "20:00–3:00"
      },
      {
        "day": "lunes",
        "hours": "20:00–3:00"
      },
      {
        "day": "martes",
        "hours": "Cerrado"
      },
      {
        "day": "miércoles",
        "hours": "20:00–3:00"
      },
      {
        "day": "jueves",
        "hours": "20:00–3:00"
      }
    ],
    "img1": "https://streetviewpixels-pa.googleapis.com/v1/thumbnail?panoid=DDHe5Hb7O7dZOWHvEYVKMg&cb_client=search.gws-prod.gps&w=80&h=92&yaw=269.931&pitch=0&thumbfov=100",
    "img2": "https://lh3.googleusercontent.com/p/AF1QipMb2LzQj6HGV9bPGDYEzUpOvNCJwYyOQ_rJpn7l=w408-h730-k-no"
  },
  {
    "name": "Tatos bar",
    "category": "Bar de tapas",
    "address": "Carrer de Barcelona, 84, 08901 L'Hospitalet de Llobregat, Barcelona",
    "website": "NO_WEBSITE",
    "phone": "NO_PHONE",
    "city": "NO_CITY",
    "auxiliar": "NOT_FOUND",
    "reviews_rating": "4.7",
    "num_reviews": "179",
    "description": "NOT_FOUND",
    "schedule": [
      {
        "day": "viernes",
        "hours": "12:30–16:0018:30–23:30"
      },
      {
        "day": "sábado",
        "hours": "12:30–16:0018:30–23:30"
      },
      {
        "day": "domingo",
        "hours": "12:00–16:00"
      },
      {
        "day": "lunes",
        "hours": "Cerrado"
      },
      {
        "day": "martes",
        "hours": "Cerrado"
      },
      {
        "day": "miércoles",
        "hours": "18:30–23:00"
      },
      {
        "day": "jueves",
        "hours": "18:30–23:00"
      }
    ],
    "img1": "https://lh5.googleusercontent.com/p/AF1QipPrd0VnQuL5h4IA_mhhB9lScqz8vR9n8FjOmGal=w80-h106-k-no",
    "img2": "https://lh5.googleusercontent.com/p/AF1QipPrd0VnQuL5h4IA_mhhB9lScqz8vR9n8FjOmGal=w408-h544-k-no"
  },
  {
    "name": "Bar Cervecería El Coto",
    "category": "Bar",
    "address": "Avinguda de Can Serra, 82, 08906 L'Hospitalet de Llobregat, Barcelona",
    "website": "NO_WEBSITE",
    "phone": "NO_PHONE",
    "city": "NO_CITY",
    "auxiliar": "NOT_FOUND",
    "reviews_rating": "4.3",
    "num_reviews": "1165",
    "description": "NOT_FOUND",
    "schedule": [
      {
        "day": "viernes",
        "hours": "8:30–24:00"
      },
      {
        "day": "sábado",
        "hours": "9:00–24:00"
      },
      {
        "day": "domingo",
        "hours": "9:00–18:00"
      },
      {
        "day": "lunes",
        "hours": "Cerrado"
      },
      {
        "day": "martes",
        "hours": "8:30–23:00"
      },
      {
        "day": "miércoles",
        "hours": "8:30–23:00"
      },
      {
        "day": "jueves",
        "hours": "8:30–23:00"
      }
    ],
    "img1": "https://lh5.googleusercontent.com/p/AF1QipNEx8QBefZ2_2lJb8o_4xnSgx2QUXL5du0DnbNl=w163-h92-k-no",
    "img2": "https://lh5.googleusercontent.com/p/AF1QipM0MC5GZ0ZSCzBtWQ_7qVu0_vKFuG-jgf3m-ZfZ=w408-h545-k-no"
  },
  {
    "name": "Bar Restaurante la Cabaña Y Club Don Royal",
    "category": "Club nocturno",
    "address": "Carrer de Béjar, 51, Sants-Montjuïc, 08014 Barcelona",
    "website": "NO_WEBSITE",
    "phone": "NO_PHONE",
    "city": "NO_CITY",
    "auxiliar": "NOT_FOUND",
    "reviews_rating": "3.9",
    "num_reviews": "43",
    "description": "NOT_FOUND",
    "schedule": "NOT_FOUND",
    "img1": "https://lh5.googleusercontent.com/p/AF1QipMYodTeO5KP105FSmzW9HC51h5X00szeMFsrfGZ=w124-h92-k-no",
    "img2": "https://lh5.googleusercontent.com/p/AF1QipMYodTeO5KP105FSmzW9HC51h5X00szeMFsrfGZ=w408-h302-k-no"
  },
  {
    "name": "Sala Salamandra",
    "category": "Sala de conciertos",
    "address": "Av. del Carrilet, 235, 08907 L'Hospitalet de Llobregat, Barcelona",
    "website": "salamandra.cat",
    "phone": "933370602",
    "city": "L'Hospitalet de Llobregat",
    "auxiliar": "NOT_FOUND",
    "reviews_rating": "4.2",
    "num_reviews": "4231",
    "description": "Conciertos en vivo y sesiones de DJ en una espaciosa discoteca con barriles de aceite en la pista de baile.",
    "schedule": "NOT_FOUND",
    "img1": "https://lh5.googleusercontent.com/p/AF1QipOz4ZTCYg196iVl0H-FBA1wq9xJ-OD5EjE_wcIY=w204-h92-k-no",
    "img2": "https://lh5.googleusercontent.com/p/AF1QipOg0j-lFAfZlQm8-5-XBvt9fa0Ib9ls71rC7RBn=w415-h240-k-no",
    "email": "NO_EMAIL"
  },
  {
    "name": "Armonia",
    "category": "Bar",
    "address": "Carrer de la Maladeta, 15, 08950 Esplugues de Llobregat, Barcelona",
    "website": "NO_WEBSITE",
    "phone": "NO_PHONE",
    "city": "NO_CITY",
    "auxiliar": "NOT_FOUND",
    "reviews_rating": "4.3",
    "num_reviews": "6",
    "description": "NOT_FOUND",
    "schedule": [
      {
        "day": "viernes",
        "hours": "7:00–21:00"
      },
      {
        "day": "sábado",
        "hours": "7:00–21:00"
      },
      {
        "day": "domingo",
        "hours": "7:00–21:00"
      },
      {
        "day": "lunes",
        "hours": "7:00–21:00"
      },
      {
        "day": "martes",
        "hours": "7:00–21:00"
      },
      {
        "day": "miércoles",
        "hours": "7:00–21:00"
      },
      {
        "day": "jueves",
        "hours": "7:00–21:00"
      }
    ],
    "img1": "https://streetviewpixels-pa.googleapis.com/v1/thumbnail?panoid=bzHmOjqchLC7vSscGgB8XQ&cb_client=search.gws-prod.gps&w=80&h=92&yaw=287.0563&pitch=0&thumbfov=100",
    "img2": "https://streetviewpixels-pa.googleapis.com/v1/thumbnail?panoid=bzHmOjqchLC7vSscGgB8XQ&cb_client=search.gws-prod.gps&w=408&h=240&yaw=287.0563&pitch=0&thumbfov=100"
  },
  {
    "name": "Queen's",
    "category": "Discoteca",
    "address": "Amigable con la comunidad LGTBI+",
    "website": "Pg. dels Ferrocarrils Catalans, 117, 08940 Cornellà de Llobregat, Barcelona",
    "phone": "695798627",
    "city": "Cornellà de Llobregat",
    "auxiliar": "NOT_FOUND",
    "reviews_rating": "3.9",
    "num_reviews": "219",
    "description": "NOT_FOUND",
    "schedule": [
      {
        "day": "viernes",
        "hours": "23:00–24:00"
      },
      {
        "day": "sábado",
        "hours": "0:00–6:0023:00–24:00"
      },
      {
        "day": "domingo",
        "hours": "0:00–6:0015:00–24:00"
      },
      {
        "day": "lunes",
        "hours": "Cerrado"
      },
      {
        "day": "martes",
        "hours": "Cerrado"
      },
      {
        "day": "miércoles",
        "hours": "Cerrado"
      },
      {
        "day": "jueves",
        "hours": "Cerrado"
      }
    ],
    "img1": "https://lh5.googleusercontent.com/p/AF1QipPMEQrCWc1sAt4VAPXvvnoUF2OVhDnkr8FdeeVs=w122-h92-k-no",
    "img2": "https://lh5.googleusercontent.com/p/AF1QipPBVFLx2scKwoMZj4O49O_i3AxaJiAB4m_ndXn-=w513-h240-k-no",
    "email": "NO_EMAIL"
  },
  {
    "name": "Satisfaction Music Club",
    "category": "NOT_FOUND",
    "address": "Carrer d'Enric Prat de la Riba, 80, 08901 L'Hospitalet de Llobregat, Barcelona",
    "website": "NO_WEBSITE",
    "phone": "NO_PHONE",
    "city": "NO_CITY",
    "auxiliar": "NOT_FOUND",
    "reviews_rating": "4.8",
    "num_reviews": "5",
    "description": "NOT_FOUND",
    "schedule": "NOT_FOUND",
    "img1": "https://lh5.googleusercontent.com/p/AF1QipMC1z5IS6wKgeCs08CuucmiCOaqBALEvKN3sIs=w80-h133-k-no",
    "img2": "https://lh5.googleusercontent.com/p/AF1QipMC1z5IS6wKgeCs08CuucmiCOaqBALEvKN3sIs=w408-h680-k-no"
  },
  {
    "name": "Sarao",
    "category": "NOT_FOUND",
    "address": "Carrer de L'Estrella, 2, 12, 08901 L'Hospitalet de Llobregat, Barcelona",
    "website": "NO_WEBSITE",
    "phone": "NO_PHONE",
    "city": "NO_CITY",
    "auxiliar": "NOT_FOUND",
    "reviews_rating": "NOT_FOUND",
    "num_reviews": "",
    "description": "NOT_FOUND",
    "schedule": "NOT_FOUND",
    "img1": "https://streetviewpixels-pa.googleapis.com/v1/thumbnail?panoid=RCRdNnGTAZSEhFoFW8KYdQ&cb_client=search.gws-prod.gps&w=80&h=92&yaw=145.83762&pitch=0&thumbfov=100",
    "img2": "https://streetviewpixels-pa.googleapis.com/v1/thumbnail?panoid=RCRdNnGTAZSEhFoFW8KYdQ&cb_client=search.gws-prod.gps&w=408&h=240&yaw=145.83762&pitch=0&thumbfov=100"
  },
  {
    "name": "Souds Good",
    "category": "NOT_FOUND",
    "address": "Carrer del Mestre Carbó, 16, 08902 L'Hospitalet de Llobregat, Barcelona",
    "website": "NO_WEBSITE",
    "phone": "NO_PHONE",
    "city": "NO_CITY",
    "auxiliar": "NOT_FOUND",
    "reviews_rating": "NOT_FOUND",
    "num_reviews": "",
    "description": "NOT_FOUND",
    "schedule": "NOT_FOUND",
    "img1": "https://streetviewpixels-pa.googleapis.com/v1/thumbnail?panoid=dbkQk2i_2H99VYoky1110w&cb_client=search.gws-prod.gps&w=80&h=92&yaw=332.68488&pitch=0&thumbfov=100",
    "img2": "https://streetviewpixels-pa.googleapis.com/v1/thumbnail?panoid=dbkQk2i_2H99VYoky1110w&cb_client=search.gws-prod.gps&w=408&h=240&yaw=332.68488&pitch=0&thumbfov=100"
  },
  {
    "name": "Arileft",
    "category": "NOT_FOUND",
    "address": "08901 L'Hospitalet de Llobregat, Barcelona",
    "website": "NO_WEBSITE",
    "phone": "NO_PHONE",
    "city": "NO_CITY",
    "auxiliar": "NOT_FOUND",
    "reviews_rating": "NOT_FOUND",
    "num_reviews": "",
    "description": "NOT_FOUND",
    "schedule": "NOT_FOUND",
    "img1": "https://streetviewpixels-pa.googleapis.com/v1/thumbnail?panoid=iC93J-lA_zLU2AaY24YPsg&cb_client=search.gws-prod.gps&w=80&h=92&yaw=105.00071&pitch=0&thumbfov=100",
    "img2": "https://streetviewpixels-pa.googleapis.com/v1/thumbnail?panoid=iC93J-lA_zLU2AaY24YPsg&cb_client=search.gws-prod.gps&w=408&h=240&yaw=105.00071&pitch=0&thumbfov=100"
  },
  {
    "name": "Bar Café",
    "category": "Cafetería",
    "address": "Carrer de Vallparda, 11, 08904 L'Hospitalet de Llobregat, Barcelona",
    "website": "NO_WEBSITE",
    "phone": "NO_PHONE",
    "city": "NO_CITY",
    "auxiliar": "NOT_FOUND",
    "reviews_rating": "4.0",
    "num_reviews": "10",
    "description": "NOT_FOUND",
    "schedule": "NOT_FOUND",
    "img1": "https://streetviewpixels-pa.googleapis.com/v1/thumbnail?panoid=FugoH_NgvoqHk8AMyPLRFw&cb_client=search.gws-prod.gps&w=80&h=92&yaw=109.96384&pitch=0&thumbfov=100",
    "img2": "https://streetviewpixels-pa.googleapis.com/v1/thumbnail?panoid=FugoH_NgvoqHk8AMyPLRFw&cb_client=search.gws-prod.gps&w=408&h=240&yaw=109.96384&pitch=0&thumbfov=100"
  }
]