[{"name":"Sala Razzmatazz","category":"Discoteca","city":"Barcelona","address":"Carrer dels Almog\u00e0vers, 122, Sant Mart\u00ed, 08018 Barcelona","website":"salarazzmatazz.com","email":"NO_EMAIL","phone":"933208200","reviews_rating":4.2,"num_reviews":20606,"description":"Cervezas y copas en una animada discoteca que ofrece conciertos y sesiones de DJs.","schedule":[{"day":"viernes","hours":"0:30\u20135:00"},{"day":"s\u00e1bado","hours":"1:00\u20136:00"},{"day":"domingo","hours":"1:00\u20136:00"},{"day":"lunes","hours":"Cerrado"},{"day":"martes","hours":"Cerrado"},{"day":"mi\u00e9rcoles","hours":"Cerrado"},{"day":"jueves","hours":"0:30\u20135:00"}],"auxiliar(borrar)":"NOT_FOUND"},{"name":"Wolf Barcelona","category":"Discoteca","city":"Barcelona","address":"Carrer dels Almog\u00e0vers, 88, Sant Mart\u00ed, 08018 Barcelona","website":"wolfbarcelona.com","email":"NO_EMAIL","phone":"672707844","reviews_rating":4.3,"num_reviews":7511,"description":"NOT_FOUND","schedule":[{"day":"viernes","hours":"0:00\u20135:00"},{"day":"s\u00e1bado","hours":"0:00\u20136:00"},{"day":"domingo","hours":"0:00\u20136:00"},{"day":"lunes","hours":"Cerrado"},{"day":"martes","hours":"Cerrado"},{"day":"mi\u00e9rcoles","hours":"Cerrado"},{"day":"jueves","hours":"Cerrado"}],"auxiliar(borrar)":"Amigable con la comunidad LGTBI+"},{"name":"Cocteleria Torre Rosa","category":"Cocteler\u00eda","city":"Barcelona","address":"Carrer de Francesc T\u00e0rrega, 22, Sant Andreu, 08027 Barcelona","website":"torrerosa.com","email":"NO_EMAIL","phone":"933408854","reviews_rating":4.4,"num_reviews":4996,"description":"Cocteler\u00eda sencilla y acogedora, ubicada en un edificio hist\u00f3rico con patio, que ofrece c\u00f3cteles t\u00edpicos y bebidas tropicales.","schedule":[{"day":"viernes","hours":"18:00\u20133:00"},{"day":"s\u00e1bado","hours":"18:00\u20133:00"},{"day":"domingo","hours":"18:00\u20132:30"},{"day":"lunes","hours":"18:00\u20132:30"},{"day":"martes","hours":"18:00\u20132:30"},{"day":"mi\u00e9rcoles","hours":"18:00\u20132:30"},{"day":"jueves","hours":"18:00\u20132:30"}],"auxiliar(borrar)":"Men\u00fa"},{"name":"Touch Music Karaoke BARCELONA","category":"Karaoke","city":"Barcelona","address":"Carrer de Joan Mir\u00f3, 8, Sant Mart\u00ed, 08005 Barcelona","website":"karaokebcn.com","email":"touchmusic@karaokebarcelona.com","phone":"NO_PHONE","reviews_rating":4.5,"num_reviews":3583,"description":"Bar karaoke con un escenario tradicional al fondo, curiosos efectos de luz y una amplia carta de canciones.","schedule":"NOT_FOUND","auxiliar(borrar)":"Cerrado \u22c5 Apertura: 22:00"},{"name":"Slow Barcelona","category":"Discoteca","city":"NO_CITY","address":"Carrer de Par\u00eds, 186, L'Eixample, 08036 Barcelona","website":"slowbarcelona.es","email":"info@slowbarcelona.es","phone":"933681455","reviews_rating":4.5,"num_reviews":3439,"description":"C\u00f3cteles cl\u00e1sicos y personalizados, m\u00fasica en directo y discoteca, en un bar de lujo con decoraci\u00f3n inspirada en un bosque.","schedule":[{"day":"viernes","hours":"0:00\u20135:0019:00\u201324:00"},{"day":"s\u00e1bado","hours":"0:00\u20136:0019:00\u201324:00"},{"day":"domingo","hours":"0:00\u20136:00"},{"day":"lunes","hours":"19:00\u201324:00"},{"day":"martes","hours":"0:00\u20135:0019:00\u201324:00"},{"day":"mi\u00e9rcoles","hours":"0:00\u20135:0019:00\u201324:00"},{"day":"jueves","hours":"0:00\u20135:0019:00\u201324:00"}],"auxiliar(borrar)":"Men\u00fa"},{"name":"Bling Bling Barcelona","category":"Discoteca","city":"NO_CITY","address":"Carrer de Tuset, 8-10, Sarri\u00e0-Sant Gervasi, 08006 Barcelona","website":"blingblingbcn.com","email":"NO_EMAIL","phone":"664244209","reviews_rating":3.1,"num_reviews":3312,"description":"Aperitivos de bar cl\u00e1sicos, champ\u00e1n y narguiles en una glamurosa discoteca de moda con pista de baile.","schedule":[{"day":"viernes","hours":"0:30\u20136:00"},{"day":"s\u00e1bado","hours":"0:30\u20136:00"},{"day":"domingo","hours":"Cerrado"},{"day":"lunes","hours":"Cerrado"},{"day":"martes","hours":"Cerrado"},{"day":"mi\u00e9rcoles","hours":"0:30\u20135:00"},{"day":"jueves","hours":"0:30\u20135:00"}],"auxiliar(borrar)":"Men\u00fa"},{"name":"Dry Martini Barcelona","category":"Cocteler\u00eda","city":"Barcelona","address":"Carrer d'Aribau, 162, 166, Eixample, 08036 Barcelona","website":"drymartiniorg.com","email":"NO_EMAIL","phone":"932175072","reviews_rating":4.4,"num_reviews":2976,"description":"Cocteler\u00eda de tipo ingl\u00e9s con sillones de piel azul y muebles de madera con combinados cl\u00e1sicos y creativos.","schedule":[{"day":"viernes","hours":"13:00\u20133:00"},{"day":"s\u00e1bado","hours":"13:00\u20133:00"},{"day":"domingo","hours":"16:30\u20131:00"},{"day":"lunes","hours":"13:00\u20132:30"},{"day":"martes","hours":"13:00\u20132:30"},{"day":"mi\u00e9rcoles","hours":"13:00\u20132:30"},{"day":"jueves","hours":"13:00\u20132:30"}],"auxiliar(borrar)":"Men\u00fa"},{"name":"SUMMUM Nightbar","category":"Discoteca","city":"Barcelona","address":"Carrer del Rossell\u00f3, 208, Eixample, 08008 Barcelona","website":"twentiesbarcelona.com","email":"info@twentiesbarcelona.com","phone":"628708158","reviews_rating":3.4,"num_reviews":2885,"description":"C\u00f3cteles y ritmos de reguet\u00f3n y hip hop en una discoteca que recuerda a una cueva, con noches tem\u00e1ticas y espect\u00e1culos de luz.","schedule":[{"day":"viernes","hours":"0:00\u20135:0023:55\u201324:00"},{"day":"s\u00e1bado","hours":"0:00\u20136:0023:55\u201324:00"},{"day":"domingo","hours":"0:00\u20136:00"},{"day":"lunes","hours":"Cerrado"},{"day":"martes","hours":"Cerrado"},{"day":"mi\u00e9rcoles","hours":"23:55\u201324:00"},{"day":"jueves","hours":"0:00\u20135:0023:55\u201324:00"}],"auxiliar(borrar)":"NOT_FOUND"},{"name":"Nu Bcn","category":"Restaurante de alta cocina","city":"Barcelona","address":"Hacer un pedido","website":"C. del Dr. Fleming, 12 - 14, Distrito de Sarri\u00e0-Sant Gervasi, 08017 Barcelona","email":"NO_EMAIL","phone":"932411720","reviews_rating":4.0,"num_reviews":2828,"description":"Platos de alta cocina, sushi y c\u00f3cteles en un restaurante exclusivo con terraza, pista de baile y sesiones de DJs.","schedule":[{"day":"viernes","hours":"13:00\u20133:00"},{"day":"s\u00e1bado","hours":"13:00\u20133:00"},{"day":"domingo","hours":"13:00\u20132:30"},{"day":"lunes","hours":"13:00\u201323:30"},{"day":"martes","hours":"13:00\u201323:30"},{"day":"mi\u00e9rcoles","hours":"13:00\u20132:30"},{"day":"jueves","hours":"13:00\u20132:30"}],"auxiliar(borrar)":"nu-bcn.com"},{"name":"Bar Viu","category":"Bar de tapas","city":"Barcelona","address":"Carrer de Rabassa, 23, Gr\u00e0cia, 08024 Barcelona","website":"facebook.com","email":"NO_EMAIL","phone":"934638788","reviews_rating":4.4,"num_reviews":2670,"description":"Taberna acogedora, con terraza y cervezas artesanales, que sirve tapas y bocadillos durante todo el d\u00eda.","schedule":[{"day":"viernes","hours":"9:00\u20131:00"},{"day":"s\u00e1bado","hours":"9:00\u20131:00"},{"day":"domingo","hours":"9:00\u201324:00"},{"day":"lunes","hours":"9:00\u201324:00"},{"day":"martes","hours":"9:00\u201324:00"},{"day":"mi\u00e9rcoles","hours":"9:00\u201324:00"},{"day":"jueves","hours":"9:00\u201324:00"}],"auxiliar(borrar)":"NOT_FOUND"},{"name":"DISCO CITY HALL BARCELONA","category":"Discoteca","city":"Barcelona","address":"Rambla de Catalunya, 2, 4, Eixample, 08007 Barcelona","website":"cityhallbarcelona.com","email":"NO_EMAIL","phone":"667166789","reviews_rating":4.0,"num_reviews":2612,"description":"Bebidas, baile y m\u00fasica house, techno y hiphop en una discoteca con s\u00f3tano, decoraci\u00f3n de lujo y una terraza apacible.","schedule":[{"day":"viernes","hours":"0:00\u20136:00"},{"day":"s\u00e1bado","hours":"0:00\u20136:00"},{"day":"domingo","hours":"0:00\u20135:00"},{"day":"lunes","hours":"0:00\u20135:00"},{"day":"martes","hours":"0:00\u20135:00"},{"day":"mi\u00e9rcoles","hours":"0:00\u20135:00"},{"day":"jueves","hours":"0:00\u20135:00"}],"auxiliar(borrar)":"Amigable con la comunidad LGTBI+"},{"name":"Safari Disco Club Barcelona","category":"Discoteca","city":"Barcelona","address":"Carrer de Tarragona, 141, Sants-Montju\u00efc, 08014 Barcelona","website":"safaridiscoclub.com","email":"NO_EMAIL","phone":"934878342","reviews_rating":3.8,"num_reviews":2488,"description":"Discoteca animada, que abre toda la noche, con dos pistas de bailes y fiestas tem\u00e1ticas.","schedule":"NOT_FOUND","auxiliar(borrar)":"Cerrado \u22c5 Apertura: 23:59"},{"name":"La Bodegueta de Sant Andreu","category":"Restaurante especializado en tapas","city":"Barcelona","address":"Rambla de Fabra i Puig, 30, Sant Andreu, 08030 Barcelona","website":"labodeguetadesantandreu.cat","email":"NO_EMAIL","phone":"656376842","reviews_rating":4.5,"num_reviews":2373,"description":"Tapas de origen local, vino y verm\u00fa en un restaurante r\u00fastico y compacto.","schedule":[{"day":"viernes","hours":"12:00\u201324:00"},{"day":"s\u00e1bado","hours":"12:00\u201324:00"},{"day":"domingo","hours":"12:00\u201324:00"},{"day":"lunes","hours":"18:00\u201324:00"},{"day":"martes","hours":"18:00\u201324:00"},{"day":"mi\u00e9rcoles","hours":"18:00\u201324:00"},{"day":"jueves","hours":"18:00\u201324:00"}],"auxiliar(borrar)":"Men\u00fa"},{"name":"Barroko's Barcelona","category":"Discoteca","city":"Barcelona","address":"Carrer d'Aribau, 242, Sarri\u00e0-Sant Gervasi, 08006 Barcelona","website":"discotecabarrokos.com","email":"NO_EMAIL","phone":"932011377","reviews_rating":3.4,"num_reviews":2258,"description":"DJs residentes y m\u00fasica variada en una discoteca moderna y animada con 2 salas y sof\u00e1s.","schedule":[{"day":"viernes","hours":"0:30\u20136:00"},{"day":"s\u00e1bado","hours":"18:00\u201324:00"},{"day":"domingo","hours":"0:00\u20136:0018:00\u201324:00"},{"day":"lunes","hours":"Cerrado"},{"day":"martes","hours":"Cerrado"},{"day":"mi\u00e9rcoles","hours":"Cerrado"},{"day":"jueves","hours":"19:00\u201323:00"}],"auxiliar(borrar)":"NOT_FOUND"},{"name":"Bonavida Cocktail Bar","category":"Cocteler\u00eda","city":"NO_CITY","address":"Carrer de Casp, 22, L'Eixample, 08010 Barcelona","website":"bonavidabcn.com","email":"info@bonavidabcn.com","phone":"NO_PHONE","reviews_rating":4.4,"num_reviews":2163,"description":"Bar moderno y elegante con terraza, una carta de c\u00f3cteles innovadora y un men\u00fa de tapas.","schedule":[{"day":"viernes","hours":"9:00\u20132:00"},{"day":"s\u00e1bado","hours":"16:00\u20132:00"},{"day":"domingo","hours":"17:00\u20131:00"},{"day":"lunes","hours":"9:00\u20131:00"},{"day":"martes","hours":"9:00\u20132:00"},{"day":"mi\u00e9rcoles","hours":"9:00\u20132:00"},{"day":"jueves","hours":"9:00\u20132:00"}],"auxiliar(borrar)":"Reservar una mesa"},{"name":"Sala Plataforma Barcelona","category":"Discoteca","city":"Barcelona","address":"Carrer Nou de la Rambla, 145, Sants-Montju\u00efc, 08004 Barcelona","website":"salaplataforma.com","email":"support@readymag.com","phone":"607249478","reviews_rating":3.5,"num_reviews":2029,"description":"Discoteca animada, con una singular decoraci\u00f3n de aire industrial, sesiones de DJs, conciertos en directo y c\u00f3cteles.","schedule":[{"day":"viernes","hours":"Abierto 24 horas"},{"day":"s\u00e1bado","hours":"0:00\u20136:00"},{"day":"domingo","hours":"0:01\u20137:00"},{"day":"lunes","hours":"Cerrado"},{"day":"martes","hours":"Cerrado"},{"day":"mi\u00e9rcoles","hours":"Cerrado"},{"day":"jueves","hours":"0:00\u20135:00"}],"auxiliar(borrar)":"NOT_FOUND"},{"name":"La Trini | TAPAS BARCELONA","category":"Restaurante","city":"Barcelona","address":"Carrer de Verdi, 30, Gr\u00e0cia, 08012 Barcelona","website":"latrini30.com","email":"info@latrini30.com","phone":"932370335","reviews_rating":4.2,"num_reviews":1979,"description":"Platos catalanes, cerveza artesanal y verm\u00fa en un bar acogedor con paredes de azulejos y una barra amplia.","schedule":[{"day":"viernes","hours":"13:00\u201324:00"},{"day":"s\u00e1bado","hours":"13:00\u201324:00"},{"day":"domingo","hours":"13:00\u201324:00"},{"day":"lunes","hours":"13:00\u201324:00"},{"day":"martes","hours":"13:00\u201324:00"},{"day":"mi\u00e9rcoles","hours":"13:00\u201324:00"},{"day":"jueves","hours":"13:00\u201324:00"}],"auxiliar(borrar)":"Hacer un pedido"},{"name":"La Cerveseria | TAPAS \u2022 SPORTS BAR \u2022 TERRAZA","category":"Bar de tapas","city":"NO_CITY","address":"Pla\u00e7a Revoluci\u00f3 de Setembre 1868, 3, Gr\u00e0cia, 08012 Barcelona","website":"lacerveseria.com","email":"info@lacerveseria.com","phone":"932139533","reviews_rating":3.0,"num_reviews":1794,"description":"Tapas y men\u00fa mediterr\u00e1neo casero en bar familiar con producto local, terraza y pantallas para ver f\u00fatbol.","schedule":[{"day":"viernes","hours":"12:00\u201324:00"},{"day":"s\u00e1bado","hours":"12:00\u201324:00"},{"day":"domingo","hours":"12:00\u201324:00"},{"day":"lunes","hours":"12:00\u201324:00"},{"day":"martes","hours":"12:00\u201324:00"},{"day":"mi\u00e9rcoles","hours":"12:00\u201324:00"},{"day":"jueves","hours":"12:00\u201324:00"}],"auxiliar(borrar)":"Men\u00fa"},{"name":"Hyde Club Barcelona","category":"Discoteca","city":"Barcelona","address":"Passatge de Domingo, 3, L'Eixample, 08007 Barcelona","website":"hydebcn.com","email":"infohyde@gmail.com","phone":"654201006","reviews_rating":3.8,"num_reviews":1754,"description":"Discoteca moderna con sesiones de DJ y un escenario peque\u00f1o con espect\u00e1culos en directo, c\u00f3cteles, sushi y piscolabis.","schedule":[{"day":"viernes","hours":"0:00\u20133:0021:00\u201324:00"},{"day":"s\u00e1bado","hours":"0:00\u20136:0021:00\u201324:00"},{"day":"domingo","hours":"0:00\u20136:00"},{"day":"lunes","hours":"Cerrado"},{"day":"martes","hours":"Cerrado"},{"day":"mi\u00e9rcoles","hours":"Cerrado"},{"day":"jueves","hours":"21:00\u201324:00"}],"auxiliar(borrar)":"NOT_FOUND"},{"name":"Bikini Barcelona","category":"Discoteca","city":"Barcelona","address":"Planta B1 \u00b7 L'illa Diagonal","website":"L'Illia, Av. Diagonal, 547, 08029 Barcelona","email":"NO_EMAIL","phone":"933220800","reviews_rating":3.8,"num_reviews":1653,"description":"Famosa discoteca con sesiones de DJs y un escenario para conciertos en directo.","schedule":[{"day":"viernes","hours":"0:00\u20135:0023:55\u201324:00"},{"day":"s\u00e1bado","hours":"0:00\u20136:0023:55\u201324:00"},{"day":"domingo","hours":"0:00\u20136:00"},{"day":"lunes","hours":"Cerrado"},{"day":"martes","hours":"Cerrado"},{"day":"mi\u00e9rcoles","hours":"Cerrado"},{"day":"jueves","hours":"23:55\u201324:00"}],"auxiliar(borrar)":"bikinibcn.com"},{"name":"Karaoke Nick","category":"Karaoke","city":"Barcelona","address":"Av. de Madrid, 160, Sants-Montju\u00efc, 08028 Barcelona","website":"discotecanick.com","email":"NO_EMAIL","phone":"661886508","reviews_rating":3.4,"num_reviews":1440,"description":"Banco corrido, luces de ne\u00f3n y billar en bar-karaoke que tambi\u00e9n ofrece servicio de restaurante.","schedule":[{"day":"viernes","hours":"0:00\u20136:0022:00\u201324:00"},{"day":"s\u00e1bado","hours":"0:00\u20136:0022:00\u201324:00"},{"day":"domingo","hours":"0:00\u20136:0023:00\u201324:00"},{"day":"lunes","hours":"0:00\u20136:0023:00\u201324:00"},{"day":"martes","hours":"0:00\u20136:0023:00\u201324:00"},{"day":"mi\u00e9rcoles","hours":"0:00\u20136:0023:00\u201324:00"},{"day":"jueves","hours":"0:00\u20136:0023:00\u201324:00"}],"auxiliar(borrar)":"NOT_FOUND"},{"name":"Gracia Latina","category":"Bar musical","city":"Barcelona","address":"Carrer de l'Or, 19, Gr\u00e0cia, 08012 Barcelona","website":"facebook.com","email":"NO_EMAIL","phone":"669268167","reviews_rating":4.2,"num_reviews":1356,"description":"M\u00fasica latina en directo, zona de baile y c\u00f3cteles en un bar acogedor que ofrece clases de salsa y bachata.","schedule":[{"day":"viernes","hours":"21:00\u20133:00"},{"day":"s\u00e1bado","hours":"21:00\u20133:00"},{"day":"domingo","hours":"21:00\u20132:30"},{"day":"lunes","hours":"21:00\u20132:30"},{"day":"martes","hours":"21:00\u20132:30"},{"day":"mi\u00e9rcoles","hours":"21:00\u20132:30"},{"day":"jueves","hours":"21:00\u20132:30"}],"auxiliar(borrar)":"NOT_FOUND"},{"name":"Plata Cocktail Bar","category":"Cocteler\u00eda","city":"Barcelona","address":"Carrer del Consell de Cent, 233, L'Eixample, 08011 Barcelona","website":"platabar.com","email":"cocktailbar@platabar.com","phone":"934524636","reviews_rating":4.6,"num_reviews":1346,"description":"Elaboraciones creativas con originales presentaciones en una cocteler\u00eda con luces de ne\u00f3n y ambiente acogedor.","schedule":[{"day":"viernes","hours":"21:00\u20132:30"},{"day":"s\u00e1bado","hours":"21:00\u20132:30"},{"day":"domingo","hours":"Cerrado"},{"day":"lunes","hours":"Cerrado"},{"day":"martes","hours":"Cerrado"},{"day":"mi\u00e9rcoles","hours":"Cerrado"},{"day":"jueves","hours":"21:00\u20131:00"}],"auxiliar(borrar)":"Men\u00fa"},{"name":"YouBarcelona - Lista Isaac","category":"Vendedor de entradas para eventos","city":"Barcelona","address":"Pl. d'Urquinaona, 6, L'Eixample, 08010 Barcelona","website":"youbarcelona.com","email":"NO_EMAIL","phone":"627099253","reviews_rating":4.9,"num_reviews":1301,"description":"NOT_FOUND","schedule":[{"day":"viernes","hours":"Abierto 24 horas"},{"day":"s\u00e1bado","hours":"Abierto 24 horas"},{"day":"domingo","hours":"Abierto 24 horas"},{"day":"lunes","hours":"Abierto 24 horas"},{"day":"martes","hours":"Abierto 24 horas"},{"day":"mi\u00e9rcoles","hours":"Abierto 24 horas"},{"day":"jueves","hours":"Abierto 24 horas"}],"auxiliar(borrar)":"NOT_FOUND"},{"name":"Chatelet","category":"Bar","city":"NO_CITY","address":"Carrer de Torrijos, 54, Gr\u00e0cia, 08012 Barcelona","website":"NO_WEBSITE","email":null,"phone":"NO_PHONE","reviews_rating":4.1,"num_reviews":1282,"description":"Bar moderno con decoraci\u00f3n llamativa, c\u00f3cteles especiales, nachos y otros tentempi\u00e9s.","schedule":[{"day":"viernes","hours":"19:00\u20133:00"},{"day":"s\u00e1bado","hours":"19:00\u20133:00"},{"day":"domingo","hours":"19:00\u20131:30"},{"day":"lunes","hours":"19:00\u20131:30"},{"day":"martes","hours":"19:00\u20131:30"},{"day":"mi\u00e9rcoles","hours":"19:00\u20131:30"},{"day":"jueves","hours":"19:00\u20131:30"}],"auxiliar(borrar)":"NOT_FOUND"},{"name":"Bar Bodega Quimet","category":"Bar","city":"Barcelona","address":"Carrer de Vic, 23, Gr\u00e0cia, 08006 Barcelona","website":"barbodegaquimet.weebly.com","email":"NO_EMAIL","phone":"932184189","reviews_rating":4.6,"num_reviews":1251,"description":"Bar acogedor y tradicional de tapas, frecuentado por lugare\u00f1os, que sirve vinos de Catalu\u00f1a y verm\u00fa casero.","schedule":[{"day":"viernes","hours":"10:00\u201316:0018:00\u201323:00"},{"day":"s\u00e1bado","hours":"11:00\u201316:0018:00\u201323:00"},{"day":"domingo","hours":"11:00\u201316:00"},{"day":"lunes","hours":"10:00\u201316:00"},{"day":"martes","hours":"10:00\u201316:0018:00\u201323:00"},{"day":"mi\u00e9rcoles","hours":"10:00\u201316:0018:00\u201323:00"},{"day":"jueves","hours":"10:00\u201316:0018:00\u201323:00"}],"auxiliar(borrar)":"NOT_FOUND"},{"name":"Restaurante Bar Casa Vall","category":"Bar de tapas","city":"NO_CITY","address":"Pla\u00e7a de Rovira i Trias, 3, Gr\u00e0cia, 08024 Barcelona","website":"NO_WEBSITE","email":null,"phone":"NO_PHONE","reviews_rating":3.8,"num_reviews":1251,"description":"NOT_FOUND","schedule":[{"day":"viernes","hours":"8:30\u20131:00"},{"day":"s\u00e1bado","hours":"10:00\u20131:00"},{"day":"domingo","hours":"10:00\u201324:00"},{"day":"lunes","hours":"8:30\u201324:00"},{"day":"martes","hours":"8:30\u201324:00"},{"day":"mi\u00e9rcoles","hours":"8:30\u201324:00"},{"day":"jueves","hours":"8:30\u201324:00"}],"auxiliar(borrar)":"NOT_FOUND"},{"name":"ELEPHANTA GINBAR COCTELERIA","category":"Cocteler\u00eda","city":"Barcelona","address":"Carrer del Torrent d'En Vidalet, 37, Gr\u00e0cia, 08012 Barcelona","website":"elephanta.cat","email":"elephanta@elephanta.cat","phone":"932376906","reviews_rating":4.6,"num_reviews":1156,"description":"Bar vistoso con toques de estilo retro y piedra vista, donde se ofrecen c\u00f3cteles artesanales con ginebra.","schedule":[{"day":"viernes","hours":"18:00\u20133:00"},{"day":"s\u00e1bado","hours":"18:00\u20133:00"},{"day":"domingo","hours":"17:00\u201323:30"},{"day":"lunes","hours":"18:00\u20131:30"},{"day":"martes","hours":"18:00\u20131:30"},{"day":"mi\u00e9rcoles","hours":"18:00\u20131:30"},{"day":"jueves","hours":"18:00\u20132:30"}],"auxiliar(borrar)":"Men\u00fa"},{"name":"La Fira Villarroel","category":"Discoteca","city":"Barcelona","address":"Carrer de Villarroel, 216, L'Eixample, 08036 Barcelona","website":"lafiravillarroel.com","email":"NO_EMAIL","phone":"676828595","reviews_rating":3.6,"num_reviews":1118,"description":"Discoteca vistosa y concurrida con sof\u00e1s lujosos, mesas que brillan en la oscuridad y bares.","schedule":[{"day":"viernes","hours":"23:55\u20135:30"},{"day":"s\u00e1bado","hours":"18:00\u201323:0023:55\u20135:30"},{"day":"domingo","hours":"Cerrado"},{"day":"lunes","hours":"Cerrado"},{"day":"martes","hours":"Cerrado"},{"day":"mi\u00e9rcoles","hours":"Cerrado"},{"day":"jueves","hours":"Cerrado"}],"auxiliar(borrar)":"Amigable con la comunidad LGTBI+"},{"name":"Bobby Gin","category":"Cocteler\u00eda","city":"Barcelona","address":"Carrer de Francisco Giner, 47, Gr\u00e0cia, 08012 Barcelona","website":"bobbygin.com","email":"NO_EMAIL","phone":"933681892","reviews_rating":4.3,"num_reviews":1099,"description":"Sus gin-tonics con ginebra infusionada casera son el principal reclamo de este pub sofisticado y bohemio.","schedule":[{"day":"viernes","hours":"19:00\u20133:00"},{"day":"s\u00e1bado","hours":"19:00\u20133:00"},{"day":"domingo","hours":"19:00\u20132:00"},{"day":"lunes","hours":"19:00\u20132:00"},{"day":"martes","hours":"19:00\u20132:00"},{"day":"mi\u00e9rcoles","hours":"19:00\u20132:00"},{"day":"jueves","hours":"19:00\u20132:00"}],"auxiliar(borrar)":"Men\u00fa"},{"name":"MAGIC ESCAPE BARCELONA","category":"Centro de salas de escape","city":"Barcelona","address":"Carrer de Ram\u00f3n y Cajal, 67, Gr\u00e0cia, 08012 Barcelona","website":"magicescape.es","email":"NO_EMAIL","phone":"633228649","reviews_rating":4.8,"num_reviews":1094,"description":"NOT_FOUND","schedule":[{"day":"viernes","hours":"10:00\u201321:00"},{"day":"s\u00e1bado","hours":"10:00\u201321:00"},{"day":"domingo","hours":"10:00\u201321:00"},{"day":"lunes","hours":"10:00\u201321:00"},{"day":"martes","hours":"10:00\u201321:00"},{"day":"mi\u00e9rcoles","hours":"10:00\u201321:00"},{"day":"jueves","hours":"10:00\u201321:00"}],"auxiliar(borrar)":"NOT_FOUND"},{"name":"M7 Club Barcelona","category":"Discoteca","city":"Barcelona","address":"Carrer de M\u00e8xic, 7, Sants-Montju\u00efc, 08004 Barcelona","website":"m7club.net","email":"m7club@europe.com","phone":"697341656","reviews_rating":4.4,"num_reviews":1090,"description":"NOT_FOUND","schedule":[{"day":"viernes","hours":"0:00\u20135:3023:45\u201324:00"},{"day":"s\u00e1bado","hours":"0:00\u20136:3023:45\u201324:00"},{"day":"domingo","hours":"0:00\u20136:3023:45\u201324:00"},{"day":"lunes","hours":"0:00\u20135:30"},{"day":"martes","hours":"Cerrado"},{"day":"mi\u00e9rcoles","hours":"Cerrado"},{"day":"jueves","hours":"23:45\u201324:00"}],"auxiliar(borrar)":"NOT_FOUND"},{"name":"14 De La Rosa","category":"Cocteler\u00eda","city":"NO_CITY","address":"Carrer de Ferrer de Blanes, 3, Gr\u00e0cia, 08012 Barcelona","website":"bloodymarybcn.es","email":"NO_EMAIL","phone":"934613985","reviews_rating":4.7,"num_reviews":1073,"description":"Combinados cl\u00e1sicos y creativos, brochetas y raciones en una cocteler\u00eda acogedora de aire retro.","schedule":[{"day":"viernes","hours":"19:00\u20133:00"},{"day":"s\u00e1bado","hours":"16:00\u20133:00"},{"day":"domingo","hours":"16:00\u20131:00"},{"day":"lunes","hours":"19:00\u20131:00"},{"day":"martes","hours":"19:00\u20132:00"},{"day":"mi\u00e9rcoles","hours":"19:00\u20132:00"},{"day":"jueves","hours":"19:00\u20132:00"}],"auxiliar(borrar)":"Men\u00fa"},{"name":"Arena Experience","category":"Discoteca","city":"Barcelona","address":"Rda. de Sant Pere, 21, Eixample, 08010 Barcelona","website":"grupoarena.com","email":"NO_EMAIL","phone":"934875140","reviews_rating":3.8,"num_reviews":1058,"description":"NOT_FOUND","schedule":[{"day":"viernes","hours":"0:00\u20135:0023:59\u201324:00"},{"day":"s\u00e1bado","hours":"0:00\u20136:0023:59\u201324:00"},{"day":"domingo","hours":"0:00\u20136:0023:59\u201324:00"},{"day":"lunes","hours":"0:00\u20135:0023:59\u201324:00"},{"day":"martes","hours":"0:00\u20135:0023:59\u201324:00"},{"day":"mi\u00e9rcoles","hours":"0:00\u20135:0023:59\u201324:00"},{"day":"jueves","hours":"0:00\u20135:0023:59\u201324:00"}],"auxiliar(borrar)":"Amigable con la comunidad LGTBI+"},{"name":"Sotavent Bar","category":"Pub","city":"NO_CITY","address":"Carrer Major de Sarri\u00e0, 61, Sarri\u00e0-Sant Gervasi, 08017 Barcelona","website":"NO_WEBSITE","email":null,"phone":"NO_PHONE","reviews_rating":4.4,"num_reviews":1043,"description":"Pub informal con futbol\u00edn, billar, dardos, noches de tr\u00edvial y partidos televisados.","schedule":[{"day":"viernes","hours":"20:00\u20133:00"},{"day":"s\u00e1bado","hours":"20:00\u20133:00"},{"day":"domingo","hours":"Cerrado"},{"day":"lunes","hours":"Cerrado"},{"day":"martes","hours":"20:00\u20132:00"},{"day":"mi\u00e9rcoles","hours":"20:00\u20132:00"},{"day":"jueves","hours":"20:00\u20132:30"}],"auxiliar(borrar)":"NOT_FOUND"},{"name":"LA ROSE SHISHA LOUNGE BAR","category":"Bar con narguiles","city":"Barcelona","address":"Carrer de Pau Claris, 103, L'Eixample, 08009 Barcelona","website":"generic-function-553546.framer.app","email":"NO_EMAIL","phone":"689227607","reviews_rating":4.7,"num_reviews":1023,"description":"NOT_FOUND","schedule":[{"day":"viernes","hours":"13:00\u20132:00"},{"day":"s\u00e1bado","hours":"13:00\u20132:00"},{"day":"domingo","hours":"13:00\u20131:00"},{"day":"lunes","hours":"13:00\u20131:00"},{"day":"martes","hours":"13:00\u20131:00"},{"day":"mi\u00e9rcoles","hours":"13:00\u20131:00"},{"day":"jueves","hours":"13:00\u20131:00"}],"auxiliar(borrar)":"Amigable con la comunidad LGTBI+"},{"name":"Skyfall Cocktail Club","category":"Club nocturno","city":"L'Hospitalet de Llobregat","address":"Avinguda de la Granvia de l\u2019Hospitalet, 144, 08907 L'Hospitalet de Llobregat, Barcelona","website":"skyfallbcn.com","email":"info@skyfallbcn.com","phone":"613012610","reviews_rating":3.9,"num_reviews":1019,"description":"NOT_FOUND","schedule":[{"day":"lunes","hours":"19:00\u20132:00"},{"day":"martes","hours":"19:00\u20132:00"},{"day":"mi\u00e9rcoles","hours":"19:00\u20132:00"},{"day":"jueves","hours":"19:00\u20132:00"},{"day":"viernes","hours":"19:00\u20133:30"},{"day":"s\u00e1bado","hours":"19:00\u20133:30"},{"day":"domingo","hours":"17:00\u20131:00"}],"auxiliar(borrar)":"Planta 0 \u00b7 Restaurant Terrum"},{"name":"Sol de NIT","category":"Bar","city":"Barcelona","address":"Pla\u00e7a del Sol, 9, Gr\u00e0cia, 08012 Barcelona","website":"sol-de-nit.eltenedor.rest","email":"NO_EMAIL","phone":"932373937","reviews_rating":3.6,"num_reviews":972,"description":"Tapas, ensaladas, raciones y c\u00f3cteles en un estrecho bar con decoraci\u00f3n ecl\u00e9ctica, que trabaja con ingredientes de temporada.","schedule":[{"day":"viernes","hours":"11:00\u20133:00"},{"day":"s\u00e1bado","hours":"11:00\u20133:00"},{"day":"domingo","hours":"11:00\u20132:30"},{"day":"lunes","hours":"11:00\u20132:30"},{"day":"martes","hours":"11:00\u20132:30"},{"day":"mi\u00e9rcoles","hours":"11:00\u20132:30"},{"day":"jueves","hours":"11:00\u20132:30"}],"auxiliar(borrar)":"Reclamar esta empresa"},{"name":"Vermuteria del Tano","category":"Bar","city":"Barcelona","address":"Carrer de Joan Blanques, 17, Gr\u00e0cia, 08012 Barcelona","website":"facebook.com","email":"NO_EMAIL","phone":"932131058","reviews_rating":4.5,"num_reviews":947,"description":"Recogida y popular vermuter\u00eda de toda la vida, con toneles a la vista, que sirve aperitivos cl\u00e1sicos.","schedule":[{"day":"viernes","hours":"9:00\u201321:00"},{"day":"s\u00e1bado","hours":"12:00\u201316:00"},{"day":"domingo","hours":"12:00\u201316:00"},{"day":"lunes","hours":"Cerrado"},{"day":"martes","hours":"9:00\u201321:00"},{"day":"mi\u00e9rcoles","hours":"9:00\u201321:00"},{"day":"jueves","hours":"9:00\u201321:00"}],"auxiliar(borrar)":"Reclamar esta empresa"},{"name":"Solange Cocktails & Luxury Spirits","category":"Cocteler\u00eda","city":"NO_CITY","address":"Carrer d'Aribau, 143, L'Eixample, 08036 Barcelona","website":"solangecocktail.com","email":"NO_EMAIL","phone":"931643625","reviews_rating":4.5,"num_reviews":891,"description":"C\u00f3cteles sofisticados e innovadores en un bar refinado con tem\u00e1tica inspirada en James Bond.","schedule":[{"day":"viernes","hours":"18:00\u20132:30"},{"day":"s\u00e1bado","hours":"18:00\u20132:30"},{"day":"domingo","hours":"18:00\u20131:30"},{"day":"lunes","hours":"18:00\u20131:30"},{"day":"martes","hours":"18:00\u20131:30"},{"day":"mi\u00e9rcoles","hours":"18:00\u20131:30"},{"day":"jueves","hours":"18:00\u20131:30"}],"auxiliar(borrar)":"Men\u00fa"},{"name":"Bar Ri","category":"Restaurante","city":"NO_CITY","address":"Pla\u00e7a de Joaquim Pena, 4, Sarri\u00e0-Sant Gervasi, 08017 Barcelona","website":"barribarcelona.com","email":"sarria@barribarcelona.com","phone":"932057856","reviews_rating":3.9,"num_reviews":879,"description":"Hamburguesas, tapas y especiales del d\u00eda en comedor chic y minimalista con pared de ladrillo.","schedule":"NOT_FOUND","auxiliar(borrar)":"Hacer un pedido"},{"name":"Bar El OtrO","category":"Bar","city":"Barcelona","address":"Travessera de Gr\u00e0cia, 167, Gr\u00e0cia, 08012 Barcelona","website":"barelotro.com","email":"info@barelotro.com","phone":"931478833","reviews_rating":4.1,"num_reviews":873,"description":"C\u00f3cteles, incluidas opciones congeladas, cervezas y tapas servidos en un bar bohemio pintado de colores vivos.","schedule":[{"day":"viernes","hours":"18:00\u20133:00"},{"day":"s\u00e1bado","hours":"18:00\u20133:00"},{"day":"domingo","hours":"18:00\u20132:30"},{"day":"lunes","hours":"18:00\u20132:30"},{"day":"martes","hours":"18:00\u20132:30"},{"day":"mi\u00e9rcoles","hours":"18:00\u20132:30"},{"day":"jueves","hours":"18:00\u20132:30"}],"auxiliar(borrar)":"NOT_FOUND"},{"name":"Almodobar Barcelona","category":"Discoteca","city":"Barcelona","address":"Carrer d'en Grassot, 36, Gr\u00e0cia, 08025 Barcelona","website":"grupalmodobar.com","email":"NO_EMAIL","phone":"932073855","reviews_rating":2.2,"num_reviews":861,"description":"Bar de copas y c\u00f3cteles con m\u00fasica actual y karaoke de sof\u00e1s naranjas y escenario en discoteca de dos plantas.","schedule":[{"day":"viernes","hours":"0:00\u20135:0023:00\u201324:00"},{"day":"s\u00e1bado","hours":"0:00\u20136:0023:00\u201324:00"},{"day":"domingo","hours":"0:00\u20136:00"},{"day":"lunes","hours":"Cerrado"},{"day":"martes","hours":"Cerrado"},{"day":"mi\u00e9rcoles","hours":"Cerrado"},{"day":"jueves","hours":"23:00\u201324:00"}],"auxiliar(borrar)":"NOT_FOUND"},{"name":"Bar Salvatge","category":"Vinoteca","city":"Barcelona","address":"Carrer de Verdi, 50, Gr\u00e0cia, 08012 Barcelona","website":"barsalvatge.com","email":"info@barsalvatge.com","phone":"932529767","reviews_rating":4.1,"num_reviews":817,"description":"Vinos org\u00e1nicos y platos y quesos locales en un bar de estilo r\u00fastico chic.","schedule":[{"day":"viernes","hours":"18:00\u20130:30"},{"day":"s\u00e1bado","hours":"13:00\u20131:00"},{"day":"domingo","hours":"13:00\u20130:30"},{"day":"lunes","hours":"18:00\u20130:30"},{"day":"martes","hours":"18:00\u20130:30"},{"day":"mi\u00e9rcoles","hours":"18:00\u20130:30"},{"day":"jueves","hours":"18:00\u20130:30"}],"auxiliar(borrar)":"NOT_FOUND"},{"name":"Illusion Barcelona","category":"Discoteca","city":"Barcelona","address":"Carrer de Proven\u00e7a, 43, L'Eixample, 08029 Barcelona","website":"illusionbarcelona.com","email":"Mandarinalalatina@gmail.com.","phone":"682277321","reviews_rating":3.7,"num_reviews":811,"description":"NOT_FOUND","schedule":[{"day":"viernes","hours":"23:55\u201324:00"},{"day":"s\u00e1bado","hours":"0:00\u20136:0023:30\u201324:00"},{"day":"domingo","hours":"0:00\u20136:0023:59\u201324:00"},{"day":"lunes","hours":"0:00\u20135:00"},{"day":"martes","hours":"Cerrado"},{"day":"mi\u00e9rcoles","hours":"Cerrado"},{"day":"jueves","hours":"Cerrado"}],"auxiliar(borrar)":"Amigable con la comunidad LGTBI+"},{"name":"Input - High Fidelity Dance Club","category":"Club nocturno","city":"NO_CITY","address":"Av. de Francesc Ferrer i Gu\u00e0rdia, 13, Sants-Montju\u00efc, 08038 Barcelona","website":"inputbcn.com","email":"NO_EMAIL","phone":"NO_PHONE","reviews_rating":4.1,"num_reviews":811,"description":"Sesiones de DJs internacionales en una discoteca con proyectores, l\u00e1seres y un sistema de sonido potente.","schedule":[{"day":"viernes","hours":"23:59\u201324:00"},{"day":"s\u00e1bado","hours":"0:00\u20136:0023:59\u201324:00"},{"day":"domingo","hours":"0:00\u20136:00"},{"day":"lunes","hours":"Cerrado"},{"day":"martes","hours":"Cerrado"},{"day":"mi\u00e9rcoles","hours":"Cerrado"},{"day":"jueves","hours":"Cerrado"}],"auxiliar(borrar)":"NOT_FOUND"},{"name":"Duvet Barcelona","category":"Discoteca","city":"Barcelona","address":"Carrer de C\u00f2rsega, 327, Gr\u00e0cia, 08037 Barcelona","website":"duvetbarcelona.com","email":"NO_EMAIL","phone":"932374322","reviews_rating":3.4,"num_reviews":770,"description":"Iluminaci\u00f3n tenue, zonas VIP y c\u00f3cteles en una discoteca sofisticada con sesiones de DJ y noches de salsa.","schedule":[{"day":"viernes","hours":"23:55\u201324:00"},{"day":"s\u00e1bado","hours":"0:00\u20136:0023:55\u201324:00"},{"day":"domingo","hours":"0:00\u20136:00"},{"day":"lunes","hours":"Cerrado"},{"day":"martes","hours":"Cerrado"},{"day":"mi\u00e9rcoles","hours":"Cerrado"},{"day":"jueves","hours":"Cerrado"}],"auxiliar(borrar)":"NOT_FOUND"},{"name":"Punto BCN","category":"Bar gay","city":"Barcelona","address":"C\/ de Muntaner, 65, L'Eixample, 08007 Barcelona","website":"facebook.com","email":"NO_EMAIL","phone":"934519152","reviews_rating":3.9,"num_reviews":766,"description":"Bar gay animado y espacioso, con m\u00fasica, eventos, cervezas, c\u00f3cteles, hora feliz y mesas de billar.","schedule":[{"day":"viernes","hours":"18:00\u20133:00"},{"day":"s\u00e1bado","hours":"18:00\u20133:00"},{"day":"domingo","hours":"Cerrado"},{"day":"lunes","hours":"Cerrado"},{"day":"martes","hours":"18:00\u20132:30"},{"day":"mi\u00e9rcoles","hours":"18:00\u20132:30"},{"day":"jueves","hours":"18:00\u20132:30"}],"auxiliar(borrar)":"Amigable con la comunidad LGTBI+"},{"name":"JazzMan","category":"Club de jazz","city":"Barcelona","address":"Carrer de Roger de Flor, 238, L'Eixample, 08025 Barcelona","website":"jazzmanbcn.com","email":"NO_EMAIL","phone":"667618593","reviews_rating":4.6,"num_reviews":731,"description":"Licores y combinados en peque\u00f1o y acogedor club de jazz de 1979 con dos ambientes y altillo para los m\u00fasicos.","schedule":[{"day":"viernes","hours":"21:00\u20133:00"},{"day":"s\u00e1bado","hours":"21:00\u20133:00"},{"day":"domingo","hours":"Cerrado"},{"day":"lunes","hours":"21:00\u20132:30"},{"day":"martes","hours":"21:00\u20132:30"},{"day":"mi\u00e9rcoles","hours":"21:00\u20132:30"},{"day":"jueves","hours":"21:00\u20132:30"}],"auxiliar(borrar)":"Men\u00fa"},{"name":"Monterrey","category":"Bar","city":"NO_CITY","address":"Carrer Major de Sarri\u00e0, 68, Sarri\u00e0-Sant Gervasi, 08017 Barcelona","website":"NO_WEBSITE","email":null,"phone":"NO_PHONE","reviews_rating":4.2,"num_reviews":712,"description":"NOT_FOUND","schedule":[{"day":"viernes","hours":"7:30\u20131:00"},{"day":"s\u00e1bado","hours":"7:30\u20132:00"},{"day":"domingo","hours":"Cerrado"},{"day":"lunes","hours":"7:30\u20131:00"},{"day":"martes","hours":"7:30\u20131:00"},{"day":"mi\u00e9rcoles","hours":"7:30\u20131:00"},{"day":"jueves","hours":"7:30\u20131:00"}],"auxiliar(borrar)":"NOT_FOUND"},{"name":"Bar Serra","category":"Bar","city":"NO_CITY","address":"Carrer Santa Eul\u00e0lia, 100, 08902 L'Hospitalet de Llobregat, Barcelona","website":"NO_WEBSITE","email":null,"phone":"NO_PHONE","reviews_rating":3.9,"num_reviews":708,"description":"NOT_FOUND","schedule":[{"day":"lunes","hours":"7:00\u20130:30"},{"day":"martes","hours":"7:00\u20130:30"},{"day":"mi\u00e9rcoles","hours":"7:00\u20130:30"},{"day":"jueves","hours":"7:00\u20130:30"},{"day":"viernes","hours":"7:00\u20130:30"},{"day":"s\u00e1bado","hours":"9:00\u201322:00"},{"day":"domingo","hours":"9:00\u201317:00"}],"auxiliar(borrar)":"NOT_FOUND"},{"name":"La Fira Casanova","category":"Discoteca","city":"Barcelona","address":"Carrer de Casanova, 171, Eixample, 08036 Barcelona","website":"lafiragroup.com","email":"oficinas@invermik.es","phone":"699544530","reviews_rating":3.8,"num_reviews":702,"description":"NOT_FOUND","schedule":[{"day":"viernes","hours":"0:00\u20135:00"},{"day":"s\u00e1bado","hours":"0:00\u20135:3018:00\u201323:00"},{"day":"domingo","hours":"0:00\u20135:30"},{"day":"lunes","hours":"0:00\u201317:00"},{"day":"martes","hours":"Cerrado"},{"day":"mi\u00e9rcoles","hours":"Cerrado"},{"day":"jueves","hours":"Cerrado"}],"auxiliar(borrar)":"NOT_FOUND"},{"name":"Almo2bar","category":"Discoteca","city":"Barcelona","address":"59-61, Carrer de Bruniquer, 08024 Barcelona","website":"grupalmodobar.com","email":"NO_EMAIL","phone":"932199345","reviews_rating":2.5,"num_reviews":673,"description":"Futbol\u00edn y taburetes altos en discoteca con m\u00fasica actual y d\u00eda dedicado al baile de swing con m\u00fasica en vivo.","schedule":[{"day":"viernes","hours":"0:00\u20135:0023:00\u201324:00"},{"day":"s\u00e1bado","hours":"0:00\u20136:0023:00\u201324:00"},{"day":"domingo","hours":"0:00\u20136:0023:59\u201324:00"},{"day":"lunes","hours":"0:00\u20135:00"},{"day":"martes","hours":"Cerrado"},{"day":"mi\u00e9rcoles","hours":"Cerrado"},{"day":"jueves","hours":"23:00\u201324:00"}],"auxiliar(borrar)":"NOT_FOUND"},{"name":"Ballbreaker","category":"Club de m\u00fasica rock","city":"NO_CITY","address":"Carrer de Matilde, 7, Gr\u00e0cia, 08012 Barcelona","website":"NO_WEBSITE","email":null,"phone":"NO_PHONE","reviews_rating":4.6,"num_reviews":669,"description":"NOT_FOUND","schedule":[{"day":"viernes","hours":"19:00\u20133:00"},{"day":"s\u00e1bado","hours":"19:00\u20133:00"},{"day":"domingo","hours":"Cerrado"},{"day":"lunes","hours":"19:00\u20132:30"},{"day":"martes","hours":"19:00\u20132:30"},{"day":"mi\u00e9rcoles","hours":"19:00\u20132:30"},{"day":"jueves","hours":"19:00\u20132:30"}],"auxiliar(borrar)":"NOT_FOUND"},{"name":"L'Oncle Jack Music & Cocktail Bar","category":"Bar musical","city":"L'Hospitalet de Llobregat","address":"Carrer de les Roselles, 32, 08901 L'Hospitalet de Llobregat, Barcelona","website":"mizuwaricocktailbar.es","email":"NO_EMAIL","phone":"692123697","reviews_rating":4.6,"num_reviews":648,"description":"NOT_FOUND","schedule":[{"day":"lunes","hours":"Cerrado"},{"day":"martes","hours":"Cerrado"},{"day":"mi\u00e9rcoles","hours":"18:00\u20132:00"},{"day":"jueves","hours":"18:00\u20132:00"},{"day":"viernes","hours":"18:00\u20133:00"},{"day":"s\u00e1bado","hours":"17:00\u20133:00"},{"day":"domingo","hours":"17:00\u201322:00"}],"auxiliar(borrar)":"NOT_FOUND"},{"name":"Entre Hores - Tapas, Vermut & Cocktails","category":"Restaurante","city":"Barcelona","address":"Carrer de Verdi, 4, 6, Gr\u00e0cia, 08012 Barcelona","website":"entrehores.com","email":"NO_EMAIL","phone":"930073784","reviews_rating":4.5,"num_reviews":645,"description":"Tapas espa\u00f1oles y cervezas artesanales en un bar peque\u00f1o y animado con una barra a pie de calle.","schedule":[{"day":"viernes","hours":"18:30\u20131:30"},{"day":"s\u00e1bado","hours":"13:00\u20131:30"},{"day":"domingo","hours":"13:00\u20130:30"},{"day":"lunes","hours":"18:30\u20130:30"},{"day":"martes","hours":"18:30\u20130:30"},{"day":"mi\u00e9rcoles","hours":"18:30\u20130:30"},{"day":"jueves","hours":"18:30\u20130:30"}],"auxiliar(borrar)":"Men\u00fa"},{"name":"Draco Premium Club","category":"Discoteca","city":"Barcelona","address":"Carrer de Ca l'Alegre de Dalt, 55, Gr\u00e0cia, 08024 Barcelona","website":"dracodisco.com","email":"NO_EMAIL","phone":"620933417","reviews_rating":4.4,"num_reviews":641,"description":"NOT_FOUND","schedule":[{"day":"viernes","hours":"23:59\u201324:00"},{"day":"s\u00e1bado","hours":"0:00\u20136:0023:59\u201324:00"},{"day":"domingo","hours":"0:00\u20136:0023:59\u201324:00"},{"day":"lunes","hours":"0:00\u20135:00"},{"day":"martes","hours":"Cerrado"},{"day":"mi\u00e9rcoles","hours":"Cerrado"},{"day":"jueves","hours":"Cerrado"}],"auxiliar(borrar)":"Servicios"},{"name":"BLACK BOX","category":"Discoteca","city":"Barcelona","address":"Carrer de la Diputaci\u00f3, 233, L'Eixample, 08007 Barcelona","website":"blackboxdisco.com","email":"NO_EMAIL","phone":"934878342","reviews_rating":3.7,"num_reviews":631,"description":"Remezclas de canciones de los 80 y los 90 en discoteca de ambiente mixta con paredes rojas y columnas.","schedule":[{"day":"viernes","hours":"23:59\u201324:00"},{"day":"s\u00e1bado","hours":"0:00\u20136:0023:59\u201324:00"},{"day":"domingo","hours":"0:00\u20136:00"},{"day":"lunes","hours":"Cerrado"},{"day":"martes","hours":"Cerrado"},{"day":"mi\u00e9rcoles","hours":"Cerrado"},{"day":"jueves","hours":"Cerrado"}],"auxiliar(borrar)":"Servicios"},{"name":"Bartreze","category":"Bar","city":"Barcelona","address":"Carrer Major de Sarri\u00e0, 115, Sarri\u00e0-Sant Gervasi, 08017 Barcelona","website":"bartreze.com","email":"bartreze@outlook.es","phone":"932506499","reviews_rating":4.2,"num_reviews":625,"description":"NOT_FOUND","schedule":[{"day":"viernes","hours":"8:00\u20132:00"},{"day":"s\u00e1bado","hours":"9:00\u20132:00"},{"day":"domingo","hours":"9:00\u20131:00"},{"day":"lunes","hours":"8:00\u20131:00"},{"day":"martes","hours":"8:00\u20131:00"},{"day":"mi\u00e9rcoles","hours":"8:00\u20131:00"},{"day":"jueves","hours":"8:00\u20132:00"}],"auxiliar(borrar)":"NOT_FOUND"},{"name":"Soda Ac\u00fastic","category":"Club de jazz","city":"Barcelona","address":"Carrer de les Guilleries, 6, Gr\u00e0cia, 08012 Barcelona","website":"soda.cat","email":"info@soda.cat","phone":"930165590","reviews_rating":4.4,"num_reviews":616,"description":"Bar acogedor de estilo retro con conciertos de artistas locales de jazz, blues y otros g\u00e9neros musicales.","schedule":[{"day":"viernes","hours":"20:00\u20133:00"},{"day":"s\u00e1bado","hours":"20:00\u20133:00"},{"day":"domingo","hours":"Cerrado"},{"day":"lunes","hours":"Cerrado"},{"day":"martes","hours":"20:00\u20132:00"},{"day":"mi\u00e9rcoles","hours":"20:00\u20132:00"},{"day":"jueves","hours":"20:00\u20132:30"}],"auxiliar(borrar)":"NOT_FOUND"},{"name":"Canela Dance Club","category":"Discoteca","city":"NO_CITY","address":"Carrer de Ca l'Alegre de Dalt, 55, Gr\u00e0cia, 08024 Barcelona","website":"NO_WEBSITE","email":null,"phone":"NO_PHONE","reviews_rating":3.4,"num_reviews":595,"description":"Taburetes bajos, ambiente de baile e iluminaci\u00f3n de colores en discoteca con rumba y m\u00fasica colombiana.","schedule":[{"day":"viernes","hours":"0:00\u20136:00"},{"day":"s\u00e1bado","hours":"0:00\u20136:00"},{"day":"domingo","hours":"Cerrado"},{"day":"lunes","hours":"Cerrado"},{"day":"martes","hours":"Cerrado"},{"day":"mi\u00e9rcoles","hours":"Cerrado"},{"day":"jueves","hours":"Cerrado"}],"auxiliar(borrar)":"NOT_FOUND"},{"name":"SINGULAR Copas y Billares","category":"Pub","city":"Barcelona","address":"Carrer de Sant Antoni Maria Claret, 514, Sant Andreu, 08027 Barcelona","website":"singularpub.com","email":"NO_EMAIL","phone":"935181113","reviews_rating":4.4,"num_reviews":577,"description":"NOT_FOUND","schedule":[{"day":"viernes","hours":"18:00\u20132:30"},{"day":"s\u00e1bado","hours":"16:00\u20132:30"},{"day":"domingo","hours":"16:00\u20131:00"},{"day":"lunes","hours":"18:00\u20131:00"},{"day":"martes","hours":"18:00\u20131:00"},{"day":"mi\u00e9rcoles","hours":"18:00\u20131:00"},{"day":"jueves","hours":"18:00\u20131:00"}],"auxiliar(borrar)":"Amigable con la comunidad LGTBI+"},{"name":"Bar Odisea 5.0","category":"Bar musical","city":"NO_CITY","address":"Carrer de Barcelona, 49, 08901 L'Hospitalet de Llobregat, Barcelona","website":"wa.link","email":"NO_EMAIL","phone":"689024401","reviews_rating":4.2,"num_reviews":577,"description":"NOT_FOUND","schedule":[{"day":"lunes","hours":"Cerrado"},{"day":"martes","hours":"Cerrado"},{"day":"mi\u00e9rcoles","hours":"21:00\u20132:00"},{"day":"jueves","hours":"21:00\u20132:00"},{"day":"viernes","hours":"21:00\u20133:00"},{"day":"s\u00e1bado","hours":"19:00\u20133:00"},{"day":"domingo","hours":"19:00\u20132:00"}],"auxiliar(borrar)":"Men\u00fa"},{"name":"Believe Club Barcelona","category":"Discoteca","city":"Barcelona","address":"Carrer de Balmes, 56, L'Eixample, 08011 Barcelona","website":"thebelieve.club","email":"hola@believegroup.cat","phone":"679115105","reviews_rating":3.5,"num_reviews":576,"description":"NOT_FOUND","schedule":[{"day":"viernes","hours":"0:00\u20135:0023:00\u201324:00"},{"day":"s\u00e1bado","hours":"0:00\u20136:0023:00\u201324:00"},{"day":"domingo","hours":"0:00\u20136:0023:00\u201324:00"},{"day":"lunes","hours":"0:00\u20135:0023:00\u201324:00"},{"day":"martes","hours":"0:00\u20135:0023:00\u201324:00"},{"day":"mi\u00e9rcoles","hours":"0:00\u20135:0023:00\u201324:00"},{"day":"jueves","hours":"0:00\u20135:0023:00\u201324:00"}],"auxiliar(borrar)":"Men\u00fa"},{"name":"Four Elements Shisha Lounge Barcelona","category":"Bar con narguiles","city":"Barcelona","address":"Carrer de Laforja, 61, Sarri\u00e0-Sant Gervasi, 08021 Barcelona","website":"4elementslounge.com","email":"info@4foureelementslaunge.com","phone":"930251461","reviews_rating":4.8,"num_reviews":572,"description":"NOT_FOUND","schedule":[{"day":"viernes","hours":"13:00\u20131:00"},{"day":"s\u00e1bado","hours":"13:00\u20131:00"},{"day":"domingo","hours":"13:00\u20131:00"},{"day":"lunes","hours":"13:00\u20131:00"},{"day":"martes","hours":"13:00\u20131:00"},{"day":"mi\u00e9rcoles","hours":"13:00\u20131:00"},{"day":"jueves","hours":"13:00\u20131:00"}],"auxiliar(borrar)":"NOT_FOUND"},{"name":"Cockteler\u00eda Mary Pickford","category":"Cocteler\u00eda","city":"L'Hospitalet de Llobregat","address":"Carrer d'Enric Prat de la Riba, 246, 08901 L'Hospitalet de Llobregat, Barcelona","website":"facebook.com","email":"NO_EMAIL","phone":"933379165","reviews_rating":4.6,"num_reviews":563,"description":"NOT_FOUND","schedule":[{"day":"lunes","hours":"Cerrado"},{"day":"martes","hours":"Cerrado"},{"day":"mi\u00e9rcoles","hours":"19:00\u20132:00"},{"day":"jueves","hours":"19:00\u20132:00"},{"day":"viernes","hours":"19:00\u20133:00"},{"day":"s\u00e1bado","hours":"19:00\u20133:00"},{"day":"domingo","hours":"19:00\u20132:00"}],"auxiliar(borrar)":"NOT_FOUND"},{"name":"CASA FIGARI \/\/ Bar de Jazz","category":"Club de jazz","city":"Barcelona","address":"Carrer del Torrent de l'Olla, 141, Gr\u00e0cia, 08012 Barcelona","website":"casafigari.com","email":"NO_EMAIL","phone":"930049975","reviews_rating":4.5,"num_reviews":531,"description":"NOT_FOUND","schedule":[{"day":"viernes","hours":"20:00\u20132:30"},{"day":"s\u00e1bado","hours":"20:00\u20132:30"},{"day":"domingo","hours":"Cerrado"},{"day":"lunes","hours":"Cerrado"},{"day":"martes","hours":"20:00\u20132:00"},{"day":"mi\u00e9rcoles","hours":"20:00\u20132:00"},{"day":"jueves","hours":"20:00\u20132:00"}],"auxiliar(borrar)":"Amigable con la comunidad LGTBI+"},{"name":"Bar Escoc\u00e9s","category":"Bar restaurante","city":"Barcelona","address":"Carrer de Mandri, 23, Sarri\u00e0-Sant Gervasi, 08022 Barcelona","website":"barescoces1955.com","email":"NO_EMAIL","phone":"934171110","reviews_rating":3.9,"num_reviews":515,"description":"NOT_FOUND","schedule":[{"day":"viernes","hours":"8:00\u20132:00"},{"day":"s\u00e1bado","hours":"9:00\u20132:00"},{"day":"domingo","hours":"9:00\u201324:00"},{"day":"lunes","hours":"8:00\u201324:00"},{"day":"martes","hours":"8:00\u201324:00"},{"day":"mi\u00e9rcoles","hours":"8:00\u201324:00"},{"day":"jueves","hours":"8:00\u20132:00"}],"auxiliar(borrar)":"Men\u00fa"},{"name":"Ruta 66","category":"Bar","city":"Barcelona","address":"NOT_FOUND","website":"C. de S\u00f3crates, 68, San Andr\u00e9s de Palomar, 08030 Barcelona","email":"NO_EMAIL","phone":"NO_PHONE","reviews_rating":4.1,"num_reviews":501,"description":"NOT_FOUND","schedule":[{"day":"viernes","hours":"20:00\u20133:00"},{"day":"s\u00e1bado","hours":"20:00\u20133:00"},{"day":"domingo","hours":"20:00\u20132:30"},{"day":"lunes","hours":"20:00\u20132:30"},{"day":"martes","hours":"20:00\u20132:30"},{"day":"mi\u00e9rcoles","hours":"20:00\u20132:30"},{"day":"jueves","hours":"20:00\u20132:30"}],"auxiliar(borrar)":"NOT_FOUND"},{"name":"Juanchito","category":"Discoteca","city":"NO_CITY","address":"Carrer d'Enric Prat de la Riba, 61, 08901 L'Hospitalet de Llobregat, Barcelona","website":"NO_WEBSITE","email":null,"phone":"NO_PHONE","reviews_rating":3.9,"num_reviews":495,"description":"NOT_FOUND","schedule":[{"day":"lunes","hours":"Cerrado"},{"day":"martes","hours":"Cerrado"},{"day":"mi\u00e9rcoles","hours":"Cerrado"},{"day":"jueves","hours":"Cerrado"},{"day":"viernes","hours":"23:00\u201324:00"},{"day":"s\u00e1bado","hours":"0:00\u201317:0023:00\u201324:00"},{"day":"domingo","hours":"0:00\u201317:00"}],"auxiliar(borrar)":"NOT_FOUND"},{"name":"Bar Viu","category":"Bar","city":"Barcelona","address":"Carrer de la Perla, 26, Gr\u00e0cia, 08012 Barcelona","website":"m.facebook.com","email":"NO_EMAIL","phone":"937609458","reviews_rating":4.5,"num_reviews":492,"description":"Local peque\u00f1o y animado lleno de cuadros, donde tomar tapas cl\u00e1sicas, cerveza y vino con m\u00fasica en directo.","schedule":[{"day":"viernes","hours":"18:00\u20132:30"},{"day":"s\u00e1bado","hours":"18:00\u20132:30"},{"day":"domingo","hours":"Cerrado"},{"day":"lunes","hours":"Cerrado"},{"day":"martes","hours":"18:00\u20131:00"},{"day":"mi\u00e9rcoles","hours":"18:00\u20131:00"},{"day":"jueves","hours":"18:00\u20132:30"}],"auxiliar(borrar)":"NOT_FOUND"},{"name":"De Copas","category":"Bar","city":"NO_CITY","address":"Carrer de Bruniquer, 65, Gr\u00e0cia, 08024 Barcelona","website":"NO_WEBSITE","email":null,"phone":"NO_PHONE","reviews_rating":3.8,"num_reviews":469,"description":"NOT_FOUND","schedule":[{"day":"viernes","hours":"18:00\u20133:00"},{"day":"s\u00e1bado","hours":"18:00\u20133:00"},{"day":"domingo","hours":"18:00\u20132:00"},{"day":"lunes","hours":"18:00\u20132:00"},{"day":"martes","hours":"18:00\u20132:00"},{"day":"mi\u00e9rcoles","hours":"18:00\u20132:00"},{"day":"jueves","hours":"18:00\u20132:00"}],"auxiliar(borrar)":"NOT_FOUND"},{"name":"Bar Ra\u00efm","category":"Bar","city":"NO_CITY","address":"Carrer de Siracusa, 4, Gr\u00e0cia, 08012 Barcelona","website":"NO_WEBSITE","email":null,"phone":"NO_PHONE","reviews_rating":4.3,"num_reviews":465,"description":"NOT_FOUND","schedule":[{"day":"viernes","hours":"22:00\u20132:00"},{"day":"s\u00e1bado","hours":"22:00\u20132:00"},{"day":"domingo","hours":"Cerrado"},{"day":"lunes","hours":"Cerrado"},{"day":"martes","hours":"Cerrado"},{"day":"mi\u00e9rcoles","hours":"Cerrado"},{"day":"jueves","hours":"22:00\u20131:30"}],"auxiliar(borrar)":"NOT_FOUND"},{"name":"Moeem Barcelona","category":"Bar gay","city":"Barcelona","address":"C\/ de Muntaner, 11, L'Eixample, 08011 Barcelona","website":"moeembarcelona.com","email":"NO_EMAIL","phone":"931275399","reviews_rating":4.4,"num_reviews":453,"description":"Bar gay animado, con DJs que pinchan pop y reguet\u00f3n, sof\u00e1s acogedores y una larga lista de bebidas con ginebra.","schedule":[{"day":"viernes","hours":"18:00\u20133:00"},{"day":"s\u00e1bado","hours":"18:00\u20133:00"},{"day":"domingo","hours":"18:00\u20133:00"},{"day":"lunes","hours":"18:00\u20132:30"},{"day":"martes","hours":"18:00\u20132:30"},{"day":"mi\u00e9rcoles","hours":"18:00\u20132:30"},{"day":"jueves","hours":"18:00\u20132:30"}],"auxiliar(borrar)":"Amigable con la comunidad LGTBI+"},{"name":"The Secret Garden Restaurant & Lounge Club","category":"Restaurante","city":"Barcelona","address":"Carrer de Salvador Espriu, 79, Sant Mart\u00ed, 08005 Barcelona","website":"thesecretgardenbcn.es","email":"NO_EMAIL","phone":"641464872","reviews_rating":4.7,"num_reviews":450,"description":"NOT_FOUND","schedule":[{"day":"viernes","hours":"20:00\u20133:00"},{"day":"s\u00e1bado","hours":"20:00\u20133:00"},{"day":"domingo","hours":"20:00\u20133:00"},{"day":"lunes","hours":"Cerrado"},{"day":"martes","hours":"Cerrado"},{"day":"mi\u00e9rcoles","hours":"20:00\u20133:00"},{"day":"jueves","hours":"20:00\u20133:00"}],"auxiliar(borrar)":"Men\u00fa"},{"name":"On The Vas","category":"Bar musical","city":"NO_CITY","address":"Carrer Tarragona, 19, 08901 L'Hospitalet de Llobregat, Barcelona","website":"NO_WEBSITE","email":null,"phone":"NO_PHONE","reviews_rating":4.3,"num_reviews":439,"description":"NOT_FOUND","schedule":[{"day":"lunes","hours":"Cerrado"},{"day":"martes","hours":"Cerrado"},{"day":"mi\u00e9rcoles","hours":"Cerrado"},{"day":"jueves","hours":"Cerrado"},{"day":"viernes","hours":"23:15\u20133:00"},{"day":"s\u00e1bado","hours":"23:15\u20133:00"},{"day":"domingo","hours":"Cerrado"}],"auxiliar(borrar)":"NOT_FOUND"},{"name":"Eleven Shisha Lounge Barcelona & Cocktails","category":"Bar con narguiles","city":"Barcelona","address":"Carrer de C\u00f2rsega, 257, L'Eixample, 08036 Barcelona","website":"instagram.com","email":"NO_EMAIL","phone":"646596048","reviews_rating":4.9,"num_reviews":428,"description":"NOT_FOUND","schedule":[{"day":"viernes","hours":"18:00\u20133:00"},{"day":"s\u00e1bado","hours":"18:00\u20133:00"},{"day":"domingo","hours":"18:00\u20131:00"},{"day":"lunes","hours":"18:00\u20132:00"},{"day":"martes","hours":"18:00\u20132:00"},{"day":"mi\u00e9rcoles","hours":"18:00\u20132:00"},{"day":"jueves","hours":"18:00\u20132:00"}],"auxiliar(borrar)":"Men\u00fa"},{"name":"Canap\u00e9 Premium Music Bar","category":"Bar musical","city":"NO_CITY","address":"Carrer de la Muntanya, 34, Sant Mart\u00ed, 08026 Barcelona","website":"NO_WEBSITE","email":null,"phone":"NO_PHONE","reviews_rating":3.9,"num_reviews":427,"description":"NOT_FOUND","schedule":[{"day":"viernes","hours":"21:00\u20133:30"},{"day":"s\u00e1bado","hours":"21:00\u20133:30"},{"day":"domingo","hours":"17:00\u20133:00"},{"day":"lunes","hours":"21:00\u20133:00"},{"day":"martes","hours":"21:00\u20133:00"},{"day":"mi\u00e9rcoles","hours":"21:00\u20133:00"},{"day":"jueves","hours":"21:00\u20133:00"}],"auxiliar(borrar)":"NOT_FOUND"},{"name":"Bar Ca\u00f1as","category":"Bar","city":"NO_CITY","address":"Carrer d'Otger, 1, Sant Andreu, 08030 Barcelona","website":"NO_WEBSITE","email":null,"phone":"NO_PHONE","reviews_rating":4.5,"num_reviews":412,"description":"NOT_FOUND","schedule":[{"day":"viernes","hours":"7:45\u201322:00"},{"day":"s\u00e1bado","hours":"7:45\u201322:00"},{"day":"domingo","hours":"Cerrado"},{"day":"lunes","hours":"7:45\u201322:00"},{"day":"martes","hours":"7:45\u201322:00"},{"day":"mi\u00e9rcoles","hours":"7:45\u201322:00"},{"day":"jueves","hours":"7:45\u201322:00"}],"auxiliar(borrar)":"NOT_FOUND"},{"name":"Azimuth Rooftop Bar","category":"Lounge","city":"Barcelona","address":"Terraza 8\u00aa Planta, Gran Via de les Corts Catalanes, 619, 621, 08007 Barcelona","website":"almanachotels.com","email":"info.vienna@almanachotels.com","phone":"930187000","reviews_rating":4.2,"num_reviews":411,"description":"NOT_FOUND","schedule":[{"day":"viernes","hours":"12:30\u20130:30"},{"day":"s\u00e1bado","hours":"12:30\u20130:30"},{"day":"domingo","hours":"12:30\u20130:30"},{"day":"lunes","hours":"12:30\u20130:30"},{"day":"martes","hours":"12:30\u20130:30"},{"day":"mi\u00e9rcoles","hours":"12:30\u20130:30"},{"day":"jueves","hours":"12:30\u20130:30"}],"auxiliar(borrar)":"Amigable con la comunidad LGTBI+"},{"name":"Night Barcelona","category":"Bar gay","city":"Barcelona","address":"Carrer de la Diputaci\u00f3, 161, L'Eixample, 08015 Barcelona","website":"nightbarcelona.net","email":"NO_EMAIL","phone":"935031701","reviews_rating":4.0,"num_reviews":397,"description":"Bar gay muy animado, con hora feliz los jueves por la noche, famoso por los c\u00f3cteles y el cruising.","schedule":[{"day":"viernes","hours":"18:00\u20133:00"},{"day":"s\u00e1bado","hours":"18:00\u20133:00"},{"day":"domingo","hours":"18:00\u20132:30"},{"day":"lunes","hours":"18:00\u20132:30"},{"day":"martes","hours":"18:00\u20132:30"},{"day":"mi\u00e9rcoles","hours":"18:00\u20132:30"},{"day":"jueves","hours":"18:00\u20132:30"}],"auxiliar(borrar)":"Men\u00fa"},{"name":"Bar Falstaff","category":"Bar musical","city":"Barcelona","address":"Carrer de Venus, 3, Gr\u00e0cia, 08012 Barcelona","website":"barfalstaff.com","email":"info@barfalstaff.com","phone":"695866246","reviews_rating":4.2,"num_reviews":396,"description":"Bar musical de estilo informal con actuaciones en directo, bailes los fines de semana, cervezas artesanales y elaborados c\u00f3cteles.","schedule":[{"day":"viernes","hours":"20:00\u20133:00"},{"day":"s\u00e1bado","hours":"20:00\u20133:00"},{"day":"domingo","hours":"Cerrado"},{"day":"lunes","hours":"Cerrado"},{"day":"martes","hours":"Cerrado"},{"day":"mi\u00e9rcoles","hours":"20:30\u20132:30"},{"day":"jueves","hours":"20:30\u20132:30"}],"auxiliar(borrar)":"Amigable con la comunidad LGTBI+"},{"name":"NIGHT & DAY","category":"Pub","city":"NO_CITY","address":"Carrer dels Almog\u00e0vers, 62, Sant Mart\u00ed, 08018 Barcelona","website":"linktr.ee","email":"NO_EMAIL","phone":"622380323","reviews_rating":4.2,"num_reviews":395,"description":"Discoteca con zona de sof\u00e1s tipo chill out m\u00e1s cachimbas y m\u00fasica de bachata, reggaeton, salsa o house.","schedule":[{"day":"viernes","hours":"20:00\u20134:00"},{"day":"s\u00e1bado","hours":"20:00\u20134:00"},{"day":"domingo","hours":"20:00\u20133:00"},{"day":"lunes","hours":"20:00\u20133:00"},{"day":"martes","hours":"20:00\u20133:00"},{"day":"mi\u00e9rcoles","hours":"20:00\u20133:00"},{"day":"jueves","hours":"20:00\u20133:00"}],"auxiliar(borrar)":"Men\u00fa"},{"name":"Karaoke Rooms Barcelona","category":"Karaoke","city":"NO_CITY","address":"Reservar una mesa","website":"Av. del Carrilet, 237, 08907 L'Hospitalet de Llobregat, Barcelona","email":"NO_EMAIL","phone":"675923826","reviews_rating":4.6,"num_reviews":385,"description":"NOT_FOUND","schedule":[{"day":"lunes","hours":"9:00\u201317:00"},{"day":"martes","hours":"10:00\u201324:00"},{"day":"mi\u00e9rcoles","hours":"10:00\u201324:00"},{"day":"jueves","hours":"10:00\u201324:00"},{"day":"viernes","hours":"10:00\u20132:00"},{"day":"s\u00e1bado","hours":"10:00\u20132:00"},{"day":"domingo","hours":"10:00\u201324:00"}],"auxiliar(borrar)":"Men\u00fa"},{"name":"El Cinco Club Barcelona","category":"Discoteca","city":"NO_CITY","address":"Pla\u00e7a de Joan Llongueras, 5, Sarri\u00e0-Sant Gervasi, 08021 Barcelona","website":"elcinco.barcelona","email":"NO_EMAIL","phone":"938580813","reviews_rating":3.8,"num_reviews":360,"description":"NOT_FOUND","schedule":[{"day":"viernes","hours":"0:00\u20135:0023:55\u201324:00"},{"day":"s\u00e1bado","hours":"0:00\u20136:0023:55\u201324:00"},{"day":"domingo","hours":"0:00\u20136:00"},{"day":"lunes","hours":"Cerrado"},{"day":"martes","hours":"Cerrado"},{"day":"mi\u00e9rcoles","hours":"Cerrado"},{"day":"jueves","hours":"23:55\u201324:00"}],"auxiliar(borrar)":"Reservar una mesa"},{"name":"Swinger Club Oops Barcelona","category":"Club nocturno","city":"Barcelona","address":"Carrer d'Angl\u00ed, 69, Distrito de Sarri\u00e0-Sant Gervasi, 08017 Barcelona","website":"oops.barcelona","email":"NO_EMAIL","phone":"665138734","reviews_rating":4.0,"num_reviews":347,"description":"NOT_FOUND","schedule":[{"day":"viernes","hours":"0:00\u20135:0023:00\u201324:00"},{"day":"s\u00e1bado","hours":"0:00\u20136:0023:00\u201324:00"},{"day":"domingo","hours":"0:00\u20137:0023:00\u201324:00"},{"day":"lunes","hours":"0:00\u20135:0023:00\u201324:00"},{"day":"martes","hours":"0:00\u20135:0023:00\u201324:00"},{"day":"mi\u00e9rcoles","hours":"0:00\u20135:0023:00\u201324:00"},{"day":"jueves","hours":"0:00\u20135:0023:00\u201324:00"}],"auxiliar(borrar)":"Amigable con la comunidad LGTBI+"},{"name":"Almayer Cocktail Bar","category":"Bar","city":"NO_CITY","address":"Carrer de Francisco Giner, 36, Local 1, Gracia, 08012 Barcelona","website":"NO_WEBSITE","email":null,"phone":"NO_PHONE","reviews_rating":4.7,"num_reviews":341,"description":"NOT_FOUND","schedule":[{"day":"viernes","hours":"18:00\u20133:00"},{"day":"s\u00e1bado","hours":"18:00\u20133:00"},{"day":"domingo","hours":"18:00\u20131:00"},{"day":"lunes","hours":"18:00\u20131:00"},{"day":"martes","hours":"18:00\u20131:00"},{"day":"mi\u00e9rcoles","hours":"18:00\u20131:00"},{"day":"jueves","hours":"18:00\u20131:00"}],"auxiliar(borrar)":"NOT_FOUND"},{"name":"Bar Estaci\u00f3n","category":"Bar","city":"NO_CITY","address":"Pla\u00e7a de l'Estaci\u00f3, 6, Sant Andreu, 08030 Barcelona","website":"NO_WEBSITE","email":null,"phone":"NO_PHONE","reviews_rating":4.0,"num_reviews":326,"description":"NOT_FOUND","schedule":[{"day":"viernes","hours":"6:00\u201316:30"},{"day":"s\u00e1bado","hours":"7:00\u201314:00"},{"day":"domingo","hours":"Cerrado"},{"day":"lunes","hours":"6:00\u201316:30"},{"day":"martes","hours":"6:00\u201316:30"},{"day":"mi\u00e9rcoles","hours":"6:00\u201316:30"},{"day":"jueves","hours":"6:00\u201316:30"}],"auxiliar(borrar)":"NOT_FOUND"},{"name":"Bar Colombia","category":"Bar","city":"NO_CITY","address":"Rambla de Fabra i Puig, 1, Sant Andreu, 08030 Barcelona","website":"NO_WEBSITE","email":null,"phone":"NO_PHONE","reviews_rating":4.2,"num_reviews":322,"description":"NOT_FOUND","schedule":[{"day":"viernes","hours":"7:00\u201317:00"},{"day":"s\u00e1bado","hours":"7:00\u201315:00"},{"day":"domingo","hours":"7:00\u201315:00"},{"day":"lunes","hours":"7:00\u201317:00"},{"day":"martes","hours":"7:00\u201317:00"},{"day":"mi\u00e9rcoles","hours":"7:00\u201317:00"},{"day":"jueves","hours":"7:00\u201317:00"}],"auxiliar(borrar)":"NOT_FOUND"},{"name":"Meduza Club","category":"Discoteca","city":"Barcelona","address":"Carrer d'Alcolea, 98, Sants-Montju\u00efc, 08014 Barcelona","website":"m.facebook.com","email":"NO_EMAIL","phone":"695922053","reviews_rating":3.9,"num_reviews":315,"description":"NOT_FOUND","schedule":[{"day":"viernes","hours":"23:00\u201324:00"},{"day":"s\u00e1bado","hours":"0:00\u20136:0023:00\u201324:00"},{"day":"domingo","hours":"0:00\u20136:00"},{"day":"lunes","hours":"Cerrado"},{"day":"martes","hours":"Cerrado"},{"day":"mi\u00e9rcoles","hours":"Cerrado"},{"day":"jueves","hours":"Cerrado"}],"auxiliar(borrar)":"NOT_FOUND"},{"name":"Switch","category":"Bar","city":"NO_CITY","address":"Carrer de Francisco Giner, 24, Gr\u00e0cia, 08012 Barcelona","website":"instagram.com","email":"NO_EMAIL","phone":"NO_PHONE","reviews_rating":4.3,"num_reviews":297,"description":"NOT_FOUND","schedule":[{"day":"viernes","hours":"22:00\u20133:00"},{"day":"s\u00e1bado","hours":"22:00\u20133:00"},{"day":"domingo","hours":"Cerrado"},{"day":"lunes","hours":"Cerrado"},{"day":"martes","hours":"Cerrado"},{"day":"mi\u00e9rcoles","hours":"22:00\u20132:30"},{"day":"jueves","hours":"22:00\u20132:30"}],"auxiliar(borrar)":"NOT_FOUND"},{"name":"MutiClub","category":"Cocteler\u00eda","city":"Barcelona","address":"Carrer de C\u00f2rsega, 318, L'Eixample, 08037 Barcelona","website":"instagram.com","email":"NO_EMAIL","phone":"933885866","reviews_rating":4.4,"num_reviews":292,"description":"NOT_FOUND","schedule":[{"day":"viernes","hours":"18:00\u20133:00"},{"day":"s\u00e1bado","hours":"18:00\u20133:00"},{"day":"domingo","hours":"18:00\u20131:30"},{"day":"lunes","hours":"20:00\u20131:30"},{"day":"martes","hours":"19:00\u20132:00"},{"day":"mi\u00e9rcoles","hours":"19:00\u20132:00"},{"day":"jueves","hours":"18:00\u20132:30"}],"auxiliar(borrar)":"NOT_FOUND"},{"name":"Contraste","category":"Karaoke","city":"NO_CITY","address":"C\/ de Muntaner, 130, L'Eixample, 08036 Barcelona","website":"NO_WEBSITE","email":null,"phone":"NO_PHONE","reviews_rating":2.9,"num_reviews":291,"description":"C\u00f3cteles, refrescos y combinados en un bar de copas con karaoke, disponible para fiestas y eventos privados.","schedule":[{"day":"viernes","hours":"22:00\u20134:00"},{"day":"s\u00e1bado","hours":"22:00\u20134:00"},{"day":"domingo","hours":"Cerrado"},{"day":"lunes","hours":"Cerrado"},{"day":"martes","hours":"Cerrado"},{"day":"mi\u00e9rcoles","hours":"Cerrado"},{"day":"jueves","hours":"Cerrado"}],"auxiliar(borrar)":"NOT_FOUND"},{"name":"Blue Space Arag\u00f3","category":"Bar musical","city":"Barcelona","address":"Carrer d'Arag\u00f3, 595, Sant Mart\u00ed, 08026 Barcelona","website":"facebook.com","email":"NO_EMAIL","phone":"605153636","reviews_rating":3.9,"num_reviews":280,"description":"Bar animado, con DJ, narguiles y c\u00f3cteles cl\u00e1sicos, donde se pueden pedir botellas enteras.","schedule":[{"day":"viernes","hours":"21:00\u20133:30"},{"day":"s\u00e1bado","hours":"21:00\u20133:30"},{"day":"domingo","hours":"21:00\u20133:00"},{"day":"lunes","hours":"21:00\u20133:00"},{"day":"martes","hours":"21:00\u20133:00"},{"day":"mi\u00e9rcoles","hours":"21:00\u20133:00"},{"day":"jueves","hours":"21:00\u20133:00"}],"auxiliar(borrar)":"NOT_FOUND"},{"name":"Coyotes Disco Pub Barcelona","category":"Discoteca","city":"Barcelona","address":"Carrer del Tenor Masini, 65, Sants-Montju\u00efc, 08028 Barcelona","website":"coyotes.eatbu.com","email":"NO_EMAIL","phone":"622045829","reviews_rating":4.0,"num_reviews":275,"description":"NOT_FOUND","schedule":[{"day":"viernes","hours":"0:00\u20136:00"},{"day":"s\u00e1bado","hours":"0:00\u20136:00"},{"day":"domingo","hours":"0:00\u20136:00"},{"day":"lunes","hours":"Cerrado"},{"day":"martes","hours":"Cerrado"},{"day":"mi\u00e9rcoles","hours":"Cerrado"},{"day":"jueves","hours":"Cerrado"}],"auxiliar(borrar)":"Reclamar esta empresa"},{"name":"Atlantic Club Barcelona","category":"Recinto para eventos","city":"Barcelona","address":"Av. del Tibidabo, 56, Sarri\u00e0-Sant Gervasi, 08035 Barcelona","website":"atlanticbarcelona.com","email":"NO_EMAIL","phone":"675273071","reviews_rating":3.9,"num_reviews":275,"description":"M\u00fasica comercial en una amplia discoteca de estilo modernista con terraza ajardinada y vistas a Barcelona.","schedule":[{"day":"viernes","hours":"Cerrado"},{"day":"s\u00e1bado","hours":"12:00\u201318:00"},{"day":"domingo","hours":"12:00\u201318:00"},{"day":"lunes","hours":"Cerrado"},{"day":"martes","hours":"Cerrado"},{"day":"mi\u00e9rcoles","hours":"Cerrado"},{"day":"jueves","hours":"Cerrado"}],"auxiliar(borrar)":"Reclamar esta empresa"},{"name":"Casablanca Hospitalet","category":"Bar musical","city":"NO_CITY","address":"Carrer de Rod\u00e9s, 32, 34, 08901 L'HOSPITALET, Barcelona","website":"NO_WEBSITE","email":null,"phone":"NO_PHONE","reviews_rating":4.1,"num_reviews":272,"description":"NOT_FOUND","schedule":[{"day":"lunes","hours":"Cerrado"},{"day":"martes","hours":"Cerrado"},{"day":"mi\u00e9rcoles","hours":"Cerrado"},{"day":"jueves","hours":"Cerrado"},{"day":"viernes","hours":"19:00\u20133:30"},{"day":"s\u00e1bado","hours":"19:00\u20133:30"},{"day":"domingo","hours":"Cerrado"}],"auxiliar(borrar)":"NOT_FOUND"},{"name":"Topxi music","category":"Club musical","city":"Barcelona","address":"Carrer de Val\u00e8ncia, 358, L'Eixample, 08029 Barcelona","website":"topximusic.com","email":"NO_EMAIL","phone":"NO_PHONE","reviews_rating":3.7,"num_reviews":272,"description":"NOT_FOUND","schedule":[{"day":"viernes","hours":"0:30\u20135:00"},{"day":"s\u00e1bado","hours":"0:30\u20136:00"},{"day":"domingo","hours":"0:30\u20136:00"},{"day":"lunes","hours":"0:30\u20135:00"},{"day":"martes","hours":"0:30\u20135:00"},{"day":"mi\u00e9rcoles","hours":"0:30\u20135:00"},{"day":"jueves","hours":"0:30\u20135:00"}],"auxiliar(borrar)":"NOT_FOUND"},{"name":"Bodega Juan Carlos","category":"Bar","city":"NO_CITY","address":"Carrer de Castelao, 28, 08902 L'Hospitalet de Llobregat, Barcelona","website":"NO_WEBSITE","email":null,"phone":"NO_PHONE","reviews_rating":4.5,"num_reviews":260,"description":"NOT_FOUND","schedule":[{"day":"lunes","hours":"7:30\u201320:30"},{"day":"martes","hours":"7:30\u201320:30"},{"day":"mi\u00e9rcoles","hours":"7:30\u201320:30"},{"day":"jueves","hours":"7:30\u201320:30"},{"day":"viernes","hours":"7:30\u201320:30"},{"day":"s\u00e1bado","hours":"9:00\u201315:00"},{"day":"domingo","hours":"9:00\u201315:00"}],"auxiliar(borrar)":"NOT_FOUND"},{"name":"RED58","category":"Club nocturno","city":"NO_CITY","address":"Carrer del Consell de Cent, 280, L'Eixample, 08007 Barcelona","website":"red58.club","email":"NO_EMAIL","phone":"NO_PHONE","reviews_rating":4.2,"num_reviews":224,"description":"NOT_FOUND","schedule":[{"day":"viernes","hours":"23:59\u201324:00"},{"day":"s\u00e1bado","hours":"0:00\u20136:0023:59\u201324:00"},{"day":"domingo","hours":"0:00\u20136:00"},{"day":"lunes","hours":"Cerrado"},{"day":"martes","hours":"Cerrado"},{"day":"mi\u00e9rcoles","hours":"Cerrado"},{"day":"jueves","hours":"Cerrado"}],"auxiliar(borrar)":"NOT_FOUND"},{"name":"Garage 442","category":"Bar musical","city":"Barcelona","address":"Av. Diagonal, 442, L'Eixample, 08037 Barcelona","website":"garage442.com","email":"NO_EMAIL","phone":"934152231","reviews_rating":4.3,"num_reviews":222,"description":"NOT_FOUND","schedule":[{"day":"viernes","hours":"22:30\u20133:00"},{"day":"s\u00e1bado","hours":"22:30\u20133:00"},{"day":"domingo","hours":"Cerrado"},{"day":"lunes","hours":"Cerrado"},{"day":"martes","hours":"Cerrado"},{"day":"mi\u00e9rcoles","hours":"22:30\u20132:30"},{"day":"jueves","hours":"22:30\u20132:30"}],"auxiliar(borrar)":"Amigable con la comunidad LGTBI+"},{"name":"PULSA9","category":"Restaurante","city":"NO_CITY","address":"Pla\u00e7a de les Palmeres, 5, Sant Andreu, 08030 Barcelona","website":"NO_WEBSITE","email":null,"phone":"NO_PHONE","reviews_rating":4.1,"num_reviews":214,"description":"NOT_FOUND","schedule":"NOT_FOUND","auxiliar(borrar)":"NOT_FOUND"},{"name":"Disco Bar Mami","category":"Discoteca","city":"Barcelona","address":"Carrer de Sants, 443, Sants-Montju\u00efc, 08028 Barcelona","website":"m.facebook.com","email":"NO_EMAIL","phone":"671296949","reviews_rating":3.1,"num_reviews":211,"description":"NOT_FOUND","schedule":[{"day":"viernes","hours":"22:30\u201324:00"},{"day":"s\u00e1bado","hours":"0:00\u20136:0022:30\u201324:00"},{"day":"domingo","hours":"0:00\u20136:0022:30\u201324:00"},{"day":"lunes","hours":"0:00\u20135:0022:30\u201324:00"},{"day":"martes","hours":"0:00\u20135:0022:00\u201324:00"},{"day":"mi\u00e9rcoles","hours":"0:00\u20135:0022:30\u201324:00"},{"day":"jueves","hours":"0:00\u20135:00"}],"auxiliar(borrar)":"Reservar una mesa"},{"name":"G Y PUNTO","category":"Bar musical","city":"Sant Andreu de la Barca","address":"El Palau, Av. Constituci\u00f3, 111, 08740 Sant Andreu de la Barca, Barcelona","website":"facebook.com","email":"NO_EMAIL","phone":"655237461","reviews_rating":3.8,"num_reviews":206,"description":"NOT_FOUND","schedule":[{"day":"viernes","hours":"22:00\u20133:30"},{"day":"s\u00e1bado","hours":"22:00\u20133:30"},{"day":"domingo","hours":"22:00\u20133:00"},{"day":"lunes","hours":"Cerrado"},{"day":"martes","hours":"22:00\u20133:00"},{"day":"mi\u00e9rcoles","hours":"22:00\u20133:00"},{"day":"jueves","hours":"22:00\u20133:00"}],"auxiliar(borrar)":"Amigable con la comunidad LGTBI+"},{"name":"Enigma Music Bar","category":"Club nocturno","city":"NO_CITY","address":"Carrer del Taqu\u00edgraf Garriga, 106, Les Corts, 08029 Barcelona","website":"NO_WEBSITE","email":null,"phone":"NO_PHONE","reviews_rating":4.1,"num_reviews":206,"description":"Bar de moda que ofrece c\u00f3cteles, cachimbas y pista de baile en un local acogedor.","schedule":[{"day":"viernes","hours":"23:00\u20133:30"},{"day":"s\u00e1bado","hours":"23:00\u20133:30"},{"day":"domingo","hours":"Cerrado"},{"day":"lunes","hours":"Cerrado"},{"day":"martes","hours":"Cerrado"},{"day":"mi\u00e9rcoles","hours":"Cerrado"},{"day":"jueves","hours":"23:00\u20132:30"}],"auxiliar(borrar)":"NOT_FOUND"},{"name":"Ocean Barcelona","category":"Discoteca","city":"Barcelona","address":"Carrer de Balmes, 32, L'Eixample, 08007 Barcelona","website":"oceanbcn.com","email":"contact@mysite.com","phone":"937155661","reviews_rating":3.7,"num_reviews":205,"description":"NOT_FOUND","schedule":[{"day":"viernes","hours":"23:59\u201324:00"},{"day":"s\u00e1bado","hours":"0:00\u20136:0023:59\u201324:00"},{"day":"domingo","hours":"0:00\u20136:00"},{"day":"lunes","hours":"Cerrado"},{"day":"martes","hours":"22:30\u201324:00"},{"day":"mi\u00e9rcoles","hours":"0:00\u20133:45"},{"day":"jueves","hours":"Cerrado"}],"auxiliar(borrar)":"NOT_FOUND"},{"name":"Bar Bombo Maracana","category":"Bar","city":"NO_CITY","address":"Pla\u00e7a de Moss\u00e8n Clap\u00e9s, 23, Sant Andreu, 08030 Barcelona","website":"NO_WEBSITE","email":null,"phone":"NO_PHONE","reviews_rating":3.6,"num_reviews":202,"description":"NOT_FOUND","schedule":[{"day":"viernes","hours":"6:00\u201324:00"},{"day":"s\u00e1bado","hours":"6:00\u201324:00"},{"day":"domingo","hours":"6:00\u201324:00"},{"day":"lunes","hours":"6:00\u201324:00"},{"day":"martes","hours":"6:00\u201324:00"},{"day":"mi\u00e9rcoles","hours":"6:00\u201324:00"},{"day":"jueves","hours":"6:00\u201324:00"}],"auxiliar(borrar)":"NOT_FOUND"},{"name":"Bar Musical Luna","category":"Pub","city":"L'Hospitalet de Llobregat","address":"NOT_FOUND","website":"Av. de Josep Tarradellas i Joan, 197, 08901 L'Hospitalet de Llobregat, Barcelona","email":"NO_EMAIL","phone":"615348505","reviews_rating":3.8,"num_reviews":199,"description":"NOT_FOUND","schedule":[{"day":"lunes","hours":"Cerrado"},{"day":"martes","hours":"18:00\u20133:00"},{"day":"mi\u00e9rcoles","hours":"18:00\u20133:00"},{"day":"jueves","hours":"18:00\u20133:00"},{"day":"viernes","hours":"18:00\u20133:00"},{"day":"s\u00e1bado","hours":"18:00\u20133:00"},{"day":"domingo","hours":"18:00\u20133:00"}],"auxiliar(borrar)":"NOT_FOUND"},{"name":"Undead Dark Club","category":"Discoteca","city":"NO_CITY","address":"Carrer Violant d'Hongria, 128, Distrito de Sants-Montju\u00efc, 08028 Barcelona","website":"undeadarkclub.com","email":"NO_EMAIL","phone":"NO_PHONE","reviews_rating":4.3,"num_reviews":199,"description":"Oscuro local decorado con estatuas y armaduras especializado en m\u00fasica gothic rock o post punk.","schedule":[{"day":"viernes","hours":"0:30\u20135:00"},{"day":"s\u00e1bado","hours":"0:30\u20136:00"},{"day":"domingo","hours":"Cerrado"},{"day":"lunes","hours":"Cerrado"},{"day":"martes","hours":"Cerrado"},{"day":"mi\u00e9rcoles","hours":"Cerrado"},{"day":"jueves","hours":"Cerrado"}],"auxiliar(borrar)":"NOT_FOUND"},{"name":"Bar Un Castillo","category":"Bar","city":"NO_CITY","address":"Carrer de Bu\u00efgas, 2, Sarri\u00e0-Sant Gervasi, 08017 Barcelona","website":"NO_WEBSITE","email":null,"phone":"NO_PHONE","reviews_rating":4.3,"num_reviews":165,"description":"NOT_FOUND","schedule":[{"day":"viernes","hours":"7:00\u201321:00"},{"day":"s\u00e1bado","hours":"7:00\u201312:00"},{"day":"domingo","hours":"Cerrado"},{"day":"lunes","hours":"7:00\u201321:00"},{"day":"martes","hours":"7:00\u201321:00"},{"day":"mi\u00e9rcoles","hours":"7:00\u201321:00"},{"day":"jueves","hours":"7:00\u201321:00"}],"auxiliar(borrar)":"NOT_FOUND"},{"name":"56 Lounge Bar","category":"Lounge","city":"NO_CITY","address":"Carrer de la Marina, 56, Sant Mart\u00ed, 08005 Barcelona","website":"NO_WEBSITE","email":null,"phone":"NO_PHONE","reviews_rating":4.0,"num_reviews":149,"description":"NOT_FOUND","schedule":[{"day":"viernes","hours":"16:00\u20133:00"},{"day":"s\u00e1bado","hours":"16:00\u20133:00"},{"day":"domingo","hours":"16:00\u20133:00"},{"day":"lunes","hours":"17:00\u20132:30"},{"day":"martes","hours":"17:00\u20132:30"},{"day":"mi\u00e9rcoles","hours":"17:00\u20132:30"},{"day":"jueves","hours":"17:00\u20132:30"}],"auxiliar(borrar)":"NOT_FOUND"},{"name":"Chica Club Barcelona","category":"Discoteca","city":"Barcelona","address":"Carrer del Rossell\u00f3, 217, Eixample, 08008 Barcelona","website":"chicabcn.cat","email":"NO_EMAIL","phone":"699232543","reviews_rating":3.0,"num_reviews":144,"description":"NOT_FOUND","schedule":[{"day":"viernes","hours":"22:00\u20135:00"},{"day":"s\u00e1bado","hours":"22:00\u20135:00"},{"day":"domingo","hours":"22:00\u20135:00"},{"day":"lunes","hours":"Cerrado"},{"day":"martes","hours":"Cerrado"},{"day":"mi\u00e9rcoles","hours":"22:00\u20135:00"},{"day":"jueves","hours":"22:00\u20135:00"}],"auxiliar(borrar)":"NOT_FOUND"},{"name":"Bar Abanico","category":"Pub","city":"Barcelona","address":"Carrer del Camp, 3, Sarri\u00e0-Sant Gervasi, 08021 Barcelona","website":"abanico-barcelona.com","email":"info@abanico-barcelona.com","phone":"650291010","reviews_rating":4.4,"num_reviews":138,"description":"NOT_FOUND","schedule":[{"day":"viernes","hours":"23:00\u20133:00"},{"day":"s\u00e1bado","hours":"23:00\u20133:00"},{"day":"domingo","hours":"Cerrado"},{"day":"lunes","hours":"Cerrado"},{"day":"martes","hours":"Cerrado"},{"day":"mi\u00e9rcoles","hours":"Cerrado"},{"day":"jueves","hours":"Cerrado"}],"auxiliar(borrar)":"NOT_FOUND"},{"name":"Sala River","category":"Bar con m\u00fasica en directo","city":"NO_CITY","address":"Carrer Santa Anna, 14, 08901 L'Hospitalet de Llobregat, Barcelona","website":"NO_WEBSITE","email":null,"phone":"NO_PHONE","reviews_rating":4.6,"num_reviews":136,"description":"NOT_FOUND","schedule":[{"day":"lunes","hours":"Cerrado"},{"day":"martes","hours":"Cerrado"},{"day":"mi\u00e9rcoles","hours":"Cerrado"},{"day":"jueves","hours":"20:00\u20131:00"},{"day":"viernes","hours":"23:00\u20133:00"},{"day":"s\u00e1bado","hours":"19:30\u20133:00"},{"day":"domingo","hours":"Cerrado"}],"auxiliar(borrar)":"NOT_FOUND"},{"name":"Albaic\u00edn","category":"Bar","city":"NO_CITY","address":"Carrer de Josep Pla, 6, 08901 L'Hospitalet de Llobregat, Barcelona","website":"NO_WEBSITE","email":null,"phone":"NO_PHONE","reviews_rating":4.3,"num_reviews":136,"description":"NOT_FOUND","schedule":[{"day":"lunes","hours":"6:15\u201323:00"},{"day":"martes","hours":"6:15\u201323:00"},{"day":"mi\u00e9rcoles","hours":"6:15\u201323:00"},{"day":"jueves","hours":"6:15\u201323:00"},{"day":"viernes","hours":"6:15\u201323:00"},{"day":"s\u00e1bado","hours":"7:30\u201323:00"},{"day":"domingo","hours":"Cerrado"}],"auxiliar(borrar)":"NOT_FOUND"},{"name":"Bar Enka 3","category":"Lounge","city":"NO_CITY","address":"Carrer de Sants, 384, Les Corts, 08028 Barcelona","website":"NO_WEBSITE","email":null,"phone":"NO_PHONE","reviews_rating":3.5,"num_reviews":132,"description":"NOT_FOUND","schedule":[{"day":"viernes","hours":"8:00\u201324:00"},{"day":"s\u00e1bado","hours":"8:00\u20131:00"},{"day":"domingo","hours":"9:00\u20131:00"},{"day":"lunes","hours":"8:00\u201324:00"},{"day":"martes","hours":"8:00\u201324:00"},{"day":"mi\u00e9rcoles","hours":"8:00\u201324:00"},{"day":"jueves","hours":"8:00\u201324:00"}],"auxiliar(borrar)":"NOT_FOUND"},{"name":"El Cangrejo Eixample","category":"Bar gay","city":"NO_CITY","address":"Carrer de Villarroel, 88, L'Eixample, 08011 Barcelona","website":"NO_WEBSITE","email":null,"phone":"NO_PHONE","reviews_rating":3.9,"num_reviews":130,"description":"NOT_FOUND","schedule":[{"day":"viernes","hours":"22:45\u20133:00"},{"day":"s\u00e1bado","hours":"22:45\u20133:00"},{"day":"domingo","hours":"Cerrado"},{"day":"lunes","hours":"Cerrado"},{"day":"martes","hours":"Cerrado"},{"day":"mi\u00e9rcoles","hours":"Cerrado"},{"day":"jueves","hours":"Cerrado"}],"auxiliar(borrar)":"NOT_FOUND"},{"name":"Lennon's Club","category":"Discoteca","city":"NO_CITY","address":"Av. Fabregada, 91, 08901 L'Hospitalet de Llobregat, Barcelona","website":"lennonsclub.com","email":"NO_EMAIL","phone":"NO_PHONE","reviews_rating":3.8,"num_reviews":118,"description":"NOT_FOUND","schedule":[{"day":"lunes","hours":"Cerrado"},{"day":"martes","hours":"Cerrado"},{"day":"mi\u00e9rcoles","hours":"Cerrado"},{"day":"jueves","hours":"Cerrado"},{"day":"viernes","hours":"21:00\u201324:00"},{"day":"s\u00e1bado","hours":"0:00\u20136:0021:00\u201324:00"},{"day":"domingo","hours":"0:00\u20136:00"}],"auxiliar(borrar)":"NOT_FOUND"},{"name":"LaKontra de Gr\u00e0cia","category":"Bar musical","city":"Barcelona","address":"Pla\u00e7a del Sol, 3, Local 1, Gr\u00e0cia, 08012 Barcelona","website":"lakontra.org","email":"lakontradegracia@gmail.com","phone":"NO_PHONE","reviews_rating":3.9,"num_reviews":113,"description":"NOT_FOUND","schedule":[{"day":"viernes","hours":"12:00\u20133:00"},{"day":"s\u00e1bado","hours":"12:00\u20133:00"},{"day":"domingo","hours":"12:00\u201319:00"},{"day":"lunes","hours":"Cerrado"},{"day":"martes","hours":"Cerrado"},{"day":"mi\u00e9rcoles","hours":"18:30\u20131:00"},{"day":"jueves","hours":"18:30\u20132:30"}],"auxiliar(borrar)":"Amigable con la comunidad LGTBI+"},{"name":"X.O. Lounge Bar","category":"Bar con narguiles","city":"Barcelona","address":"Carrer de Proven\u00e7a, 93, L'Eixample, 08029 Barcelona","website":"linktr.ee","email":"NO_EMAIL","phone":"670684062","reviews_rating":4.9,"num_reviews":108,"description":"NOT_FOUND","schedule":[{"day":"viernes","hours":"18:00\u20132:00"},{"day":"s\u00e1bado","hours":"18:00\u20132:00"},{"day":"domingo","hours":"18:00\u20131:00"},{"day":"lunes","hours":"Cerrado"},{"day":"martes","hours":"Cerrado"},{"day":"mi\u00e9rcoles","hours":"Cerrado"},{"day":"jueves","hours":"18:00\u20131:00"}],"auxiliar(borrar)":"Men\u00fa"},{"name":"Manolo's Bar","category":"Bar","city":"NO_CITY","address":"Carrer de Garcilaso, 161, Sant Andreu, 08027 Barcelona","website":"NO_WEBSITE","email":null,"phone":"NO_PHONE","reviews_rating":4.5,"num_reviews":104,"description":"NOT_FOUND","schedule":[{"day":"viernes","hours":"8:00\u201323:00"},{"day":"s\u00e1bado","hours":"8:00\u201323:00"},{"day":"domingo","hours":"8:00\u201323:00"},{"day":"lunes","hours":"8:00\u201323:00"},{"day":"martes","hours":"8:00\u201323:00"},{"day":"mi\u00e9rcoles","hours":"8:00\u201323:00"},{"day":"jueves","hours":"8:00\u201323:00"}],"auxiliar(borrar)":"NOT_FOUND"},{"name":"Leounge Karaoke Bar","category":"Karaoke","city":"NO_CITY","address":"Carrer del Francol\u00ed, 68, Sarri\u00e0-Sant Gervasi, 08006 Barcelona","website":"NO_WEBSITE","email":null,"phone":"NO_PHONE","reviews_rating":4.3,"num_reviews":102,"description":"Espejos y sof\u00e1s de estilo barroco y toques en rojo crean ambiente en este bar musical apto para eventos.","schedule":[{"day":"viernes","hours":"18:00\u20132:30"},{"day":"s\u00e1bado","hours":"12:00\u20132:30"},{"day":"domingo","hours":"12:30\u201324:00"},{"day":"lunes","hours":"Cerrado"},{"day":"martes","hours":"Cerrado"},{"day":"mi\u00e9rcoles","hours":"Cerrado"},{"day":"jueves","hours":"18:00\u201323:30"}],"auxiliar(borrar)":"NOT_FOUND"},{"name":"Telephone nightbar","category":"Club nocturno","city":"Barcelona","address":"Carrer d'Aribau, 87, L'Eixample, 08036 Barcelona","website":"instagram.com","email":"NO_EMAIL","phone":"NO_PHONE","reviews_rating":4.7,"num_reviews":92,"description":"NOT_FOUND","schedule":[{"day":"viernes","hours":"20:00\u20133:30"},{"day":"s\u00e1bado","hours":"20:00\u20133:30"},{"day":"domingo","hours":"Cerrado"},{"day":"lunes","hours":"Cerrado"},{"day":"martes","hours":"20:00\u20134:00"},{"day":"mi\u00e9rcoles","hours":"20:00\u20132:30"},{"day":"jueves","hours":"20:00\u20132:30"}],"auxiliar(borrar)":"NOT_FOUND"},{"name":"bar don restaurante","category":"Bar","city":"Barcelona","address":"Passeig de Torras i Bages, 45, Sant Andreu, 08030 Barcelona","website":"NO_WEBSITE","email":null,"phone":"640303724","reviews_rating":3.9,"num_reviews":90,"description":"NOT_FOUND","schedule":[{"day":"viernes","hours":"7:00\u201322:00"},{"day":"s\u00e1bado","hours":"7:00\u201322:00"},{"day":"domingo","hours":"7:00\u201322:00"},{"day":"lunes","hours":"7:00\u201322:00"},{"day":"martes","hours":"7:00\u201322:00"},{"day":"mi\u00e9rcoles","hours":"7:00\u201322:00"},{"day":"jueves","hours":"7:00\u201322:00"}],"auxiliar(borrar)":"Reclamar esta empresa"},{"name":"Felina Barcelona Escorts","category":"Club de entretenimiento para adultos","city":"Barcelona","address":"Carrer de Can Bruixa, 42b, Les Corts, 08014 Barcelona","website":"felinabcn.com","email":"info@felinabcn.com","phone":"630333111","reviews_rating":4.2,"num_reviews":83,"description":"NOT_FOUND","schedule":[{"day":"viernes","hours":"Abierto 24 horas"},{"day":"s\u00e1bado","hours":"Abierto 24 horas"},{"day":"domingo","hours":"Abierto 24 horas"},{"day":"lunes","hours":"Abierto 24 horas"},{"day":"martes","hours":"Abierto 24 horas"},{"day":"mi\u00e9rcoles","hours":"Abierto 24 horas"},{"day":"jueves","hours":"Abierto 24 horas"}],"auxiliar(borrar)":"Amigable con la comunidad LGTBI+"},{"name":"El Bosque Salvaje y Mutante - Escape Room y Cumplea\u00f1os para Ni\u00f1os","category":"Centro de ocio infantil","city":"Barcelona","address":"Passatge de Nogu\u00e9s, 19, Local, Gracia, 08025 Barcelona","website":"elbosquemutante.com","email":"elbosquemutante@gmail.com","phone":"640805385","reviews_rating":4.7,"num_reviews":79,"description":"NOT_FOUND","schedule":[{"day":"viernes","hours":"10:00\u201322:00"},{"day":"s\u00e1bado","hours":"10:00\u201322:00"},{"day":"domingo","hours":"10:00\u201322:00"},{"day":"lunes","hours":"10:00\u201322:00"},{"day":"martes","hours":"10:00\u201322:00"},{"day":"mi\u00e9rcoles","hours":"10:00\u201322:00"},{"day":"jueves","hours":"10:00\u201322:00"}],"auxiliar(borrar)":"NOT_FOUND"},{"name":"El Monumento Bar","category":"Lounge","city":"NO_CITY","address":"Carrer del Farell, 25, Sants-Montju\u00efc, 08014 Barcelona","website":"NO_WEBSITE","email":null,"phone":"NO_PHONE","reviews_rating":3.8,"num_reviews":76,"description":"NOT_FOUND","schedule":[{"day":"viernes","hours":"18:00\u20133:00"},{"day":"s\u00e1bado","hours":"18:00\u20133:00"},{"day":"domingo","hours":"18:00\u20132:30"},{"day":"lunes","hours":"18:00\u20132:30"},{"day":"martes","hours":"18:00\u20132:30"},{"day":"mi\u00e9rcoles","hours":"18:00\u20132:30"},{"day":"jueves","hours":"18:00\u20132:30"}],"auxiliar(borrar)":"NOT_FOUND"},{"name":"WOODY","category":"Bar","city":"Barcelona","address":"Pla\u00e7a del Sol, 7, Gr\u00e0cia, 08012 Barcelona","website":"facebook.com","email":"NO_EMAIL","phone":"625597645","reviews_rating":3.1,"num_reviews":74,"description":"M\u00fasica jazz y c\u00f3cteles en bar de copas revestido en madera con carteles de cine que sirve tambi\u00e9n tapas.","schedule":[{"day":"viernes","hours":"18:00\u20133:00"},{"day":"s\u00e1bado","hours":"18:00\u20133:00"},{"day":"domingo","hours":"18:00\u20131:00"},{"day":"lunes","hours":"18:00\u20131:00"},{"day":"martes","hours":"18:00\u20131:00"},{"day":"mi\u00e9rcoles","hours":"18:00\u20131:00"},{"day":"jueves","hours":"18:00\u20131:00"}],"auxiliar(borrar)":"Reclamar esta empresa"},{"name":"Shisha Lounge Dejavu - Shisha Hospitalet del Llobregat","category":"Lounge","city":"NO_CITY","address":"Carrer de Pere Pelegr\u00ed, 32, 08906 Esplugues de Llobregat, Barcelona","website":"NO_WEBSITE","email":null,"phone":"NO_PHONE","reviews_rating":4.5,"num_reviews":74,"description":"NOT_FOUND","schedule":[{"day":"lunes","hours":"20:00\u20132:30"},{"day":"martes","hours":"Cerrado"},{"day":"mi\u00e9rcoles","hours":"20:00\u20132:30"},{"day":"jueves","hours":"20:00\u20132:30"},{"day":"viernes","hours":"20:00\u20133:00"},{"day":"s\u00e1bado","hours":"20:00\u20133:00"},{"day":"domingo","hours":"20:00\u20133:00"}],"auxiliar(borrar)":"NOT_FOUND"},{"name":"Nick Havanna","category":"Discoteca","city":"Barcelona","address":"Carrer del Rossell\u00f3, Eixample, 08008 Barcelona","website":"m.facebook.com","email":"NO_EMAIL","phone":"658303704","reviews_rating":3.9,"num_reviews":72,"description":"NOT_FOUND","schedule":[{"day":"viernes","hours":"Cerrado"},{"day":"s\u00e1bado","hours":"Cerrado"},{"day":"domingo","hours":"6:00\u201323:00"},{"day":"lunes","hours":"Cerrado"},{"day":"martes","hours":"Cerrado"},{"day":"mi\u00e9rcoles","hours":"Cerrado"},{"day":"jueves","hours":"19:30\u201323:30"}],"auxiliar(borrar)":"Reclamar esta empresa"},{"name":"Shisha Hookha Barcelona Marrakech","category":"Lounge","city":"NO_CITY","address":"Carrer de B\u00e9jar, 66, Sants-Montju\u00efc, 08014 Barcelona","website":"wa.link","email":"NO_EMAIL","phone":"653717818","reviews_rating":4.9,"num_reviews":70,"description":"NOT_FOUND","schedule":[{"day":"viernes","hours":"14:30\u20132:30"},{"day":"s\u00e1bado","hours":"14:30\u20132:30"},{"day":"domingo","hours":"14:30\u201324:00"},{"day":"lunes","hours":"14:30\u201324:00"},{"day":"martes","hours":"14:30\u201324:00"},{"day":"mi\u00e9rcoles","hours":"14:30\u201324:00"},{"day":"jueves","hours":"14:30\u201324:00"}],"auxiliar(borrar)":"Men\u00fa"},{"name":"Wanasah Barcelona","category":"Discoteca","city":"Barcelona","address":"Men\u00fa","website":"Av. de Sarri\u00e0, 44, Les Corts, 08029 Barcelona","email":"NO_EMAIL","phone":"666317753","reviews_rating":3.6,"num_reviews":67,"description":"NOT_FOUND","schedule":[{"day":"viernes","hours":"0:00\u20135:0023:00\u201324:00"},{"day":"s\u00e1bado","hours":"0:00\u20136:0023:00\u201324:00"},{"day":"domingo","hours":"0:00\u20136:0023:00\u201324:00"},{"day":"lunes","hours":"0:00\u20135:0023:00\u201324:00"},{"day":"martes","hours":"0:00\u20135:0023:00\u201324:00"},{"day":"mi\u00e9rcoles","hours":"0:00\u20135:0023:00\u201324:00"},{"day":"jueves","hours":"0:00\u20135:0023:00\u201324:00"}],"auxiliar(borrar)":"instagram.com"},{"name":"YASS! Barcelona | LGTBIQ+ Gay Party","category":"Discoteca","city":"Barcelona","address":"Carrer de Tarragona, 141, Sants-Montju\u00efc, 08014 Barcelona","website":"yassparty.com","email":"NO_EMAIL","phone":"934878342","reviews_rating":3.7,"num_reviews":65,"description":"NOT_FOUND","schedule":[{"day":"viernes","hours":"Cerrado"},{"day":"s\u00e1bado","hours":"23:45\u201324:00"},{"day":"domingo","hours":"0:00\u20136:00"},{"day":"lunes","hours":"Cerrado"},{"day":"martes","hours":"Cerrado"},{"day":"mi\u00e9rcoles","hours":"Cerrado"},{"day":"jueves","hours":"Cerrado"}],"auxiliar(borrar)":"Amigable con la comunidad LGTBI+"},{"name":"Los Panda Lounge","category":"Lounge","city":"Barcelona","address":"Carrer de la Independ\u00e8ncia, 326, Sant Mart\u00ed, 08026 Barcelona","website":"facebook.com","email":"NO_EMAIL","phone":"634244970","reviews_rating":4.8,"num_reviews":60,"description":"NOT_FOUND","schedule":[{"day":"viernes","hours":"11:00\u201314:0016:00\u201322:00"},{"day":"s\u00e1bado","hours":"16:00\u201322:00"},{"day":"domingo","hours":"16:00\u201322:00"},{"day":"lunes","hours":"11:00\u201314:0016:00\u201322:00"},{"day":"martes","hours":"11:00\u201314:0016:00\u201322:00"},{"day":"mi\u00e9rcoles","hours":"11:00\u201314:0016:00\u201322:00"},{"day":"jueves","hours":"11:00\u201314:0016:00\u201322:00"}],"auxiliar(borrar)":"NOT_FOUND"},{"name":"Snoopy","category":"Lounge","city":"NO_CITY","address":"Carrer de Sant Jordi, 5, 08740 Sant Andreu de la Barca, Barcelona","website":"NO_WEBSITE","email":null,"phone":"NO_PHONE","reviews_rating":4.2,"num_reviews":60,"description":"NOT_FOUND","schedule":[{"day":"viernes","hours":"11:00\u201322:00"},{"day":"s\u00e1bado","hours":"11:00\u201322:00"},{"day":"domingo","hours":"11:00\u201322:00"},{"day":"lunes","hours":"11:00\u201322:00"},{"day":"martes","hours":"11:00\u201322:00"},{"day":"mi\u00e9rcoles","hours":"11:00\u201322:00"},{"day":"jueves","hours":"11:00\u201322:00"}],"auxiliar(borrar)":"NOT_FOUND"},{"name":"Bar Anubis","category":"Lounge","city":"L'Hospitalet de Llobregat","address":"Carrer de Rafael Campalans, 166, 08903 L'Hospitalet de Llobregat, Barcelona","website":"facebook.com","email":"NO_EMAIL","phone":"933325692","reviews_rating":3.9,"num_reviews":58,"description":"NOT_FOUND","schedule":[{"day":"lunes","hours":"8:00\u201322:00"},{"day":"martes","hours":"8:00\u201322:00"},{"day":"mi\u00e9rcoles","hours":"8:00\u201322:00"},{"day":"jueves","hours":"8:00\u201322:00"},{"day":"viernes","hours":"8:00\u201322:00"},{"day":"s\u00e1bado","hours":"8:00\u201322:00"},{"day":"domingo","hours":"8:00\u201322:00"}],"auxiliar(borrar)":"NOT_FOUND"},{"name":"Maison Close Barcelona","category":"Club de entretenimiento para adultos","city":"Barcelona","address":"Pg. de Gr\u00e0cia, 123, bajos, Gracia, 08008 Barcelona","website":"maisonclose.com","email":"reservas@maisonclose.com","phone":"626242275","reviews_rating":4.3,"num_reviews":57,"description":"NOT_FOUND","schedule":"NOT_FOUND","auxiliar(borrar)":"Amigable con la comunidad LGTBI+"},{"name":"The Black Room","category":"Club nocturno","city":"Barcelona","address":"Rambla de Catalunya, 4, Eixample, 08007 Barcelona","website":"facebook.com","email":"NO_EMAIL","phone":"NO_PHONE","reviews_rating":3.4,"num_reviews":55,"description":"NOT_FOUND","schedule":[{"day":"viernes","hours":"9:00\u201317:00"},{"day":"s\u00e1bado","hours":"9:00\u201317:00"},{"day":"domingo","hours":"9:00\u201317:00"},{"day":"lunes","hours":"9:00\u201317:00"},{"day":"martes","hours":"9:00\u201317:00"},{"day":"mi\u00e9rcoles","hours":"9:00\u201317:00"},{"day":"jueves","hours":"9:00\u201317:00"}],"auxiliar(borrar)":"NOT_FOUND"},{"name":"Sala Imperator","category":"Discoteca","city":"NO_CITY","address":"Carrer de C\u00f2rsega, 327, Bajos, Gracia, 08037 Barcelona","website":"NO_WEBSITE","email":null,"phone":"NO_PHONE","reviews_rating":3.4,"num_reviews":47,"description":"NOT_FOUND","schedule":[{"day":"viernes","hours":"Cerrado"},{"day":"s\u00e1bado","hours":"18:30\u201322:00"},{"day":"domingo","hours":"18:30\u201324:00"},{"day":"lunes","hours":"Cerrado"},{"day":"martes","hours":"Cerrado"},{"day":"mi\u00e9rcoles","hours":"18:30\u201324:00"},{"day":"jueves","hours":"Cerrado"}],"auxiliar(borrar)":"NOT_FOUND"},{"name":"Bar Terraza","category":"Lounge","city":"NO_CITY","address":"Carrer del Mol\u00ed, 23, 08906 L'Hospitalet de Llobregat, Barcelona","website":"NO_WEBSITE","email":null,"phone":"NO_PHONE","reviews_rating":4.6,"num_reviews":47,"description":"NOT_FOUND","schedule":[{"day":"lunes","hours":"8:30\u201323:30"},{"day":"martes","hours":"8:30\u201323:30"},{"day":"mi\u00e9rcoles","hours":"8:30\u201323:30"},{"day":"jueves","hours":"Cerrado"},{"day":"viernes","hours":"8:30\u201323:30"},{"day":"s\u00e1bado","hours":"8:30\u201323:30"},{"day":"domingo","hours":"9:00\u201323:30"}],"auxiliar(borrar)":"NOT_FOUND"},{"name":"Sala B Barcelona","category":"Discoteca","city":"Barcelona","address":"C\/ de Muntaner, 244, Sarri\u00e0-Sant Gervasi, 08021 Barcelona","website":"luzdegas.com","email":"comunicacio@luzdegas.com","phone":"932097711","reviews_rating":2.7,"num_reviews":46,"description":"NOT_FOUND","schedule":[{"day":"viernes","hours":"0:00\u20135:0023:59\u201324:00"},{"day":"s\u00e1bado","hours":"0:00\u20136:0023:59\u201324:00"},{"day":"domingo","hours":"0:00\u20136:00"},{"day":"lunes","hours":"Cerrado"},{"day":"martes","hours":"Cerrado"},{"day":"mi\u00e9rcoles","hours":"Cerrado"},{"day":"jueves","hours":"23:00\u201324:00"}],"auxiliar(borrar)":"NOT_FOUND"},{"name":"Bar Restaurante la Caba\u00f1a Y Club Don Royal","category":"Club nocturno","city":"NO_CITY","address":"Carrer de B\u00e9jar, 51, Sants-Montju\u00efc, 08014 Barcelona","website":"NO_WEBSITE","email":null,"phone":"NO_PHONE","reviews_rating":3.9,"num_reviews":43,"description":"NOT_FOUND","schedule":"NOT_FOUND","auxiliar(borrar)":"NOT_FOUND"},{"name":"Bar Salvador","category":"Lounge","city":"NO_CITY","address":"Pla\u00e7a del Repartidor, 08901 Hospitalet de Llobregat (L'), Barcelona","website":"NO_WEBSITE","email":null,"phone":"NO_PHONE","reviews_rating":3.2,"num_reviews":40,"description":"NOT_FOUND","schedule":[{"day":"lunes","hours":"7:00\u201324:00"},{"day":"martes","hours":"7:00\u201324:00"},{"day":"mi\u00e9rcoles","hours":"7:00\u201324:00"},{"day":"jueves","hours":"7:00\u201324:00"},{"day":"viernes","hours":"7:00\u201324:00"},{"day":"s\u00e1bado","hours":"7:00\u201324:00"},{"day":"domingo","hours":"7:00\u201324:00"}],"auxiliar(borrar)":"NOT_FOUND"},{"name":"Icon Club Barcelona","category":"Discoteca","city":"Barcelona","address":"Carrer de Felip II, 25, Sant Andreu, 08027 Barcelona","website":"instagram.com","email":"NO_EMAIL","phone":"675585159","reviews_rating":3.4,"num_reviews":38,"description":"NOT_FOUND","schedule":[{"day":"viernes","hours":"0:00\u20135:0023:55\u201324:00"},{"day":"s\u00e1bado","hours":"0:00\u20136:0023:55\u201324:00"},{"day":"domingo","hours":"0:00\u20136:0023:55\u201324:00"},{"day":"lunes","hours":"0:00\u20135:00"},{"day":"martes","hours":"Cerrado"},{"day":"mi\u00e9rcoles","hours":"Cerrado"},{"day":"jueves","hours":"23:55\u201324:00"}],"auxiliar(borrar)":"Reclamar esta empresa"},{"name":"Lounge Barcelona","category":"Club nocturno","city":"Barcelona","address":"Carrer de C\u00f2rsega, 257, L'Eixample, 08036 Barcelona","website":"loungebarcelona.com","email":"NO_EMAIL","phone":"637148339","reviews_rating":4.6,"num_reviews":38,"description":"NOT_FOUND","schedule":[{"day":"viernes","hours":"Abierto 24 horas"},{"day":"s\u00e1bado","hours":"Abierto 24 horas"},{"day":"domingo","hours":"Abierto 24 horas"},{"day":"lunes","hours":"Abierto 24 horas"},{"day":"martes","hours":"Abierto 24 horas"},{"day":"mi\u00e9rcoles","hours":"Abierto 24 horas"},{"day":"jueves","hours":"Abierto 24 horas"}],"auxiliar(borrar)":"Amigable con la comunidad LGTBI+"},{"name":"Vertigo Club","category":"Discoteca","city":"NO_CITY","address":"Carrer de C\u00f2rsega, 327, Gr\u00e0cia, 08037 Barcelona","website":"instagram.com","email":"NO_EMAIL","phone":"NO_PHONE","reviews_rating":3.7,"num_reviews":38,"description":"NOT_FOUND","schedule":[{"day":"viernes","hours":"0:00\u20136:00"},{"day":"s\u00e1bado","hours":"Cerrado"},{"day":"domingo","hours":"Cerrado"},{"day":"lunes","hours":"Cerrado"},{"day":"martes","hours":"Cerrado"},{"day":"mi\u00e9rcoles","hours":"Cerrado"},{"day":"jueves","hours":"Cerrado"}],"auxiliar(borrar)":"NOT_FOUND"},{"name":"Bar Restaurant Xuclet","category":"Bar","city":"NO_CITY","address":"Carrer de Ventall\u00f3, 37, Gr\u00e0cia, 08025 Barcelona","website":"NO_WEBSITE","email":null,"phone":"NO_PHONE","reviews_rating":3.8,"num_reviews":36,"description":"NOT_FOUND","schedule":[{"day":"viernes","hours":"8:00\u201321:00"},{"day":"s\u00e1bado","hours":"8:00\u201321:00"},{"day":"domingo","hours":"9:00\u201320:00"},{"day":"lunes","hours":"8:00\u201321:00"},{"day":"martes","hours":"8:00\u201321:00"},{"day":"mi\u00e9rcoles","hours":"8:00\u201321:00"},{"day":"jueves","hours":"8:00\u201321:00"}],"auxiliar(borrar)":"NOT_FOUND"},{"name":"Bar Edelweiss","category":"Lounge","city":"NO_CITY","address":"Carrer de Pau Claris, 107, L'Eixample, 08009 Barcelona","website":"NO_WEBSITE","email":null,"phone":"NO_PHONE","reviews_rating":3.9,"num_reviews":35,"description":"NOT_FOUND","schedule":[{"day":"viernes","hours":"7:00\u201320:00"},{"day":"s\u00e1bado","hours":"Cerrado"},{"day":"domingo","hours":"8:00\u201320:00"},{"day":"lunes","hours":"7:00\u201320:00"},{"day":"martes","hours":"7:00\u201320:00"},{"day":"mi\u00e9rcoles","hours":"7:00\u201320:00"},{"day":"jueves","hours":"7:00\u201320:00"}],"auxiliar(borrar)":"NOT_FOUND"},{"name":"Sala Club Renfe","category":"Lounge","city":"NO_CITY","address":"Se encuentra en: Barcelona-Sants","website":"Pl. dels Pa\u00efsos Catalans, s\/n, Sants-Montju\u00efc, 08014 Barcelona","email":"NO_EMAIL","phone":"NO_PHONE","reviews_rating":3.4,"num_reviews":34,"description":"NOT_FOUND","schedule":[{"day":"viernes","hours":"5:30\u201322:00"},{"day":"s\u00e1bado","hours":"5:30\u201322:00"},{"day":"domingo","hours":"6:30\u201322:00"},{"day":"lunes","hours":"5:30\u201322:00"},{"day":"martes","hours":"5:30\u201322:00"},{"day":"mi\u00e9rcoles","hours":"5:30\u201322:00"},{"day":"jueves","hours":"5:30\u201322:00"}],"auxiliar(borrar)":"NOT_FOUND"},{"name":"LOUNGE LA LIBERTAD 2","category":"Lounge","city":"NO_CITY","address":"Carrer de Di\u00f2genes, 19, 08905 L'Hospitalet de Llobregat, Barcelona","website":"NO_WEBSITE","email":null,"phone":"NO_PHONE","reviews_rating":4.7,"num_reviews":31,"description":"NOT_FOUND","schedule":[{"day":"lunes","hours":"17:00\u20132:30"},{"day":"martes","hours":"17:00\u20132:30"},{"day":"mi\u00e9rcoles","hours":"17:00\u20132:30"},{"day":"jueves","hours":"17:00\u20132:30"},{"day":"viernes","hours":"17:00\u20133:00"},{"day":"s\u00e1bado","hours":"17:00\u20133:00"},{"day":"domingo","hours":"17:00\u20132:30"}],"auxiliar(borrar)":"NOT_FOUND"},{"name":"Pacheco","category":"Lounge","city":"NO_CITY","address":"Carrer Jard\u00ed, 7, 08905 L'Hospitalet de Llobregat, Barcelona","website":"NO_WEBSITE","email":null,"phone":"NO_PHONE","reviews_rating":4.1,"num_reviews":27,"description":"NOT_FOUND","schedule":[{"day":"lunes","hours":"8:30\u201322:30"},{"day":"martes","hours":"8:30\u201322:30"},{"day":"mi\u00e9rcoles","hours":"8:30\u201322:30"},{"day":"jueves","hours":"8:30\u201322:30"},{"day":"viernes","hours":"8:30\u201322:30"},{"day":"s\u00e1bado","hours":"8:30\u201322:30"},{"day":"domingo","hours":"15:00\u201323:00"}],"auxiliar(borrar)":"NOT_FOUND"},{"name":"Plan B | Culture club","category":"Asociaci\u00f3n sociocultural","city":"NO_CITY","address":"Carrer de l'Or, 25, Gr\u00e0cia, 08012 Barcelona","website":"NO_WEBSITE","email":null,"phone":"NO_PHONE","reviews_rating":4.8,"num_reviews":24,"description":"NOT_FOUND","schedule":[{"day":"viernes","hours":"Abierto 24 horas"},{"day":"s\u00e1bado","hours":"Abierto 24 horas"},{"day":"domingo","hours":"Abierto 24 horas"},{"day":"lunes","hours":"Abierto 24 horas"},{"day":"martes","hours":"Abierto 24 horas"},{"day":"mi\u00e9rcoles","hours":"Abierto 24 horas"},{"day":"jueves","hours":"Abierto 24 horas"}],"auxiliar(borrar)":"NOT_FOUND"},{"name":"Matin\u00e9e Barcelona Events","category":"Empresa de organizaci\u00f3n de eventos","city":"Barcelona","address":"Poble Espanyol de Montju\u00efc, Av. de Francesc Ferrer i Gu\u00e0rdia, 13, Distrito de Sants-Montju\u00efc, 08038 Barcelona","website":"matineegroup.com","email":"NO_EMAIL","phone":"934530510","reviews_rating":4.0,"num_reviews":24,"description":"NOT_FOUND","schedule":"NOT_FOUND","auxiliar(borrar)":"Reclamar esta empresa"},{"name":"Bar 1\u00d72","category":"Lounge","city":"NO_CITY","address":"Carrer de les Mimoses, 21, 08905 L'Hospitalet de Llobregat, Barcelona","website":"NO_WEBSITE","email":null,"phone":"NO_PHONE","reviews_rating":4.0,"num_reviews":22,"description":"NOT_FOUND","schedule":[{"day":"lunes","hours":"10:00\u201323:00"},{"day":"martes","hours":"10:00\u201323:00"},{"day":"mi\u00e9rcoles","hours":"10:00\u201323:00"},{"day":"jueves","hours":"10:00\u201323:00"},{"day":"viernes","hours":"10:00\u201323:00"},{"day":"s\u00e1bado","hours":"10:00\u201323:00"},{"day":"domingo","hours":"10:00\u201323:00"}],"auxiliar(borrar)":"NOT_FOUND"},{"name":"Agua de Luna","category":"Discoteca","city":"NO_CITY","address":"Carrer de Viladomat, 211, L'Eixample, 08029 Barcelona","website":"aguadeluna.com","email":"NO_EMAIL","phone":"NO_PHONE","reviews_rating":3.7,"num_reviews":21,"description":"Concurrida discoteca de salsa, merengue, bachata y ritmos latinos con rueda cubana, mojitos y clases de baile.","schedule":"NOT_FOUND","auxiliar(borrar)":"NOT_FOUND"},{"name":"Ramblas","category":"Club nocturno","city":"NO_CITY","address":"Carrer Daoiz i Velarde, 11-1, Sants-Montju\u00efc, 08028 Barcelona","website":"NO_WEBSITE","email":null,"phone":"NO_PHONE","reviews_rating":4.5,"num_reviews":19,"description":"NOT_FOUND","schedule":"NOT_FOUND","auxiliar(borrar)":"NOT_FOUND"},{"name":"Golden Heaven BCN","category":"Club nocturno","city":"Barcelona","address":"Carrer de Sagu\u00e9s, 11, Sarri\u00e0-Sant Gervasi, 08021 Barcelona","website":"goldenheavenbcn.com","email":"NO_EMAIL","phone":"619165436","reviews_rating":5.0,"num_reviews":18,"description":"NOT_FOUND","schedule":[{"day":"viernes","hours":"17:00\u20135:00"},{"day":"s\u00e1bado","hours":"17:00\u20135:00"},{"day":"domingo","hours":"17:00\u20135:00"},{"day":"lunes","hours":"17:00\u20134:00"},{"day":"martes","hours":"17:00\u20134:00"},{"day":"mi\u00e9rcoles","hours":"17:00\u20134:00"},{"day":"jueves","hours":"17:00\u20134:00"}],"auxiliar(borrar)":"NOT_FOUND"},{"name":"Barcelona NightCard Official Office","category":"Empresa de organizaci\u00f3n de eventos","city":"Barcelona","address":"Carrer de Mallorca, 369, L'Eixample, 08013 Barcelona","website":"barcelonanightcard.com","email":"NO_EMAIL","phone":"935111127","reviews_rating":3.2,"num_reviews":18,"description":"NOT_FOUND","schedule":[{"day":"viernes","hours":"10:00\u201320:00"},{"day":"s\u00e1bado","hours":"10:00\u201316:00"},{"day":"domingo","hours":"11:00\u201317:00"},{"day":"lunes","hours":"10:00\u201320:00"},{"day":"martes","hours":"10:00\u201320:00"},{"day":"mi\u00e9rcoles","hours":"10:00\u201320:00"},{"day":"jueves","hours":"10:00\u201320:00"}],"auxiliar(borrar)":"Se encuentra en: i-Barcelona Tourist Infopoint & Tickets, locker"},{"name":"The PubCrawl Company BARCELONA","category":"Atracci\u00f3n tur\u00edstica","city":"Barcelona","address":"Carrer de C\u00f2rsega, 373, Gr\u00e0cia, 08037 Barcelona","website":"thepubcrawlcompany.com","email":"NO_EMAIL","phone":"636415999","reviews_rating":4.6,"num_reviews":18,"description":"NOT_FOUND","schedule":[{"day":"viernes","hours":"22:00\u20133:00"},{"day":"s\u00e1bado","hours":"22:00\u20133:00"},{"day":"domingo","hours":"22:00\u20133:00"},{"day":"lunes","hours":"Cerrado"},{"day":"martes","hours":"Cerrado"},{"day":"mi\u00e9rcoles","hours":"22:00\u20133:00"},{"day":"jueves","hours":"22:00\u20133:00"}],"auxiliar(borrar)":"Se encuentra en: Generator Hostel Barcelona"},{"name":"Apricots Camp Nou Escorts","category":"Club nocturno","city":"Barcelona","address":"Carrer d'Arizala, 74a, Les Corts, 08028 Barcelona","website":"apricots.es","email":"NO_EMAIL","phone":"677854136","reviews_rating":4.7,"num_reviews":17,"description":"NOT_FOUND","schedule":[{"day":"lunes","hours":"Abierto 24 horas"},{"day":"martes","hours":"Abierto 24 horas"},{"day":"mi\u00e9rcoles","hours":"Abierto 24 horas"},{"day":"jueves","hours":"Abierto 24 horas"},{"day":"viernes","hours":"Abierto 24 horas"},{"day":"s\u00e1bado","hours":"Abierto 24 horas"},{"day":"domingo","hours":"Abierto 24 horas"}],"auxiliar(borrar)":"NOT_FOUND"},{"name":"Hellfire Metal Club","category":"Club nocturno","city":"NO_CITY","address":"Carrer de Violant d'Hongria Reina d'Arag\u00f3, 128, Sants-Montju\u00efc, 08028 Barcelona","website":"NO_WEBSITE","email":null,"phone":"NO_PHONE","reviews_rating":4.4,"num_reviews":16,"description":"NOT_FOUND","schedule":[{"day":"viernes","hours":"0:00\u20136:00"},{"day":"s\u00e1bado","hours":"0:00\u20136:00"},{"day":"domingo","hours":"Cerrado"},{"day":"lunes","hours":"Cerrado"},{"day":"martes","hours":"Cerrado"},{"day":"mi\u00e9rcoles","hours":"Cerrado"},{"day":"jueves","hours":"Cerrado"}],"auxiliar(borrar)":"NOT_FOUND"},{"name":"POPair Party","category":"Club nocturno","city":"Barcelona","address":"Carrer de Tarragona, 141, Sants-Montju\u00efc, 08014 Barcelona","website":"popairparty.com","email":"NO_EMAIL","phone":"610857817","reviews_rating":4.5,"num_reviews":16,"description":"NOT_FOUND","schedule":[{"day":"viernes","hours":"0:30\u20136:00"},{"day":"s\u00e1bado","hours":"Cerrado"},{"day":"domingo","hours":"Cerrado"},{"day":"lunes","hours":"Cerrado"},{"day":"martes","hours":"Cerrado"},{"day":"mi\u00e9rcoles","hours":"Cerrado"},{"day":"jueves","hours":"Cerrado"}],"auxiliar(borrar)":"Se encuentra en: Safari Disco Club Barcelona"},{"name":"Margaritas Xavi","category":"Club nocturno","city":"NO_CITY","address":"Carrer de M\u00e8xic, 28, Sants-Montju\u00efc, 08004 Barcelona","website":"NO_WEBSITE","email":null,"phone":"NO_PHONE","reviews_rating":4.6,"num_reviews":14,"description":"NOT_FOUND","schedule":"NOT_FOUND","auxiliar(borrar)":"NOT_FOUND"},{"name":"Can Parats","category":"Club nocturno","city":"NO_CITY","address":"Travessera de les Corts, 165, Les Corts, 08028 Barcelona","website":"NO_WEBSITE","email":null,"phone":"NO_PHONE","reviews_rating":4.9,"num_reviews":12,"description":"NOT_FOUND","schedule":[{"day":"viernes","hours":"20:00\u20131:00"},{"day":"s\u00e1bado","hours":"20:00\u20131:00"},{"day":"domingo","hours":"20:00\u20131:00"},{"day":"lunes","hours":"Cerrado"},{"day":"martes","hours":"20:00\u20131:00"},{"day":"mi\u00e9rcoles","hours":"20:00\u20131:00"},{"day":"jueves","hours":"20:00\u20131:00"}],"auxiliar(borrar)":"NOT_FOUND"},{"name":"DRIPMONDAY","category":"Club nocturno","city":"Barcelona","address":"Carrer de Balmes, 32, L'Eixample, 08007 Barcelona","website":"noplans.net","email":"NO_EMAIL","phone":"617744798","reviews_rating":5.0,"num_reviews":11,"description":"NOT_FOUND","schedule":[{"day":"viernes","hours":"Cerrado"},{"day":"s\u00e1bado","hours":"Cerrado"},{"day":"domingo","hours":"Cerrado"},{"day":"lunes","hours":"23:45\u20135:00"},{"day":"martes","hours":"Cerrado"},{"day":"mi\u00e9rcoles","hours":"Cerrado"},{"day":"jueves","hours":"Cerrado"}],"auxiliar(borrar)":"Reclamar esta empresa"},{"name":"Bar Camarote","category":"NOT_FOUND","city":"NO_CITY","address":"Carrer de Menorca, 72, Sant Mart\u00ed, 08020 Barcelona","website":"NO_WEBSITE","email":null,"phone":"NO_PHONE","reviews_rating":4.5,"num_reviews":11,"description":"NOT_FOUND","schedule":"NOT_FOUND","auxiliar(borrar)":"NOT_FOUND"},{"name":"Casa SOLER","category":"Club nocturno","city":"NO_CITY","address":"Carrer de Miquel \u00c0ngel, 19, Sants-Montju\u00efc, 08028 Barcelona","website":"NO_WEBSITE","email":null,"phone":"NO_PHONE","reviews_rating":4.2,"num_reviews":10,"description":"NOT_FOUND","schedule":"NOT_FOUND","auxiliar(borrar)":"NOT_FOUND"},{"name":"La Guarida de Gracia","category":"Discoteca","city":"NO_CITY","address":"Ram\u00f3n Trias Fargas, 2, 08005, Carrer de Lincoln, 15, 08006 Barcelona","website":"laguaridadegracia.com","email":"NO_EMAIL","phone":"NO_PHONE","reviews_rating":3.9,"num_reviews":10,"description":"NOT_FOUND","schedule":"NOT_FOUND","auxiliar(borrar)":"NOT_FOUND"},{"name":"The House of Lords","category":"Club nocturno","city":"NO_CITY","address":"Carrer de Mallorca, 184, L'Eixample, 08036 Barcelona","website":"NO_WEBSITE","email":null,"phone":"NO_PHONE","reviews_rating":4.8,"num_reviews":9,"description":"NOT_FOUND","schedule":[{"day":"viernes","hours":"Abierto 24 horas"},{"day":"s\u00e1bado","hours":"Abierto 24 horas"},{"day":"domingo","hours":"Abierto 24 horas"},{"day":"lunes","hours":"Cerrado"},{"day":"martes","hours":"Cerrado"},{"day":"mi\u00e9rcoles","hours":"Cerrado"},{"day":"jueves","hours":"Abierto 24 horas"}],"auxiliar(borrar)":"NOT_FOUND"},{"name":"El ANTRO","category":"Bar","city":"NO_CITY","address":"Carrer de Terra Baixa, 61, 08901 L'Hospitalet de Llobregat, Barcelona","website":"NO_WEBSITE","email":null,"phone":"NO_PHONE","reviews_rating":4.8,"num_reviews":9,"description":"NOT_FOUND","schedule":[{"day":"lunes","hours":"9:00\u201323:00"},{"day":"martes","hours":"9:00\u201323:00"},{"day":"mi\u00e9rcoles","hours":"9:00\u201323:00"},{"day":"jueves","hours":"9:00\u201323:00"},{"day":"viernes","hours":"9:00\u201323:00"},{"day":"s\u00e1bado","hours":"9:00\u201323:00"},{"day":"domingo","hours":"9:00\u201323:00"}],"auxiliar(borrar)":"NOT_FOUND"},{"name":"Armonia","category":"Bar","city":"NO_CITY","address":"Carrer de la Maladeta, 15, 08950 Esplugues de Llobregat, Barcelona","website":"NO_WEBSITE","email":null,"phone":"NO_PHONE","reviews_rating":4.3,"num_reviews":6,"description":"NOT_FOUND","schedule":[{"day":"lunes","hours":"7:00\u201321:00"},{"day":"martes","hours":"7:00\u201321:00"},{"day":"mi\u00e9rcoles","hours":"7:00\u201321:00"},{"day":"jueves","hours":"7:00\u201321:00"},{"day":"viernes","hours":"7:00\u201321:00"},{"day":"s\u00e1bado","hours":"7:00\u201321:00"},{"day":"domingo","hours":"7:00\u201321:00"}],"auxiliar(borrar)":"NOT_FOUND"},{"name":"Sweet Drinks","category":"Club","city":"Barcelona","address":"Carrer de N\u00e0pols, 173, Local 1, Eixample, 08013 Barcelona","website":"instagram.com","email":"NO_EMAIL","phone":"631312567","reviews_rating":5.0,"num_reviews":6,"description":"NOT_FOUND","schedule":[{"day":"viernes","hours":"17:00\u20135:00"},{"day":"s\u00e1bado","hours":"17:00\u20135:00"},{"day":"domingo","hours":"17:00\u20134:00"},{"day":"lunes","hours":"17:00\u20134:00"},{"day":"martes","hours":"17:00\u20134:00"},{"day":"mi\u00e9rcoles","hours":"17:00\u20134:00"},{"day":"jueves","hours":"17:00\u20134:00"}],"auxiliar(borrar)":"NOT_FOUND"},{"name":"EVA Night Club","category":"Bar de alterne","city":"Barcelona","address":"Carrer de Mari\u00e0 Cub\u00ed, 90, Sarri\u00e0-Sant Gervasi, 08021 Barcelona","website":"instagram.com","email":"NO_EMAIL","phone":"660162652","reviews_rating":5.0,"num_reviews":5,"description":"NOT_FOUND","schedule":[{"day":"viernes","hours":"17:00\u20135:00"},{"day":"s\u00e1bado","hours":"21:00\u20135:00"},{"day":"domingo","hours":"Cerrado"},{"day":"lunes","hours":"17:00\u201323:30"},{"day":"martes","hours":"17:00\u20134:00"},{"day":"mi\u00e9rcoles","hours":"17:00\u20134:00"},{"day":"jueves","hours":"17:00\u20134:00"}],"auxiliar(borrar)":"NOT_FOUND"},{"name":"La raspa","category":"Bar musical","city":"NO_CITY","address":"Carrer de Calvet, 23, Sarri\u00e0-Sant Gervasi, 08021 Barcelona","website":"NO_WEBSITE","email":null,"phone":"NO_PHONE","reviews_rating":4.2,"num_reviews":5,"description":"NOT_FOUND","schedule":"NOT_FOUND","auxiliar(borrar)":"NOT_FOUND"},{"name":"LA DISCO DE TU VIDA","category":"Recinto para eventos","city":"NO_CITY","address":"Carrer Dr. Santpon\u00e7, 125, ESC E 1 2, San Andr\u00e9s de Palomar, 08030 Barcelona","website":"ladiscodetuvida.com","email":"info@ladiscodetuvida.com","phone":"NO_PHONE","reviews_rating":3.4,"num_reviews":5,"description":"NOT_FOUND","schedule":"NOT_FOUND","auxiliar(borrar)":"NOT_FOUND"},{"name":"Vz","category":"NOT_FOUND","city":"Barcelona","address":"NOT_FOUND","website":"Av. de Sarri\u00e0, 44, Les Corts, 08029 Barcelona","email":"NO_EMAIL","phone":"NO_PHONE","reviews_rating":3.8,"num_reviews":4,"description":"NOT_FOUND","schedule":"NOT_FOUND","auxiliar(borrar)":"NOT_FOUND"},{"name":"GIN CLUB SCOTCH","category":"Club nocturno","city":"NO_CITY","address":"Carrer de Mallorca, 579, Sant Mart\u00ed, 08026 Barcelona","website":"NO_WEBSITE","email":null,"phone":"NO_PHONE","reviews_rating":2.5,"num_reviews":4,"description":"NOT_FOUND","schedule":[{"day":"viernes","hours":"21:00\u20135:00"},{"day":"s\u00e1bado","hours":"21:00\u20135:00"},{"day":"domingo","hours":"Cerrado"},{"day":"lunes","hours":"21:00\u20135:00"},{"day":"martes","hours":"21:00\u20135:00"},{"day":"mi\u00e9rcoles","hours":"21:00\u20135:00"},{"day":"jueves","hours":"21:00\u20135:00"}],"auxiliar(borrar)":"NOT_FOUND"},{"name":"Beat Lab House & Techno","category":"Organizador de eventos","city":"Barcelona","address":"CLUB, Carrer de M\u00e8xic, 7, M7, Distrito de Sants-Montju\u00efc, 08004 Barcelona","website":"es.ra.co","email":"NO_EMAIL","phone":"622742662","reviews_rating":5.0,"num_reviews":2,"description":"NOT_FOUND","schedule":[{"day":"viernes","hours":"Cerrado"},{"day":"s\u00e1bado","hours":"Cerrado"},{"day":"domingo","hours":"23:45\u20135:00"},{"day":"lunes","hours":"Cerrado"},{"day":"martes","hours":"Cerrado"},{"day":"mi\u00e9rcoles","hours":"Cerrado"},{"day":"jueves","hours":"Cerrado"}],"auxiliar(borrar)":"NOT_FOUND"},{"name":"B\u00f3veda","category":"NOT_FOUND","city":"NO_CITY","address":"Carrer de Pallars, 97, Sant Mart\u00ed, 08018 Barcelona","website":"NO_WEBSITE","email":null,"phone":"NO_PHONE","reviews_rating":5.0,"num_reviews":2,"description":"NOT_FOUND","schedule":"NOT_FOUND","auxiliar(borrar)":"NOT_FOUND"},{"name":"Art Gaud\u00ed Regal S.L","category":"Bar de alterne","city":"NO_CITY","address":"Carrer de Larrard, 44, Gr\u00e0cia, 08024 Barcelona","website":"NO_WEBSITE","email":null,"phone":"NO_PHONE","reviews_rating":4.5,"num_reviews":2,"description":"NOT_FOUND","schedule":"NOT_FOUND","auxiliar(borrar)":"NOT_FOUND"},{"name":"Bar musical gotham","category":"Bar","city":"NO_CITY","address":"C Mas, 44, 08903 L'Hospitalet de Llobregat, Barcelona","website":"NO_WEBSITE","email":null,"phone":"NO_PHONE","reviews_rating":4.5,"num_reviews":2,"description":"NOT_FOUND","schedule":"NOT_FOUND","auxiliar(borrar)":"NOT_FOUND"},{"name":"GREENSTATION BCN","category":"NOT_FOUND","city":"NO_CITY","address":"Carrer del Consell de Cent, 597, Sant Mart\u00ed, 08026 Barcelona","website":"NO_WEBSITE","email":null,"phone":"NO_PHONE","reviews_rating":5.0,"num_reviews":1,"description":"NOT_FOUND","schedule":"NOT_FOUND","auxiliar(borrar)":"NOT_FOUND"},{"name":"Nave La Pau","category":"Club nocturno","city":"NO_CITY","address":"Rambla de Prim, 263, Sant Mart\u00ed, 08020 Barcelona","website":"NO_WEBSITE","email":null,"phone":"NO_PHONE","reviews_rating":5.0,"num_reviews":1,"description":"NOT_FOUND","schedule":[{"day":"viernes","hours":"Cerrado"},{"day":"s\u00e1bado","hours":"Abierto 24 horas"},{"day":"domingo","hours":"Abierto 24 horas"},{"day":"lunes","hours":"Cerrado"},{"day":"martes","hours":"Cerrado"},{"day":"mi\u00e9rcoles","hours":"Cerrado"},{"day":"jueves","hours":"Cerrado"}],"auxiliar(borrar)":"NOT_FOUND"},{"name":"Carolines","category":"Club nocturno","city":"Barcelona","address":"NOT_FOUND","website":"Pl. del Diamant, Gr\u00e0cia, 08012 Barcelona","email":"NO_EMAIL","phone":"NO_PHONE","reviews_rating":3.0,"num_reviews":1,"description":"NOT_FOUND","schedule":"NOT_FOUND","auxiliar(borrar)":"NOT_FOUND"},{"name":"Meduza Club","category":"Discoteca","city":"Barcelona","address":"Carrer del Taqu\u00edgraf Serra, 18, Les Corts, 08029 Barcelona","website":"meduzagirls.com","email":"info@meduza.es","phone":"687039240","reviews_rating":5.0,"num_reviews":1,"description":"NOT_FOUND","schedule":[{"day":"viernes","hours":"Abierto 24 horas"},{"day":"s\u00e1bado","hours":"Abierto 24 horas"},{"day":"domingo","hours":"Abierto 24 horas"},{"day":"lunes","hours":"Abierto 24 horas"},{"day":"martes","hours":"Abierto 24 horas"},{"day":"mi\u00e9rcoles","hours":"Abierto 24 horas"},{"day":"jueves","hours":"Abierto 24 horas"}],"auxiliar(borrar)":"NOT_FOUND"},{"name":"Bar Musical Punta Dulce 2","category":"Bar musical","city":"NO_CITY","address":"Carrer de la Renclusa, 32, 08905 L'Hospitalet de Llobregat, Barcelona","website":"NO_WEBSITE","email":null,"phone":"NO_PHONE","reviews_rating":5.0,"num_reviews":1,"description":"NOT_FOUND","schedule":[{"day":"lunes","hours":"20:00\u20133:00"},{"day":"martes","hours":"Cerrado"},{"day":"mi\u00e9rcoles","hours":"20:00\u20133:00"},{"day":"jueves","hours":"20:00\u20133:00"},{"day":"viernes","hours":"20:00\u20133:00"},{"day":"s\u00e1bado","hours":"20:00\u20133:00"},{"day":"domingo","hours":"20:00\u20133:00"}],"auxiliar(borrar)":"NOT_FOUND"}]