[
  {
    "name": "Manolo's Bar",
    "category": "Bar",
    "address": "Carrer de Garcilaso, 161, Sant Andreu, 08027 Barcelona",
    "website": "NO_WEBSITE",
    "phone": "NO_PHONE",
    "city": "NO_CITY",
    "auxiliar": "NOT_FOUND",
    "reviews_rating": "4.5",
    "num_reviews": "104",
    "description": "NOT_FOUND",
    "schedule": [
      {
        "day": "viernes",
        "hours": "8:00–23:00"
      },
      {
        "day": "sábado",
        "hours": "8:00–23:00"
      },
      {
        "day": "domingo",
        "hours": "8:00–23:00"
      },
      {
        "day": "lunes",
        "hours": "8:00–23:00"
      },
      {
        "day": "martes",
        "hours": "8:00–23:00"
      },
      {
        "day": "miércoles",
        "hours": "8:00–23:00"
      },
      {
        "day": "jueves",
        "hours": "8:00–23:00"
      }
    ]
  },
  {
    "name": "Bar Bombo Maracana",
    "category": "Bar",
    "address": "Plaça de Mossèn Clapés, 23, Sant Andreu, 08030 Barcelona",
    "website": "NO_WEBSITE",
    "phone": "NO_PHONE",
    "city": "NO_CITY",
    "auxiliar": "NOT_FOUND",
    "reviews_rating": "3.6",
    "num_reviews": "202",
    "description": "NOT_FOUND",
    "schedule": [
      {
        "day": "viernes",
        "hours": "6:00–24:00"
      },
      {
        "day": "sábado",
        "hours": "6:00–24:00"
      },
      {
        "day": "domingo",
        "hours": "6:00–24:00"
      },
      {
        "day": "lunes",
        "hours": "6:00–24:00"
      },
      {
        "day": "martes",
        "hours": "6:00–24:00"
      },
      {
        "day": "miércoles",
        "hours": "6:00–24:00"
      },
      {
        "day": "jueves",
        "hours": "6:00–24:00"
      }
    ]
  },
  {
    "name": "Icon Club Barcelona",
    "category": "Discoteca",
    "address": "Carrer de Felip II, 25, Sant Andreu, 08027 Barcelona",
    "website": "instagram.com",
    "phone": "675585159",
    "city": "Barcelona",
    "auxiliar": "Reclamar esta empresa",
    "reviews_rating": "3.4",
    "num_reviews": "38",
    "description": "NOT_FOUND",
    "schedule": [
      {
        "day": "viernes",
        "hours": "0:00–5:0023:55–24:00"
      },
      {
        "day": "sábado",
        "hours": "0:00–6:0023:55–24:00"
      },
      {
        "day": "domingo",
        "hours": "0:00–6:0023:55–24:00"
      },
      {
        "day": "lunes",
        "hours": "0:00–5:00"
      },
      {
        "day": "martes",
        "hours": "Cerrado"
      },
      {
        "day": "miércoles",
        "hours": "Cerrado"
      },
      {
        "day": "jueves",
        "hours": "23:55–24:00"
      }
    ],
    "email": "NO_EMAIL"
  },
  {
    "name": "G Y PUNTO",
    "category": "Bar musical",
    "address": "El Palau, Av. Constitució, 111, 08740 Sant Andreu de la Barca, Barcelona",
    "website": "facebook.com",
    "phone": "655237461",
    "city": "Sant Andreu de la Barca",
    "auxiliar": "Amigable con la comunidad LGTBI+",
    "reviews_rating": "3.8",
    "num_reviews": "206",
    "description": "NOT_FOUND",
    "schedule": [
      {
        "day": "viernes",
        "hours": "22:00–3:30"
      },
      {
        "day": "sábado",
        "hours": "22:00–3:30"
      },
      {
        "day": "domingo",
        "hours": "22:00–3:00"
      },
      {
        "day": "lunes",
        "hours": "Cerrado"
      },
      {
        "day": "martes",
        "hours": "22:00–3:00"
      },
      {
        "day": "miércoles",
        "hours": "22:00–3:00"
      },
      {
        "day": "jueves",
        "hours": "22:00–3:00"
      }
    ],
    "email": "NO_EMAIL"
  },
  {
    "name": "Undead Dark Club",
    "category": "Discoteca",
    "address": "Carrer Violant d'Hongria, 128, Distrito de Sants-Montjuïc, 08028 Barcelona",
    "website": "undeadarkclub.com",
    "phone": "NO_PHONE",
    "city": "NO_CITY",
    "auxiliar": "NOT_FOUND",
    "reviews_rating": "4.3",
    "num_reviews": "199",
    "description": "Oscuro local decorado con estatuas y armaduras especializado en música gothic rock o post punk.",
    "schedule": [
      {
        "day": "viernes",
        "hours": "0:30–5:00"
      },
      {
        "day": "sábado",
        "hours": "0:30–6:00"
      },
      {
        "day": "domingo",
        "hours": "Cerrado"
      },
      {
        "day": "lunes",
        "hours": "Cerrado"
      },
      {
        "day": "martes",
        "hours": "Cerrado"
      },
      {
        "day": "miércoles",
        "hours": "Cerrado"
      },
      {
        "day": "jueves",
        "hours": "Cerrado"
      }
    ],
    "email": "NO_EMAIL"
  },
  {
    "name": "Snoopy",
    "category": "Lounge",
    "address": "Carrer de Sant Jordi, 5, 08740 Sant Andreu de la Barca, Barcelona",
    "website": "NO_WEBSITE",
    "phone": "NO_PHONE",
    "city": "NO_CITY",
    "auxiliar": "NOT_FOUND",
    "reviews_rating": "4.2",
    "num_reviews": "60",
    "description": "NOT_FOUND",
    "schedule": [
      {
        "day": "viernes",
        "hours": "11:00–22:00"
      },
      {
        "day": "sábado",
        "hours": "11:00–22:00"
      },
      {
        "day": "domingo",
        "hours": "11:00–22:00"
      },
      {
        "day": "lunes",
        "hours": "11:00–22:00"
      },
      {
        "day": "martes",
        "hours": "11:00–22:00"
      },
      {
        "day": "miércoles",
        "hours": "11:00–22:00"
      },
      {
        "day": "jueves",
        "hours": "11:00–22:00"
      }
    ]
  },
  {
    "name": "Bar Estación",
    "category": "Bar",
    "address": "Plaça de l'Estació, 6, Sant Andreu, 08030 Barcelona",
    "website": "NO_WEBSITE",
    "phone": "NO_PHONE",
    "city": "NO_CITY",
    "auxiliar": "NOT_FOUND",
    "reviews_rating": "4.0",
    "num_reviews": "326",
    "description": "NOT_FOUND",
    "schedule": [
      {
        "day": "viernes",
        "hours": "6:00–16:30"
      },
      {
        "day": "sábado",
        "hours": "7:00–14:00"
      },
      {
        "day": "domingo",
        "hours": "Cerrado"
      },
      {
        "day": "lunes",
        "hours": "6:00–16:30"
      },
      {
        "day": "martes",
        "hours": "6:00–16:30"
      },
      {
        "day": "miércoles",
        "hours": "6:00–16:30"
      },
      {
        "day": "jueves",
        "hours": "6:00–16:30"
      }
    ]
  },
  {
    "name": "Atlantic Club Barcelona",
    "category": "Recinto para eventos",
    "address": "Av. del Tibidabo, 56, Sarrià-Sant Gervasi, 08035 Barcelona",
    "website": "atlanticbarcelona.com",
    "phone": "675273071",
    "city": "Barcelona",
    "auxiliar": "Reclamar esta empresa",
    "reviews_rating": "3.9",
    "num_reviews": "275",
    "description": "Música comercial en una amplia discoteca de estilo modernista con terraza ajardinada y vistas a Barcelona.",
    "schedule": [
      {
        "day": "viernes",
        "hours": "Cerrado"
      },
      {
        "day": "sábado",
        "hours": "12:00–18:00"
      },
      {
        "day": "domingo",
        "hours": "12:00–18:00"
      },
      {
        "day": "lunes",
        "hours": "Cerrado"
      },
      {
        "day": "martes",
        "hours": "Cerrado"
      },
      {
        "day": "miércoles",
        "hours": "Cerrado"
      },
      {
        "day": "jueves",
        "hours": "Cerrado"
      }
    ],
    "email": "NO_EMAIL"
  },
  {
    "name": "Safari Disco Club Barcelona",
    "category": "Discoteca",
    "address": "Carrer de Tarragona, 141, Sants-Montjuïc, 08014 Barcelona",
    "website": "safaridiscoclub.com",
    "phone": "934878342",
    "city": "Barcelona",
    "auxiliar": "Cerrado ⋅ Apertura: 23:59",
    "reviews_rating": "3.8",
    "num_reviews": "2488",
    "description": "Discoteca animada, que abre toda la noche, con dos pistas de bailes y fiestas temáticas.",
    "schedule": "NOT_FOUND",
    "email": "NO_EMAIL"
  },
  {
    "name": "Safari Disco Club Barcelona",
    "category": "Discoteca",
    "address": "Carrer de Tarragona, 141, Sants-Montjuïc, 08014 Barcelona",
    "website": "safaridiscoclub.com",
    "phone": "934878342",
    "city": "Barcelona",
    "auxiliar": "Cerrado ⋅ Apertura: 23:59",
    "reviews_rating": "3.8",
    "num_reviews": "2488",
    "description": "Discoteca animada, que abre toda la noche, con dos pistas de bailes y fiestas temáticas.",
    "schedule": "NOT_FOUND",
    "email": "NO_EMAIL"
  },
  {
    "name": "SINGULAR Copas y Billares",
    "category": "Pub",
    "address": "Carrer de Sant Antoni Maria Claret, 514, Sant Andreu, 08027 Barcelona",
    "website": "singularpub.com",
    "phone": "935181113",
    "city": "Barcelona",
    "auxiliar": "Amigable con la comunidad LGTBI+",
    "reviews_rating": "4.4",
    "num_reviews": "577",
    "description": "NOT_FOUND",
    "schedule": [
      {
        "day": "viernes",
        "hours": "18:00–2:30"
      },
      {
        "day": "sábado",
        "hours": "16:00–2:30"
      },
      {
        "day": "domingo",
        "hours": "16:00–1:00"
      },
      {
        "day": "lunes",
        "hours": "18:00–1:00"
      },
      {
        "day": "martes",
        "hours": "18:00–1:00"
      },
      {
        "day": "miércoles",
        "hours": "18:00–1:00"
      },
      {
        "day": "jueves",
        "hours": "18:00–1:00"
      }
    ],
    "email": "NO_EMAIL"
  },
  {
    "name": "Mandarina Deluxe Vintage",
    "category": "Discoteca",
    "address": "Carrer d'Alcolea, 98, Sants-Montjuïc, 08014 Barcelona",
    "website": "m.facebook.com",
    "phone": "695922053",
    "city": "Barcelona",
    "auxiliar": "NOT_FOUND",
    "reviews_rating": "3.9",
    "num_reviews": "315",
    "description": "NOT_FOUND",
    "schedule": [
      {
        "day": "viernes",
        "hours": "23:00–24:00"
      },
      {
        "day": "sábado",
        "hours": "0:00–6:0023:00–24:00"
      },
      {
        "day": "domingo",
        "hours": "0:00–6:00"
      },
      {
        "day": "lunes",
        "hours": "Cerrado"
      },
      {
        "day": "martes",
        "hours": "Cerrado"
      },
      {
        "day": "miércoles",
        "hours": "Cerrado"
      },
      {
        "day": "jueves",
        "hours": "Cerrado"
      }
    ],
    "email": "NO_EMAIL"
  },
  {
    "name": "Meduza Club",
    "category": "Discoteca",
    "address": "Carrer d'Alcolea, 98, Sants-Montjuïc, 08014 Barcelona",
    "website": "m.facebook.com",
    "phone": "695922053",
    "city": "Barcelona",
    "auxiliar": "NOT_FOUND",
    "reviews_rating": "3.9",
    "num_reviews": "315",
    "description": "NOT_FOUND",
    "schedule": [
      {
        "day": "viernes",
        "hours": "23:00–24:00"
      },
      {
        "day": "sábado",
        "hours": "0:00–6:0023:00–24:00"
      },
      {
        "day": "domingo",
        "hours": "0:00–6:00"
      },
      {
        "day": "lunes",
        "hours": "Cerrado"
      },
      {
        "day": "martes",
        "hours": "Cerrado"
      },
      {
        "day": "miércoles",
        "hours": "Cerrado"
      },
      {
        "day": "jueves",
        "hours": "Cerrado"
      }
    ],
    "email": "NO_EMAIL"
  },
  {
    "name": "PULSA9",
    "category": "Restaurante",
    "address": "Plaça de les Palmeres, 5, Sant Andreu, 08030 Barcelona",
    "website": "NO_WEBSITE",
    "phone": "NO_PHONE",
    "city": "NO_CITY",
    "auxiliar": "NOT_FOUND",
    "reviews_rating": "4.1",
    "num_reviews": "214",
    "description": "NOT_FOUND",
    "schedule": "NOT_FOUND"
  },
  {
    "name": "Casa SOLER",
    "category": "Club nocturno",
    "address": "Carrer de Miquel Àngel, 19, Sants-Montjuïc, 08028 Barcelona",
    "website": "NO_WEBSITE",
    "phone": "NO_PHONE",
    "city": "NO_CITY",
    "auxiliar": "NOT_FOUND",
    "reviews_rating": "4.2",
    "num_reviews": "10",
    "description": "NOT_FOUND",
    "schedule": "NOT_FOUND"
  },
  {
    "name": "Enigma Music Bar",
    "category": "Club nocturno",
    "address": "Carrer del Taquígraf Garriga, 106, Les Corts, 08029 Barcelona",
    "website": "NO_WEBSITE",
    "phone": "NO_PHONE",
    "city": "NO_CITY",
    "auxiliar": "NOT_FOUND",
    "reviews_rating": "4.1",
    "num_reviews": "206",
    "description": "Bar de moda que ofrece cócteles, cachimbas y pista de baile en un local acogedor.",
    "schedule": [
      {
        "day": "viernes",
        "hours": "23:00–3:30"
      },
      {
        "day": "sábado",
        "hours": "23:00–3:30"
      },
      {
        "day": "domingo",
        "hours": "Cerrado"
      },
      {
        "day": "lunes",
        "hours": "Cerrado"
      },
      {
        "day": "martes",
        "hours": "Cerrado"
      },
      {
        "day": "miércoles",
        "hours": "Cerrado"
      },
      {
        "day": "jueves",
        "hours": "23:00–2:30"
      }
    ]
  },
  {
    "name": "Cocteleria Torre Rosa",
    "category": "Coctelería",
    "address": "Carrer de Francesc Tàrrega, 22, Sant Andreu, 08027 Barcelona",
    "website": "torrerosa.com",
    "phone": "933408854",
    "city": "Barcelona",
    "auxiliar": "Menú",
    "reviews_rating": "4.4",
    "num_reviews": "4996",
    "description": "Coctelería sencilla y acogedora, ubicada en un edificio histórico con patio, que ofrece cócteles típicos y bebidas tropicales.",
    "schedule": [
      {
        "day": "viernes",
        "hours": "18:00–3:00"
      },
      {
        "day": "sábado",
        "hours": "18:00–3:00"
      },
      {
        "day": "domingo",
        "hours": "18:00–2:30"
      },
      {
        "day": "lunes",
        "hours": "18:00–2:30"
      },
      {
        "day": "martes",
        "hours": "18:00–2:30"
      },
      {
        "day": "miércoles",
        "hours": "18:00–2:30"
      },
      {
        "day": "jueves",
        "hours": "18:00–2:30"
      }
    ],
    "email": "NO_EMAIL"
  },
  {
    "name": "Bar Enka 3",
    "category": "Lounge",
    "address": "Carrer de Sants, 384, Les Corts, 08028 Barcelona",
    "website": "NO_WEBSITE",
    "phone": "NO_PHONE",
    "city": "NO_CITY",
    "auxiliar": "NOT_FOUND",
    "reviews_rating": "3.5",
    "num_reviews": "132",
    "description": "NOT_FOUND",
    "schedule": [
      {
        "day": "viernes",
        "hours": "8:00–24:00"
      },
      {
        "day": "sábado",
        "hours": "8:00–1:00"
      },
      {
        "day": "domingo",
        "hours": "9:00–1:00"
      },
      {
        "day": "lunes",
        "hours": "8:00–24:00"
      },
      {
        "day": "martes",
        "hours": "8:00–24:00"
      },
      {
        "day": "miércoles",
        "hours": "8:00–24:00"
      },
      {
        "day": "jueves",
        "hours": "8:00–24:00"
      }
    ]
  },
  {
    "name": "Ruta 66",
    "category": "Bar",
    "address": "NOT_FOUND",
    "website": "C. de Sócrates, 68, San Andrés de Palomar, 08030 Barcelona",
    "phone": "NO_PHONE",
    "city": "Barcelona",
    "auxiliar": "NOT_FOUND",
    "reviews_rating": "4.1",
    "num_reviews": "501",
    "description": "NOT_FOUND",
    "schedule": [
      {
        "day": "viernes",
        "hours": "20:00–3:00"
      },
      {
        "day": "sábado",
        "hours": "20:00–3:00"
      },
      {
        "day": "domingo",
        "hours": "20:00–2:30"
      },
      {
        "day": "lunes",
        "hours": "20:00–2:30"
      },
      {
        "day": "martes",
        "hours": "20:00–2:30"
      },
      {
        "day": "miércoles",
        "hours": "20:00–2:30"
      },
      {
        "day": "jueves",
        "hours": "20:00–2:30"
      }
    ],
    "email": "NO_EMAIL"
  },
  {
    "name": "Bar Colombia",
    "category": "Bar",
    "address": "Rambla de Fabra i Puig, 1, Sant Andreu, 08030 Barcelona",
    "website": "NO_WEBSITE",
    "phone": "NO_PHONE",
    "city": "NO_CITY",
    "auxiliar": "NOT_FOUND",
    "reviews_rating": "4.2",
    "num_reviews": "322",
    "description": "NOT_FOUND",
    "schedule": [
      {
        "day": "viernes",
        "hours": "7:00–17:00"
      },
      {
        "day": "sábado",
        "hours": "7:00–15:00"
      },
      {
        "day": "domingo",
        "hours": "7:00–15:00"
      },
      {
        "day": "lunes",
        "hours": "7:00–17:00"
      },
      {
        "day": "martes",
        "hours": "7:00–17:00"
      },
      {
        "day": "miércoles",
        "hours": "7:00–17:00"
      },
      {
        "day": "jueves",
        "hours": "7:00–17:00"
      }
    ]
  },
  {
    "name": "Disco Bar Mami",
    "category": "Discoteca",
    "address": "Carrer de Sants, 443, Sants-Montjuïc, 08028 Barcelona",
    "website": "m.facebook.com",
    "phone": "671296949",
    "city": "Barcelona",
    "auxiliar": "Reservar una mesa",
    "reviews_rating": "3.1",
    "num_reviews": "211",
    "description": "NOT_FOUND",
    "schedule": [
      {
        "day": "viernes",
        "hours": "22:30–24:00"
      },
      {
        "day": "sábado",
        "hours": "0:00–6:0022:30–24:00"
      },
      {
        "day": "domingo",
        "hours": "0:00–6:0022:30–24:00"
      },
      {
        "day": "lunes",
        "hours": "0:00–5:0022:30–24:00"
      },
      {
        "day": "martes",
        "hours": "0:00–5:0022:00–24:00"
      },
      {
        "day": "miércoles",
        "hours": "0:00–5:0022:30–24:00"
      },
      {
        "day": "jueves",
        "hours": "0:00–5:00"
      }
    ],
    "email": "NO_EMAIL"
  },
  {
    "name": "Ruta 66",
    "category": "Bar",
    "address": "NOT_FOUND",
    "website": "C. de Sócrates, 68, San Andrés de Palomar, 08030 Barcelona",
    "phone": "NO_PHONE",
    "city": "Barcelona",
    "auxiliar": "NOT_FOUND",
    "reviews_rating": "4.1",
    "num_reviews": "501",
    "description": "NOT_FOUND",
    "schedule": [
      {
        "day": "viernes",
        "hours": "20:00–3:00"
      },
      {
        "day": "sábado",
        "hours": "20:00–3:00"
      },
      {
        "day": "domingo",
        "hours": "20:00–2:30"
      },
      {
        "day": "lunes",
        "hours": "20:00–2:30"
      },
      {
        "day": "martes",
        "hours": "20:00–2:30"
      },
      {
        "day": "miércoles",
        "hours": "20:00–2:30"
      },
      {
        "day": "jueves",
        "hours": "20:00–2:30"
      }
    ],
    "email": "NO_EMAIL"
  },
  {
    "name": "LA DISCO DE TU VIDA",
    "category": "Recinto para eventos",
    "address": "Carrer Dr. Santponç, 125, ESC E 1 2, San Andrés de Palomar, 08030 Barcelona",
    "website": "ladiscodetuvida.com",
    "phone": "NO_PHONE",
    "city": "NO_CITY",
    "auxiliar": "NOT_FOUND",
    "reviews_rating": "3.4",
    "num_reviews": "5",
    "description": "NOT_FOUND",
    "schedule": "NOT_FOUND",
    "email": "info@ladiscodetuvida.com"
  },
  {
    "name": "Bar Cañas",
    "category": "Bar",
    "address": "Carrer d'Otger, 1, Sant Andreu, 08030 Barcelona",
    "website": "NO_WEBSITE",
    "phone": "NO_PHONE",
    "city": "NO_CITY",
    "auxiliar": "NOT_FOUND",
    "reviews_rating": "4.5",
    "num_reviews": "412",
    "description": "NOT_FOUND",
    "schedule": [
      {
        "day": "viernes",
        "hours": "7:45–22:00"
      },
      {
        "day": "sábado",
        "hours": "7:45–22:00"
      },
      {
        "day": "domingo",
        "hours": "Cerrado"
      },
      {
        "day": "lunes",
        "hours": "7:45–22:00"
      },
      {
        "day": "martes",
        "hours": "7:45–22:00"
      },
      {
        "day": "miércoles",
        "hours": "7:45–22:00"
      },
      {
        "day": "jueves",
        "hours": "7:45–22:00"
      }
    ]
  },
  {
    "name": "Bar Enka 3",
    "category": "Lounge",
    "address": "Carrer de Sants, 384, Les Corts, 08028 Barcelona",
    "website": "NO_WEBSITE",
    "phone": "NO_PHONE",
    "city": "NO_CITY",
    "auxiliar": "NOT_FOUND",
    "reviews_rating": "3.5",
    "num_reviews": "132",
    "description": "NOT_FOUND",
    "schedule": [
      {
        "day": "viernes",
        "hours": "8:00–24:00"
      },
      {
        "day": "sábado",
        "hours": "8:00–1:00"
      },
      {
        "day": "domingo",
        "hours": "9:00–1:00"
      },
      {
        "day": "lunes",
        "hours": "8:00–24:00"
      },
      {
        "day": "martes",
        "hours": "8:00–24:00"
      },
      {
        "day": "miércoles",
        "hours": "8:00–24:00"
      },
      {
        "day": "jueves",
        "hours": "8:00–24:00"
      }
    ]
  },
  {
    "name": "PULSA9",
    "category": "Restaurante",
    "address": "Plaça de les Palmeres, 5, Sant Andreu, 08030 Barcelona",
    "website": "NO_WEBSITE",
    "phone": "NO_PHONE",
    "city": "NO_CITY",
    "auxiliar": "NOT_FOUND",
    "reviews_rating": "4.1",
    "num_reviews": "214",
    "description": "NOT_FOUND",
    "schedule": "NOT_FOUND"
  },
  {
    "name": "bar don restaurante",
    "category": "Bar",
    "address": "Passeig de Torras i Bages, 45, Sant Andreu, 08030 Barcelona",
    "website": "NO_WEBSITE",
    "phone": "640303724",
    "city": "Barcelona",
    "auxiliar": "Reclamar esta empresa",
    "reviews_rating": "3.9",
    "num_reviews": "90",
    "description": "NOT_FOUND",
    "schedule": [
      {
        "day": "viernes",
        "hours": "7:00–22:00"
      },
      {
        "day": "sábado",
        "hours": "7:00–22:00"
      },
      {
        "day": "domingo",
        "hours": "7:00–22:00"
      },
      {
        "day": "lunes",
        "hours": "7:00–22:00"
      },
      {
        "day": "martes",
        "hours": "7:00–22:00"
      },
      {
        "day": "miércoles",
        "hours": "7:00–22:00"
      },
      {
        "day": "jueves",
        "hours": "7:00–22:00"
      }
    ]
  },
  {
    "name": "Meduza Club",
    "category": "Discoteca",
    "address": "Carrer del Taquígraf Serra, 18, Les Corts, 08029 Barcelona",
    "website": "meduzagirls.com",
    "phone": "687039240",
    "city": "Barcelona",
    "auxiliar": "NOT_FOUND",
    "reviews_rating": "5.0",
    "num_reviews": "1",
    "description": "NOT_FOUND",
    "schedule": [
      {
        "day": "viernes",
        "hours": "Abierto 24 horas"
      },
      {
        "day": "sábado",
        "hours": "Abierto 24 horas"
      },
      {
        "day": "domingo",
        "hours": "Abierto 24 horas"
      },
      {
        "day": "lunes",
        "hours": "Abierto 24 horas"
      },
      {
        "day": "martes",
        "hours": "Abierto 24 horas"
      },
      {
        "day": "miércoles",
        "hours": "Abierto 24 horas"
      },
      {
        "day": "jueves",
        "hours": "Abierto 24 horas"
      }
    ],
    "email": "info@meduza.es"
  },
  {
    "name": "Chilipa Pool",
    "category": "Club nocturno",
    "address": "Carrer de Mallorca, 647, Sant Andreu, 08027 Barcelona",
    "website": "NO_WEBSITE",
    "phone": "NO_PHONE",
    "city": "NO_CITY",
    "auxiliar": "NOT_FOUND",
    "reviews_rating": "NOT_FOUND",
    "num_reviews": "",
    "description": "NOT_FOUND",
    "schedule": "NOT_FOUND"
  },
  {
    "name": "La Bodegueta de Sant Andreu",
    "category": "Restaurante especializado en tapas",
    "address": "Rambla de Fabra i Puig, 30, Sant Andreu, 08030 Barcelona",
    "website": "labodeguetadesantandreu.cat",
    "phone": "656376842",
    "city": "Barcelona",
    "auxiliar": "Menú",
    "reviews_rating": "4.5",
    "num_reviews": "2373",
    "description": "Tapas de origen local, vino y vermú en un restaurante rústico y compacto.",
    "schedule": [
      {
        "day": "viernes",
        "hours": "12:00–24:00"
      },
      {
        "day": "sábado",
        "hours": "12:00–24:00"
      },
      {
        "day": "domingo",
        "hours": "12:00–24:00"
      },
      {
        "day": "lunes",
        "hours": "18:00–24:00"
      },
      {
        "day": "martes",
        "hours": "18:00–24:00"
      },
      {
        "day": "miércoles",
        "hours": "18:00–24:00"
      },
      {
        "day": "jueves",
        "hours": "18:00–24:00"
      }
    ],
    "email": "NO_EMAIL"
  }
]