[
  {
    "name": "LaKontra de Gràcia",
    "category": "Bar musical",
    "address": "Plaça del Sol, 3, Local 1, Gràcia, 08012 Barcelona",
    "website": "lakontra.org",
    "phone": "NO_PHONE",
    "city": "Barcelona",
    "auxiliar": "Amigable con la comunidad LGTBI+",
    "reviews_rating": "3.9",
    "num_reviews": "113",
    "description": "NOT_FOUND",
    "schedule": [
      {
        "day": "viernes",
        "hours": "12:00–3:00"
      },
      {
        "day": "sábado",
        "hours": "12:00–3:00"
      },
      {
        "day": "domingo",
        "hours": "12:00–19:00"
      },
      {
        "day": "lunes",
        "hours": "Cerrado"
      },
      {
        "day": "martes",
        "hours": "Cerrado"
      },
      {
        "day": "miércoles",
        "hours": "18:30–1:00"
      },
      {
        "day": "jueves",
        "hours": "18:30–2:30"
      }
    ]
  },
  {
    "name": "Ballbreaker",
    "category": "Club de música rock",
    "address": "Carrer de Matilde, 7, Gràcia, 08012 Barcelona",
    "website": "NO_WEBSITE",
    "phone": "NO_PHONE",
    "city": "NO_CITY",
    "auxiliar": "NOT_FOUND",
    "reviews_rating": "4.6",
    "num_reviews": "669",
    "description": "NOT_FOUND",
    "schedule": [
      {
        "day": "viernes",
        "hours": "19:00–3:00"
      },
      {
        "day": "sábado",
        "hours": "19:00–3:00"
      },
      {
        "day": "domingo",
        "hours": "Cerrado"
      },
      {
        "day": "lunes",
        "hours": "19:00–2:30"
      },
      {
        "day": "martes",
        "hours": "19:00–2:30"
      },
      {
        "day": "miércoles",
        "hours": "19:00–2:30"
      },
      {
        "day": "jueves",
        "hours": "19:00–2:30"
      }
    ]
  },
  {
    "name": "Draco Premium Club",
    "category": "Discoteca",
    "address": "Carrer de Ca l'Alegre de Dalt, 55, Gràcia, 08024 Barcelona",
    "website": "dracodisco.com",
    "phone": "620933417",
    "city": "Barcelona",
    "auxiliar": "Servicios",
    "reviews_rating": "4.4",
    "num_reviews": "641",
    "description": "NOT_FOUND",
    "schedule": [
      {
        "day": "viernes",
        "hours": "23:59–24:00"
      },
      {
        "day": "sábado",
        "hours": "0:00–6:0023:59–24:00"
      },
      {
        "day": "domingo",
        "hours": "0:00–6:0023:59–24:00"
      },
      {
        "day": "lunes",
        "hours": "0:00–5:00"
      },
      {
        "day": "martes",
        "hours": "Cerrado"
      },
      {
        "day": "miércoles",
        "hours": "Cerrado"
      },
      {
        "day": "jueves",
        "hours": "Cerrado"
      }
    ]
  },
  {
    "name": "Gracia Latina",
    "category": "Bar musical",
    "address": "Carrer de l'Or, 19, Gràcia, 08012 Barcelona",
    "website": "facebook.com",
    "phone": "669268167",
    "city": "Barcelona",
    "auxiliar": "NOT_FOUND",
    "reviews_rating": "4.2",
    "num_reviews": "1356",
    "description": "Música latina en directo, zona de baile y cócteles en un bar acogedor que ofrece clases de salsa y bachata.",
    "schedule": [
      {
        "day": "viernes",
        "hours": "21:00–3:00"
      },
      {
        "day": "sábado",
        "hours": "21:00–3:00"
      },
      {
        "day": "domingo",
        "hours": "21:00–2:30"
      },
      {
        "day": "lunes",
        "hours": "21:00–2:30"
      },
      {
        "day": "martes",
        "hours": "21:00–2:30"
      },
      {
        "day": "miércoles",
        "hours": "21:00–2:30"
      },
      {
        "day": "jueves",
        "hours": "21:00–2:30"
      }
    ]
  },
  {
    "name": "Almo2bar",
    "category": "Discoteca",
    "address": "59-61, Carrer de Bruniquer, 08024 Barcelona",
    "website": "grupalmodobar.com",
    "phone": "932199345",
    "city": "Barcelona",
    "auxiliar": "NOT_FOUND",
    "reviews_rating": "2.5",
    "num_reviews": "673",
    "description": "Futbolín y taburetes altos en discoteca con música actual y día dedicado al baile de swing con música en vivo.",
    "schedule": [
      {
        "day": "viernes",
        "hours": "0:00–5:0023:00–24:00"
      },
      {
        "day": "sábado",
        "hours": "0:00–6:0023:00–24:00"
      },
      {
        "day": "domingo",
        "hours": "0:00–6:0023:59–24:00"
      },
      {
        "day": "lunes",
        "hours": "0:00–5:00"
      },
      {
        "day": "martes",
        "hours": "Cerrado"
      },
      {
        "day": "miércoles",
        "hours": "Cerrado"
      },
      {
        "day": "jueves",
        "hours": "23:00–24:00"
      }
    ]
  },
  {
    "name": "Switch",
    "category": "Bar",
    "address": "Carrer de Francisco Giner, 24, Gràcia, 08012 Barcelona",
    "website": "instagram.com",
    "phone": "NO_PHONE",
    "city": "NO_CITY",
    "auxiliar": "NOT_FOUND",
    "reviews_rating": "4.3",
    "num_reviews": "297",
    "description": "NOT_FOUND",
    "schedule": [
      {
        "day": "viernes",
        "hours": "22:00–3:00"
      },
      {
        "day": "sábado",
        "hours": "22:00–3:00"
      },
      {
        "day": "domingo",
        "hours": "Cerrado"
      },
      {
        "day": "lunes",
        "hours": "Cerrado"
      },
      {
        "day": "martes",
        "hours": "Cerrado"
      },
      {
        "day": "miércoles",
        "hours": "22:00–2:30"
      },
      {
        "day": "jueves",
        "hours": "22:00–2:30"
      }
    ]
  },
  {
    "name": "Duvet Barcelona",
    "category": "Discoteca",
    "address": "Carrer de Còrsega, 327, Gràcia, 08037 Barcelona",
    "website": "duvetbarcelona.com",
    "phone": "932374322",
    "city": "Barcelona",
    "auxiliar": "NOT_FOUND",
    "reviews_rating": "3.4",
    "num_reviews": "770",
    "description": "Iluminación tenue, zonas VIP y cócteles en una discoteca sofisticada con sesiones de DJ y noches de salsa.",
    "schedule": [
      {
        "day": "viernes",
        "hours": "23:55–24:00"
      },
      {
        "day": "sábado",
        "hours": "0:00–6:0023:55–24:00"
      },
      {
        "day": "domingo",
        "hours": "0:00–6:00"
      },
      {
        "day": "lunes",
        "hours": "Cerrado"
      },
      {
        "day": "martes",
        "hours": "Cerrado"
      },
      {
        "day": "miércoles",
        "hours": "Cerrado"
      },
      {
        "day": "jueves",
        "hours": "Cerrado"
      }
    ]
  },
  {
    "name": "Almodobar Barcelona",
    "category": "Discoteca",
    "address": "Carrer d'en Grassot, 36, Gràcia, 08025 Barcelona",
    "website": "grupalmodobar.com",
    "phone": "932073855",
    "city": "Barcelona",
    "auxiliar": "NOT_FOUND",
    "reviews_rating": "2.2",
    "num_reviews": "861",
    "description": "Bar de copas y cócteles con música actual y karaoke de sofás naranjas y escenario en discoteca de dos plantas.",
    "schedule": [
      {
        "day": "viernes",
        "hours": "0:00–5:0023:00–24:00"
      },
      {
        "day": "sábado",
        "hours": "0:00–6:0023:00–24:00"
      },
      {
        "day": "domingo",
        "hours": "0:00–6:00"
      },
      {
        "day": "lunes",
        "hours": "Cerrado"
      },
      {
        "day": "martes",
        "hours": "Cerrado"
      },
      {
        "day": "miércoles",
        "hours": "Cerrado"
      },
      {
        "day": "jueves",
        "hours": "23:00–24:00"
      }
    ]
  },
  {
    "name": "Maison Close Barcelona",
    "category": "Club de entretenimiento para adultos",
    "address": "Pg. de Gràcia, 123, bajos, Gracia, 08008 Barcelona",
    "website": "maisonclose.com",
    "phone": "626242275",
    "city": "Barcelona",
    "auxiliar": "Amigable con la comunidad LGTBI+",
    "reviews_rating": "4.3",
    "num_reviews": "57",
    "description": "NOT_FOUND",
    "schedule": "NOT_FOUND"
  },
  {
    "name": "SAWU",
    "category": "Lounge",
    "address": "Travessera de Gràcia, 276, Gràcia, 08025 Barcelona",
    "website": "NO_WEBSITE",
    "phone": "NO_PHONE",
    "city": "NO_CITY",
    "auxiliar": "NOT_FOUND",
    "reviews_rating": "NOT_FOUND",
    "num_reviews": "",
    "description": "NOT_FOUND",
    "schedule": [
      {
        "day": "viernes",
        "hours": "17:00–3:00"
      },
      {
        "day": "sábado",
        "hours": "17:00–3:00"
      },
      {
        "day": "domingo",
        "hours": "17:00–2:30"
      },
      {
        "day": "lunes",
        "hours": "17:00–2:30"
      },
      {
        "day": "martes",
        "hours": "17:00–2:30"
      },
      {
        "day": "miércoles",
        "hours": "17:00–2:30"
      },
      {
        "day": "jueves",
        "hours": "17:00–2:30"
      }
    ]
  },
  {
    "name": "Canela Dance Club",
    "category": "Discoteca",
    "address": "Carrer de Ca l'Alegre de Dalt, 55, Gràcia, 08024 Barcelona",
    "website": "NO_WEBSITE",
    "phone": "NO_PHONE",
    "city": "NO_CITY",
    "auxiliar": "NOT_FOUND",
    "reviews_rating": "3.4",
    "num_reviews": "595",
    "description": "Taburetes bajos, ambiente de baile e iluminación de colores en discoteca con rumba y música colombiana.",
    "schedule": [
      {
        "day": "viernes",
        "hours": "0:00–6:00"
      },
      {
        "day": "sábado",
        "hours": "0:00–6:00"
      },
      {
        "day": "domingo",
        "hours": "Cerrado"
      },
      {
        "day": "lunes",
        "hours": "Cerrado"
      },
      {
        "day": "martes",
        "hours": "Cerrado"
      },
      {
        "day": "miércoles",
        "hours": "Cerrado"
      },
      {
        "day": "jueves",
        "hours": "Cerrado"
      }
    ]
  },
  {
    "name": "CASA FIGARI // Bar de Jazz",
    "category": "Club de jazz",
    "address": "Carrer del Torrent de l'Olla, 141, Gràcia, 08012 Barcelona",
    "website": "casafigari.com",
    "phone": "930049975",
    "city": "Barcelona",
    "auxiliar": "Amigable con la comunidad LGTBI+",
    "reviews_rating": "4.5",
    "num_reviews": "531",
    "description": "NOT_FOUND",
    "schedule": [
      {
        "day": "viernes",
        "hours": "20:00–2:30"
      },
      {
        "day": "sábado",
        "hours": "20:00–2:30"
      },
      {
        "day": "domingo",
        "hours": "Cerrado"
      },
      {
        "day": "lunes",
        "hours": "Cerrado"
      },
      {
        "day": "martes",
        "hours": "20:00–2:00"
      },
      {
        "day": "miércoles",
        "hours": "20:00–2:00"
      },
      {
        "day": "jueves",
        "hours": "20:00–2:00"
      }
    ]
  },
  {
    "name": "Carolines",
    "category": "Club nocturno",
    "address": "NOT_FOUND",
    "website": "Pl. del Diamant, Gràcia, 08012 Barcelona",
    "phone": "NO_PHONE",
    "city": "Barcelona",
    "auxiliar": "NOT_FOUND",
    "reviews_rating": "3.0",
    "num_reviews": "1",
    "description": "NOT_FOUND",
    "schedule": "NOT_FOUND"
  },
  {
    "name": "4 lovers",
    "category": "Club musical",
    "address": "Carrer de Còrsega, 327, Gràcia, 08037 Barcelona",
    "website": "fourvenues.com",
    "phone": "NO_PHONE",
    "city": "NO_CITY",
    "auxiliar": "NOT_FOUND",
    "reviews_rating": "NOT_FOUND",
    "num_reviews": "",
    "description": "NOT_FOUND",
    "schedule": [
      {
        "day": "viernes",
        "hours": "Cerrado"
      },
      {
        "day": "sábado",
        "hours": "23:30–24:00"
      },
      {
        "day": "domingo",
        "hours": "0:00–6:00"
      },
      {
        "day": "lunes",
        "hours": "Cerrado"
      },
      {
        "day": "martes",
        "hours": "Cerrado"
      },
      {
        "day": "miércoles",
        "hours": "Cerrado"
      },
      {
        "day": "jueves",
        "hours": "Cerrado"
      }
    ]
  },
  {
    "name": "Vertigo Club",
    "category": "Discoteca",
    "address": "Carrer de Còrsega, 327, Gràcia, 08037 Barcelona",
    "website": "instagram.com",
    "phone": "NO_PHONE",
    "city": "NO_CITY",
    "auxiliar": "NOT_FOUND",
    "reviews_rating": "3.7",
    "num_reviews": "38",
    "description": "NOT_FOUND",
    "schedule": [
      {
        "day": "viernes",
        "hours": "0:00–6:00"
      },
      {
        "day": "sábado",
        "hours": "Cerrado"
      },
      {
        "day": "domingo",
        "hours": "Cerrado"
      },
      {
        "day": "lunes",
        "hours": "Cerrado"
      },
      {
        "day": "martes",
        "hours": "Cerrado"
      },
      {
        "day": "miércoles",
        "hours": "Cerrado"
      },
      {
        "day": "jueves",
        "hours": "Cerrado"
      }
    ]
  },
  {
    "name": "Sala Imperator",
    "category": "Discoteca",
    "address": "Carrer de Còrsega, 327, Bajos, Gracia, 08037 Barcelona",
    "website": "NO_WEBSITE",
    "phone": "NO_PHONE",
    "city": "NO_CITY",
    "auxiliar": "NOT_FOUND",
    "reviews_rating": "3.4",
    "num_reviews": "47",
    "description": "NOT_FOUND",
    "schedule": [
      {
        "day": "viernes",
        "hours": "Cerrado"
      },
      {
        "day": "sábado",
        "hours": "18:30–22:00"
      },
      {
        "day": "domingo",
        "hours": "18:30–24:00"
      },
      {
        "day": "lunes",
        "hours": "Cerrado"
      },
      {
        "day": "martes",
        "hours": "Cerrado"
      },
      {
        "day": "miércoles",
        "hours": "18:30–24:00"
      },
      {
        "day": "jueves",
        "hours": "Cerrado"
      }
    ]
  },
  {
    "name": "Plan B | Culture club",
    "category": "Asociación sociocultural",
    "address": "Carrer de l'Or, 25, Gràcia, 08012 Barcelona",
    "website": "NO_WEBSITE",
    "phone": "NO_PHONE",
    "city": "NO_CITY",
    "auxiliar": "NOT_FOUND",
    "reviews_rating": "4.8",
    "num_reviews": "24",
    "description": "NOT_FOUND",
    "schedule": [
      {
        "day": "viernes",
        "hours": "Abierto 24 horas"
      },
      {
        "day": "sábado",
        "hours": "Abierto 24 horas"
      },
      {
        "day": "domingo",
        "hours": "Abierto 24 horas"
      },
      {
        "day": "lunes",
        "hours": "Abierto 24 horas"
      },
      {
        "day": "martes",
        "hours": "Abierto 24 horas"
      },
      {
        "day": "miércoles",
        "hours": "Abierto 24 horas"
      },
      {
        "day": "jueves",
        "hours": "Abierto 24 horas"
      }
    ]
  },
  {
    "name": "Soda Acústic",
    "category": "Club de jazz",
    "address": "Carrer de les Guilleries, 6, Gràcia, 08012 Barcelona",
    "website": "soda.cat",
    "phone": "930165590",
    "city": "Barcelona",
    "auxiliar": "NOT_FOUND",
    "reviews_rating": "4.4",
    "num_reviews": "616",
    "description": "Bar acogedor de estilo retro con conciertos de artistas locales de jazz, blues y otros géneros musicales.",
    "schedule": [
      {
        "day": "viernes",
        "hours": "20:00–3:00"
      },
      {
        "day": "sábado",
        "hours": "20:00–3:00"
      },
      {
        "day": "domingo",
        "hours": "Cerrado"
      },
      {
        "day": "lunes",
        "hours": "Cerrado"
      },
      {
        "day": "martes",
        "hours": "20:00–2:00"
      },
      {
        "day": "miércoles",
        "hours": "20:00–2:00"
      },
      {
        "day": "jueves",
        "hours": "20:00–2:30"
      }
    ]
  },
  {
    "name": "WOODY",
    "category": "Bar",
    "address": "Plaça del Sol, 7, Gràcia, 08012 Barcelona",
    "website": "facebook.com",
    "phone": "625597645",
    "city": "Barcelona",
    "auxiliar": "Reclamar esta empresa",
    "reviews_rating": "3.1",
    "num_reviews": "74",
    "description": "Música jazz y cócteles en bar de copas revestido en madera con carteles de cine que sirve también tapas.",
    "schedule": [
      {
        "day": "viernes",
        "hours": "18:00–3:00"
      },
      {
        "day": "sábado",
        "hours": "18:00–3:00"
      },
      {
        "day": "domingo",
        "hours": "18:00–1:00"
      },
      {
        "day": "lunes",
        "hours": "18:00–1:00"
      },
      {
        "day": "martes",
        "hours": "18:00–1:00"
      },
      {
        "day": "miércoles",
        "hours": "18:00–1:00"
      },
      {
        "day": "jueves",
        "hours": "18:00–1:00"
      }
    ]
  },
  {
    "name": "Bobby Gin",
    "category": "Coctelería",
    "address": "Carrer de Francisco Giner, 47, Gràcia, 08012 Barcelona",
    "website": "bobbygin.com",
    "phone": "933681892",
    "city": "Barcelona",
    "auxiliar": "Menú",
    "reviews_rating": "4.3",
    "num_reviews": "1099",
    "description": "Sus gin-tonics con ginebra infusionada casera son el principal reclamo de este pub sofisticado y bohemio.",
    "schedule": [
      {
        "day": "viernes",
        "hours": "19:00–3:00"
      },
      {
        "day": "sábado",
        "hours": "19:00–3:00"
      },
      {
        "day": "domingo",
        "hours": "19:00–2:00"
      },
      {
        "day": "lunes",
        "hours": "19:00–2:00"
      },
      {
        "day": "martes",
        "hours": "19:00–2:00"
      },
      {
        "day": "miércoles",
        "hours": "19:00–2:00"
      },
      {
        "day": "jueves",
        "hours": "19:00–2:00"
      }
    ]
  },
  {
    "name": "Bar Bodega Quimet",
    "category": "Bar",
    "address": "Carrer de Vic, 23, Gràcia, 08006 Barcelona",
    "website": "barbodegaquimet.weebly.com",
    "phone": "932184189",
    "city": "Barcelona",
    "auxiliar": "NOT_FOUND",
    "reviews_rating": "4.6",
    "num_reviews": "1251",
    "description": "Bar acogedor y tradicional de tapas, frecuentado por lugareños, que sirve vinos de Cataluña y vermú casero.",
    "schedule": [
      {
        "day": "viernes",
        "hours": "10:00–16:0018:00–23:00"
      },
      {
        "day": "sábado",
        "hours": "11:00–16:0018:00–23:00"
      },
      {
        "day": "domingo",
        "hours": "11:00–16:00"
      },
      {
        "day": "lunes",
        "hours": "10:00–16:00"
      },
      {
        "day": "martes",
        "hours": "10:00–16:0018:00–23:00"
      },
      {
        "day": "miércoles",
        "hours": "10:00–16:0018:00–23:00"
      },
      {
        "day": "jueves",
        "hours": "10:00–16:0018:00–23:00"
      }
    ]
  },
  {
    "name": "Bar Falstaff",
    "category": "Bar musical",
    "address": "Carrer de Venus, 3, Gràcia, 08012 Barcelona",
    "website": "barfalstaff.com",
    "phone": "695866246",
    "city": "Barcelona",
    "auxiliar": "Amigable con la comunidad LGTBI+",
    "reviews_rating": "4.2",
    "num_reviews": "396",
    "description": "Bar musical de estilo informal con actuaciones en directo, bailes los fines de semana, cervezas artesanales y elaborados cócteles.",
    "schedule": [
      {
        "day": "viernes",
        "hours": "20:00–3:00"
      },
      {
        "day": "sábado",
        "hours": "20:00–3:00"
      },
      {
        "day": "domingo",
        "hours": "Cerrado"
      },
      {
        "day": "lunes",
        "hours": "Cerrado"
      },
      {
        "day": "martes",
        "hours": "Cerrado"
      },
      {
        "day": "miércoles",
        "hours": "20:30–2:30"
      },
      {
        "day": "jueves",
        "hours": "20:30–2:30"
      }
    ]
  },
  {
    "name": "Bobby Gin",
    "category": "Coctelería",
    "address": "Carrer de Francisco Giner, 47, Gràcia, 08012 Barcelona",
    "website": "bobbygin.com",
    "phone": "933681892",
    "city": "Barcelona",
    "auxiliar": "Menú",
    "reviews_rating": "4.3",
    "num_reviews": "1099",
    "description": "Sus gin-tonics con ginebra infusionada casera son el principal reclamo de este pub sofisticado y bohemio.",
    "schedule": [
      {
        "day": "viernes",
        "hours": "19:00–3:00"
      },
      {
        "day": "sábado",
        "hours": "19:00–3:00"
      },
      {
        "day": "domingo",
        "hours": "19:00–2:00"
      },
      {
        "day": "lunes",
        "hours": "19:00–2:00"
      },
      {
        "day": "martes",
        "hours": "19:00–2:00"
      },
      {
        "day": "miércoles",
        "hours": "19:00–2:00"
      },
      {
        "day": "jueves",
        "hours": "19:00–2:00"
      }
    ]
  },
  {
    "name": "ELEPHANTA GINBAR COCTELERIA",
    "category": "Coctelería",
    "address": "Carrer del Torrent d'En Vidalet, 37, Gràcia, 08012 Barcelona",
    "website": "elephanta.cat",
    "phone": "932376906",
    "city": "Barcelona",
    "auxiliar": "Menú",
    "reviews_rating": "4.6",
    "num_reviews": "1156",
    "description": "Bar vistoso con toques de estilo retro y piedra vista, donde se ofrecen cócteles artesanales con ginebra.",
    "schedule": [
      {
        "day": "viernes",
        "hours": "18:00–3:00"
      },
      {
        "day": "sábado",
        "hours": "18:00–3:00"
      },
      {
        "day": "domingo",
        "hours": "17:00–23:30"
      },
      {
        "day": "lunes",
        "hours": "18:00–1:30"
      },
      {
        "day": "martes",
        "hours": "18:00–1:30"
      },
      {
        "day": "miércoles",
        "hours": "18:00–1:30"
      },
      {
        "day": "jueves",
        "hours": "18:00–2:30"
      }
    ]
  },
  {
    "name": "Vertigo Club",
    "category": "Discoteca",
    "address": "Carrer de Còrsega, 327, Gràcia, 08037 Barcelona",
    "website": "instagram.com",
    "phone": "NO_PHONE",
    "city": "NO_CITY",
    "auxiliar": "NOT_FOUND",
    "reviews_rating": "3.7",
    "num_reviews": "38",
    "description": "NOT_FOUND",
    "schedule": [
      {
        "day": "viernes",
        "hours": "0:00–6:00"
      },
      {
        "day": "sábado",
        "hours": "Cerrado"
      },
      {
        "day": "domingo",
        "hours": "Cerrado"
      },
      {
        "day": "lunes",
        "hours": "Cerrado"
      },
      {
        "day": "martes",
        "hours": "Cerrado"
      },
      {
        "day": "miércoles",
        "hours": "Cerrado"
      },
      {
        "day": "jueves",
        "hours": "Cerrado"
      }
    ]
  },
  {
    "name": "Chatelet",
    "category": "Bar",
    "address": "Carrer de Torrijos, 54, Gràcia, 08012 Barcelona",
    "website": "NO_WEBSITE",
    "phone": "NO_PHONE",
    "city": "NO_CITY",
    "auxiliar": "NOT_FOUND",
    "reviews_rating": "4.1",
    "num_reviews": "1282",
    "description": "Bar moderno con decoración llamativa, cócteles especiales, nachos y otros tentempiés.",
    "schedule": [
      {
        "day": "viernes",
        "hours": "19:00–3:00"
      },
      {
        "day": "sábado",
        "hours": "19:00–3:00"
      },
      {
        "day": "domingo",
        "hours": "19:00–1:30"
      },
      {
        "day": "lunes",
        "hours": "19:00–1:30"
      },
      {
        "day": "martes",
        "hours": "19:00–1:30"
      },
      {
        "day": "miércoles",
        "hours": "19:00–1:30"
      },
      {
        "day": "jueves",
        "hours": "19:00–1:30"
      }
    ]
  },
  {
    "name": "Sol de NIT",
    "category": "Bar",
    "address": "Plaça del Sol, 9, Gràcia, 08012 Barcelona",
    "website": "sol-de-nit.eltenedor.rest",
    "phone": "932373937",
    "city": "Barcelona",
    "auxiliar": "Reclamar esta empresa",
    "reviews_rating": "3.6",
    "num_reviews": "972",
    "description": "Tapas, ensaladas, raciones y cócteles en un estrecho bar con decoración ecléctica, que trabaja con ingredientes de temporada.",
    "schedule": [
      {
        "day": "viernes",
        "hours": "11:00–3:00"
      },
      {
        "day": "sábado",
        "hours": "11:00–3:00"
      },
      {
        "day": "domingo",
        "hours": "11:00–2:30"
      },
      {
        "day": "lunes",
        "hours": "11:00–2:30"
      },
      {
        "day": "martes",
        "hours": "11:00–2:30"
      },
      {
        "day": "miércoles",
        "hours": "11:00–2:30"
      },
      {
        "day": "jueves",
        "hours": "11:00–2:30"
      }
    ]
  },
  {
    "name": "Bar Raïm",
    "category": "Bar",
    "address": "Carrer de Siracusa, 4, Gràcia, 08012 Barcelona",
    "website": "NO_WEBSITE",
    "phone": "NO_PHONE",
    "city": "NO_CITY",
    "auxiliar": "NOT_FOUND",
    "reviews_rating": "4.3",
    "num_reviews": "465",
    "description": "NOT_FOUND",
    "schedule": [
      {
        "day": "viernes",
        "hours": "22:00–2:00"
      },
      {
        "day": "sábado",
        "hours": "22:00–2:00"
      },
      {
        "day": "domingo",
        "hours": "Cerrado"
      },
      {
        "day": "lunes",
        "hours": "Cerrado"
      },
      {
        "day": "martes",
        "hours": "Cerrado"
      },
      {
        "day": "miércoles",
        "hours": "Cerrado"
      },
      {
        "day": "jueves",
        "hours": "22:00–1:30"
      }
    ]
  },
  {
    "name": "Vermuteria del Tano",
    "category": "Bar",
    "address": "Carrer de Joan Blanques, 17, Gràcia, 08012 Barcelona",
    "website": "facebook.com",
    "phone": "932131058",
    "city": "Barcelona",
    "auxiliar": "Reclamar esta empresa",
    "reviews_rating": "4.5",
    "num_reviews": "947",
    "description": "Recogida y popular vermutería de toda la vida, con toneles a la vista, que sirve aperitivos clásicos.",
    "schedule": [
      {
        "day": "viernes",
        "hours": "9:00–21:00"
      },
      {
        "day": "sábado",
        "hours": "12:00–16:00"
      },
      {
        "day": "domingo",
        "hours": "12:00–16:00"
      },
      {
        "day": "lunes",
        "hours": "Cerrado"
      },
      {
        "day": "martes",
        "hours": "9:00–21:00"
      },
      {
        "day": "miércoles",
        "hours": "9:00–21:00"
      },
      {
        "day": "jueves",
        "hours": "9:00–21:00"
      }
    ]
  },
  {
    "name": "Bar El OtrO",
    "category": "Bar",
    "address": "Travessera de Gràcia, 167, Gràcia, 08012 Barcelona",
    "website": "barelotro.com",
    "phone": "931478833",
    "city": "Barcelona",
    "auxiliar": "NOT_FOUND",
    "reviews_rating": "4.1",
    "num_reviews": "873",
    "description": "Cócteles, incluidas opciones congeladas, cervezas y tapas servidos en un bar bohemio pintado de colores vivos.",
    "schedule": [
      {
        "day": "viernes",
        "hours": "18:00–3:00"
      },
      {
        "day": "sábado",
        "hours": "18:00–3:00"
      },
      {
        "day": "domingo",
        "hours": "18:00–2:30"
      },
      {
        "day": "lunes",
        "hours": "18:00–2:30"
      },
      {
        "day": "martes",
        "hours": "18:00–2:30"
      },
      {
        "day": "miércoles",
        "hours": "18:00–2:30"
      },
      {
        "day": "jueves",
        "hours": "18:00–2:30"
      }
    ]
  },
  {
    "name": "Canela Dance Club",
    "category": "Discoteca",
    "address": "Carrer de Ca l'Alegre de Dalt, 55, Gràcia, 08024 Barcelona",
    "website": "NO_WEBSITE",
    "phone": "NO_PHONE",
    "city": "NO_CITY",
    "auxiliar": "NOT_FOUND",
    "reviews_rating": "3.4",
    "num_reviews": "595",
    "description": "Taburetes bajos, ambiente de baile e iluminación de colores en discoteca con rumba y música colombiana.",
    "schedule": [
      {
        "day": "viernes",
        "hours": "0:00–6:00"
      },
      {
        "day": "sábado",
        "hours": "0:00–6:00"
      },
      {
        "day": "domingo",
        "hours": "Cerrado"
      },
      {
        "day": "lunes",
        "hours": "Cerrado"
      },
      {
        "day": "martes",
        "hours": "Cerrado"
      },
      {
        "day": "miércoles",
        "hours": "Cerrado"
      },
      {
        "day": "jueves",
        "hours": "Cerrado"
      }
    ]
  },
  {
    "name": "WOODY",
    "category": "Bar",
    "address": "Plaça del Sol, 7, Gràcia, 08012 Barcelona",
    "website": "facebook.com",
    "phone": "625597645",
    "city": "Barcelona",
    "auxiliar": "Reclamar esta empresa",
    "reviews_rating": "3.1",
    "num_reviews": "74",
    "description": "Música jazz y cócteles en bar de copas revestido en madera con carteles de cine que sirve también tapas.",
    "schedule": [
      {
        "day": "viernes",
        "hours": "18:00–3:00"
      },
      {
        "day": "sábado",
        "hours": "18:00–3:00"
      },
      {
        "day": "domingo",
        "hours": "18:00–1:00"
      },
      {
        "day": "lunes",
        "hours": "18:00–1:00"
      },
      {
        "day": "martes",
        "hours": "18:00–1:00"
      },
      {
        "day": "miércoles",
        "hours": "18:00–1:00"
      },
      {
        "day": "jueves",
        "hours": "18:00–1:00"
      }
    ]
  },
  {
    "name": "De Copas",
    "category": "Bar",
    "address": "Carrer de Bruniquer, 65, Gràcia, 08024 Barcelona",
    "website": "NO_WEBSITE",
    "phone": "NO_PHONE",
    "city": "NO_CITY",
    "auxiliar": "NOT_FOUND",
    "reviews_rating": "3.8",
    "num_reviews": "469",
    "description": "NOT_FOUND",
    "schedule": [
      {
        "day": "viernes",
        "hours": "18:00–3:00"
      },
      {
        "day": "sábado",
        "hours": "18:00–3:00"
      },
      {
        "day": "domingo",
        "hours": "18:00–2:00"
      },
      {
        "day": "lunes",
        "hours": "18:00–2:00"
      },
      {
        "day": "martes",
        "hours": "18:00–2:00"
      },
      {
        "day": "miércoles",
        "hours": "18:00–2:00"
      },
      {
        "day": "jueves",
        "hours": "18:00–2:00"
      }
    ]
  },
  {
    "name": "Almayer Cocktail Bar",
    "category": "Bar",
    "address": "Carrer de Francisco Giner, 36, Local 1, Gracia, 08012 Barcelona",
    "website": "NO_WEBSITE",
    "phone": "NO_PHONE",
    "city": "NO_CITY",
    "auxiliar": "NOT_FOUND",
    "reviews_rating": "4.7",
    "num_reviews": "341",
    "description": "NOT_FOUND",
    "schedule": [
      {
        "day": "viernes",
        "hours": "18:00–3:00"
      },
      {
        "day": "sábado",
        "hours": "18:00–3:00"
      },
      {
        "day": "domingo",
        "hours": "18:00–1:00"
      },
      {
        "day": "lunes",
        "hours": "18:00–1:00"
      },
      {
        "day": "martes",
        "hours": "18:00–1:00"
      },
      {
        "day": "miércoles",
        "hours": "18:00–1:00"
      },
      {
        "day": "jueves",
        "hours": "18:00–1:00"
      }
    ]
  },
  {
    "name": "Bloody Mary Cocktail Bar",
    "category": "Coctelería",
    "address": "Carrer de Ferrer de Blanes, 3, Gràcia, 08012 Barcelona",
    "website": "bloodymarybcn.es",
    "phone": "934613985",
    "city": "NO_CITY",
    "auxiliar": "Menú",
    "reviews_rating": "4.7",
    "num_reviews": "1073",
    "description": "Combinados clásicos y creativos, brochetas y raciones en una coctelería acogedora de aire retro.",
    "schedule": [
      {
        "day": "viernes",
        "hours": "19:00–3:00"
      },
      {
        "day": "sábado",
        "hours": "16:00–3:00"
      },
      {
        "day": "domingo",
        "hours": "16:00–1:00"
      },
      {
        "day": "lunes",
        "hours": "19:00–1:00"
      },
      {
        "day": "martes",
        "hours": "19:00–2:00"
      },
      {
        "day": "miércoles",
        "hours": "19:00–2:00"
      },
      {
        "day": "jueves",
        "hours": "19:00–2:00"
      }
    ]
  },
  {
    "name": "14 De La Rosa",
    "category": "Coctelería",
    "address": "Carrer de Ferrer de Blanes, 3, Gràcia, 08012 Barcelona",
    "website": "bloodymarybcn.es",
    "phone": "934613985",
    "city": "NO_CITY",
    "auxiliar": "Menú",
    "reviews_rating": "4.7",
    "num_reviews": "1073",
    "description": "Combinados clásicos y creativos, brochetas y raciones en una coctelería acogedora de aire retro.",
    "schedule": [
      {
        "day": "viernes",
        "hours": "19:00–3:00"
      },
      {
        "day": "sábado",
        "hours": "16:00–3:00"
      },
      {
        "day": "domingo",
        "hours": "16:00–1:00"
      },
      {
        "day": "lunes",
        "hours": "19:00–1:00"
      },
      {
        "day": "martes",
        "hours": "19:00–2:00"
      },
      {
        "day": "miércoles",
        "hours": "19:00–2:00"
      },
      {
        "day": "jueves",
        "hours": "19:00–2:00"
      }
    ]
  },
  {
    "name": "El Bosque Salvaje y Mutante - Escape Room y Cumpleaños para Niños",
    "category": "Centro de ocio infantil",
    "address": "Passatge de Nogués, 19, Local, Gracia, 08025 Barcelona",
    "website": "elbosquemutante.com",
    "phone": "640805385",
    "city": "Barcelona",
    "auxiliar": "NOT_FOUND",
    "reviews_rating": "4.7",
    "num_reviews": "79",
    "description": "NOT_FOUND",
    "schedule": [
      {
        "day": "viernes",
        "hours": "10:00–22:00"
      },
      {
        "day": "sábado",
        "hours": "10:00–22:00"
      },
      {
        "day": "domingo",
        "hours": "10:00–22:00"
      },
      {
        "day": "lunes",
        "hours": "10:00–22:00"
      },
      {
        "day": "martes",
        "hours": "10:00–22:00"
      },
      {
        "day": "miércoles",
        "hours": "10:00–22:00"
      },
      {
        "day": "jueves",
        "hours": "10:00–22:00"
      }
    ]
  },
  {
    "name": "The PubCrawl Company BARCELONA",
    "category": "Atracción turística",
    "address": "Carrer de Còrsega, 373, Gràcia, 08037 Barcelona",
    "website": "thepubcrawlcompany.com",
    "phone": "636415999",
    "city": "Barcelona",
    "auxiliar": "Se encuentra en: Generator Hostel Barcelona",
    "reviews_rating": "4.6",
    "num_reviews": "18",
    "description": "NOT_FOUND",
    "schedule": [
      {
        "day": "viernes",
        "hours": "22:00–3:00"
      },
      {
        "day": "sábado",
        "hours": "22:00–3:00"
      },
      {
        "day": "domingo",
        "hours": "22:00–3:00"
      },
      {
        "day": "lunes",
        "hours": "Cerrado"
      },
      {
        "day": "martes",
        "hours": "Cerrado"
      },
      {
        "day": "miércoles",
        "hours": "22:00–3:00"
      },
      {
        "day": "jueves",
        "hours": "22:00–3:00"
      }
    ]
  },
  {
    "name": "La Rovira",
    "category": "Bar de tapas",
    "address": "Carrer de Rabassa, 23, Gràcia, 08024 Barcelona",
    "website": "facebook.com",
    "phone": "934638788",
    "city": "Barcelona",
    "auxiliar": "NOT_FOUND",
    "reviews_rating": "4.4",
    "num_reviews": "2670",
    "description": "Taberna acogedora, con terraza y cervezas artesanales, que sirve tapas y bocadillos durante todo el día.",
    "schedule": [
      {
        "day": "viernes",
        "hours": "9:00–1:00"
      },
      {
        "day": "sábado",
        "hours": "9:00–1:00"
      },
      {
        "day": "domingo",
        "hours": "9:00–24:00"
      },
      {
        "day": "lunes",
        "hours": "9:00–24:00"
      },
      {
        "day": "martes",
        "hours": "9:00–24:00"
      },
      {
        "day": "miércoles",
        "hours": "9:00–24:00"
      },
      {
        "day": "jueves",
        "hours": "9:00–24:00"
      }
    ]
  },
  {
    "name": "Bar Viu",
    "category": "Bar de tapas",
    "address": "Carrer de Rabassa, 23, Gràcia, 08024 Barcelona",
    "website": "facebook.com",
    "phone": "934638788",
    "city": "Barcelona",
    "auxiliar": "NOT_FOUND",
    "reviews_rating": "4.4",
    "num_reviews": "2670",
    "description": "Taberna acogedora, con terraza y cervezas artesanales, que sirve tapas y bocadillos durante todo el día.",
    "schedule": [
      {
        "day": "viernes",
        "hours": "9:00–1:00"
      },
      {
        "day": "sábado",
        "hours": "9:00–1:00"
      },
      {
        "day": "domingo",
        "hours": "9:00–24:00"
      },
      {
        "day": "lunes",
        "hours": "9:00–24:00"
      },
      {
        "day": "martes",
        "hours": "9:00–24:00"
      },
      {
        "day": "miércoles",
        "hours": "9:00–24:00"
      },
      {
        "day": "jueves",
        "hours": "9:00–24:00"
      }
    ]
  },
  {
    "name": "Bar Viu",
    "category": "Bar",
    "address": "Carrer de la Perla, 26, Gràcia, 08012 Barcelona",
    "website": "m.facebook.com",
    "phone": "937609458",
    "city": "Barcelona",
    "auxiliar": "NOT_FOUND",
    "reviews_rating": "4.5",
    "num_reviews": "492",
    "description": "Local pequeño y animado lleno de cuadros, donde tomar tapas clásicas, cerveza y vino con música en directo.",
    "schedule": [
      {
        "day": "viernes",
        "hours": "18:00–2:30"
      },
      {
        "day": "sábado",
        "hours": "18:00–2:30"
      },
      {
        "day": "domingo",
        "hours": "Cerrado"
      },
      {
        "day": "lunes",
        "hours": "Cerrado"
      },
      {
        "day": "martes",
        "hours": "18:00–1:00"
      },
      {
        "day": "miércoles",
        "hours": "18:00–1:00"
      },
      {
        "day": "jueves",
        "hours": "18:00–2:30"
      }
    ]
  },
  {
    "name": "La Cerveseria | TAPAS • SPORTS BAR • TERRAZA",
    "category": "Bar de tapas",
    "address": "Plaça Revolució de Setembre 1868, 3, Gràcia, 08012 Barcelona",
    "website": "lacerveseria.com",
    "phone": "932139533",
    "city": "NO_CITY",
    "auxiliar": "Menú",
    "reviews_rating": "3.0",
    "num_reviews": "1794",
    "description": "Tapas y menú mediterráneo casero en bar familiar con producto local, terraza y pantallas para ver fútbol.",
    "schedule": [
      {
        "day": "viernes",
        "hours": "12:00–24:00"
      },
      {
        "day": "sábado",
        "hours": "12:00–24:00"
      },
      {
        "day": "domingo",
        "hours": "12:00–24:00"
      },
      {
        "day": "lunes",
        "hours": "12:00–24:00"
      },
      {
        "day": "martes",
        "hours": "12:00–24:00"
      },
      {
        "day": "miércoles",
        "hours": "12:00–24:00"
      },
      {
        "day": "jueves",
        "hours": "12:00–24:00"
      }
    ]
  },
  {
    "name": "La Trini | TAPAS BARCELONA",
    "category": "Restaurante",
    "address": "Carrer de Verdi, 30, Gràcia, 08012 Barcelona",
    "website": "latrini30.com",
    "phone": "932370335",
    "city": "Barcelona",
    "auxiliar": "Hacer un pedido",
    "reviews_rating": "4.2",
    "num_reviews": "1979",
    "description": "Platos catalanes, cerveza artesanal y vermú en un bar acogedor con paredes de azulejos y una barra amplia.",
    "schedule": [
      {
        "day": "viernes",
        "hours": "13:00–24:00"
      },
      {
        "day": "sábado",
        "hours": "13:00–24:00"
      },
      {
        "day": "domingo",
        "hours": "13:00–24:00"
      },
      {
        "day": "lunes",
        "hours": "13:00–24:00"
      },
      {
        "day": "martes",
        "hours": "13:00–24:00"
      },
      {
        "day": "miércoles",
        "hours": "13:00–24:00"
      },
      {
        "day": "jueves",
        "hours": "13:00–24:00"
      }
    ]
  },
  {
    "name": "Bar Salvatge",
    "category": "Vinoteca",
    "address": "Carrer de Verdi, 50, Gràcia, 08012 Barcelona",
    "website": "barsalvatge.com",
    "phone": "932529767",
    "city": "Barcelona",
    "auxiliar": "NOT_FOUND",
    "reviews_rating": "4.1",
    "num_reviews": "817",
    "description": "Vinos orgánicos y platos y quesos locales en un bar de estilo rústico chic.",
    "schedule": [
      {
        "day": "viernes",
        "hours": "18:00–0:30"
      },
      {
        "day": "sábado",
        "hours": "13:00–1:00"
      },
      {
        "day": "domingo",
        "hours": "13:00–0:30"
      },
      {
        "day": "lunes",
        "hours": "18:00–0:30"
      },
      {
        "day": "martes",
        "hours": "18:00–0:30"
      },
      {
        "day": "miércoles",
        "hours": "18:00–0:30"
      },
      {
        "day": "jueves",
        "hours": "18:00–0:30"
      }
    ]
  },
  {
    "name": "Entre Hores - Tapas, Vermut & Cocktails",
    "category": "Restaurante",
    "address": "Carrer de Verdi, 4, 6, Gràcia, 08012 Barcelona",
    "website": "entrehores.com",
    "phone": "930073784",
    "city": "Barcelona",
    "auxiliar": "Menú",
    "reviews_rating": "4.5",
    "num_reviews": "645",
    "description": "Tapas españoles y cervezas artesanales en un bar pequeño y animado con una barra a pie de calle.",
    "schedule": [
      {
        "day": "viernes",
        "hours": "18:30–1:30"
      },
      {
        "day": "sábado",
        "hours": "13:00–1:30"
      },
      {
        "day": "domingo",
        "hours": "13:00–0:30"
      },
      {
        "day": "lunes",
        "hours": "18:30–0:30"
      },
      {
        "day": "martes",
        "hours": "18:30–0:30"
      },
      {
        "day": "miércoles",
        "hours": "18:30–0:30"
      },
      {
        "day": "jueves",
        "hours": "18:30–0:30"
      }
    ]
  },
  {
    "name": "Restaurante Bar Casa Vall",
    "category": "Bar de tapas",
    "address": "Plaça de Rovira i Trias, 3, Gràcia, 08024 Barcelona",
    "website": "NO_WEBSITE",
    "phone": "NO_PHONE",
    "city": "NO_CITY",
    "auxiliar": "NOT_FOUND",
    "reviews_rating": "3.8",
    "num_reviews": "1251",
    "description": "NOT_FOUND",
    "schedule": [
      {
        "day": "viernes",
        "hours": "8:30–1:00"
      },
      {
        "day": "sábado",
        "hours": "10:00–1:00"
      },
      {
        "day": "domingo",
        "hours": "10:00–24:00"
      },
      {
        "day": "lunes",
        "hours": "8:30–24:00"
      },
      {
        "day": "martes",
        "hours": "8:30–24:00"
      },
      {
        "day": "miércoles",
        "hours": "8:30–24:00"
      },
      {
        "day": "jueves",
        "hours": "8:30–24:00"
      }
    ]
  },
  {
    "name": "Art Gaudí Regal S.L",
    "category": "Bar de alterne",
    "address": "Carrer de Larrard, 44, Gràcia, 08024 Barcelona",
    "website": "NO_WEBSITE",
    "phone": "NO_PHONE",
    "city": "NO_CITY",
    "auxiliar": "NOT_FOUND",
    "reviews_rating": "4.5",
    "num_reviews": "2",
    "description": "NOT_FOUND",
    "schedule": "NOT_FOUND"
  },
  {
    "name": "La Guarida de Gracia",
    "category": "Discoteca",
    "address": "Ramón Trias Fargas, 2, 08005, Carrer de Lincoln, 15, 08006 Barcelona",
    "website": "laguaridadegracia.com",
    "phone": "NO_PHONE",
    "city": "NO_CITY",
    "auxiliar": "NOT_FOUND",
    "reviews_rating": "3.9",
    "num_reviews": "10",
    "description": "NOT_FOUND",
    "schedule": "NOT_FOUND"
  },
  {
    "name": "Bar Restaurant Xuclet",
    "category": "Bar",
    "address": "Carrer de Ventalló, 37, Gràcia, 08025 Barcelona",
    "website": "NO_WEBSITE",
    "phone": "NO_PHONE",
    "city": "NO_CITY",
    "auxiliar": "NOT_FOUND",
    "reviews_rating": "3.8",
    "num_reviews": "36",
    "description": "NOT_FOUND",
    "schedule": [
      {
        "day": "viernes",
        "hours": "8:00–21:00"
      },
      {
        "day": "sábado",
        "hours": "8:00–21:00"
      },
      {
        "day": "domingo",
        "hours": "9:00–20:00"
      },
      {
        "day": "lunes",
        "hours": "8:00–21:00"
      },
      {
        "day": "martes",
        "hours": "8:00–21:00"
      },
      {
        "day": "miércoles",
        "hours": "8:00–21:00"
      },
      {
        "day": "jueves",
        "hours": "8:00–21:00"
      }
    ]
  },
  {
    "name": "MAGIC ESCAPE BARCELONA",
    "category": "Centro de salas de escape",
    "address": "Carrer de Ramón y Cajal, 67, Gràcia, 08012 Barcelona",
    "website": "magicescape.es",
    "phone": "633228649",
    "city": "Barcelona",
    "auxiliar": "NOT_FOUND",
    "reviews_rating": "4.8",
    "num_reviews": "1094",
    "description": "NOT_FOUND",
    "schedule": [
      {
        "day": "viernes",
        "hours": "10:00–21:00"
      },
      {
        "day": "sábado",
        "hours": "10:00–21:00"
      },
      {
        "day": "domingo",
        "hours": "10:00–21:00"
      },
      {
        "day": "lunes",
        "hours": "10:00–21:00"
      },
      {
        "day": "martes",
        "hours": "10:00–21:00"
      },
      {
        "day": "miércoles",
        "hours": "10:00–21:00"
      },
      {
        "day": "jueves",
        "hours": "10:00–21:00"
      }
    ]
  }
]