[{"name":"Sala Razzmatazz","category":"Discoteca","city":"Barcelona","address":"Carrer dels Almog\u00e0vers, 122, Sant Mart\u00ed, 08018 Barcelona","website":"salarazzmatazz.com","email":"NO_EMAIL","phone":"933208200","reviews_rating":4.2,"num_reviews":20729,"description":"Cervezas y copas en una animada discoteca que ofrece conciertos y sesiones de DJs.","schedule":[{"day":"viernes","hours":"0:30\u20135:00"},{"day":"s\u00e1bado","hours":"1:00\u20136:00"},{"day":"domingo","hours":"1:00\u20136:00"},{"day":"lunes","hours":"Cerrado"},{"day":"martes","hours":"Cerrado"},{"day":"mi\u00e9rcoles","hours":"Cerrado"},{"day":"jueves","hours":"0:30\u20135:00"}],"auxiliar(borrar)":"NOT_FOUND","img1":"https:\/\/lh5.googleusercontent.com\/p\/AF1QipN4W2xUHaRaS7UTGvRonJzAIJ_jD7g4io8LyeiR=w122-h92-k-no","img2":"https:\/\/lh5.googleusercontent.com\/p\/AF1QipMIjj9qvuGCfMqHoisRmAVOazbH4APvsH2WrEwJ=w408-h306-k-no"},{"name":"Mirablau","category":"Restaurante de cocina espa\u00f1ola","city":"NO_CITY","address":"Pla\u00e7a del Doctor Andreu, s\/n, Sarri\u00e0-Sant Gervasi, 08035 Barcelona","website":"mirablaubcn.com","email":"mirablau@mirablaubcn.com","phone":"934185879","reviews_rating":4.3,"num_reviews":12043,"description":"Tapas y vinos catalanes en una terraza con vistas a la monta\u00f1a, m\u00fasica dance y ambiente animado por las noches.","schedule":[{"day":"viernes","hours":"0:00\u20133:0011:00\u201324:00"},{"day":"s\u00e1bado","hours":"0:00\u20136:0011:00\u201324:00"},{"day":"domingo","hours":"0:00\u20136:0011:00\u201324:00"},{"day":"lunes","hours":"0:00\u20133:0011:00\u201324:00"},{"day":"martes","hours":"0:00\u20133:0011:00\u201324:00"},{"day":"mi\u00e9rcoles","hours":"0:00\u20133:0011:00\u201324:00"},{"day":"jueves","hours":"0:00\u20133:0011:00\u201324:00"}],"auxiliar(borrar)":"Carta","img1":"https:\/\/lh5.googleusercontent.com\/p\/AF1QipN-w_CGnyxVI2RGz4ZYUo3B808R-yr_3jYpjZ5f=w163-h92-k-no","img2":"https:\/\/lh5.googleusercontent.com\/p\/AF1QipMFPU-N5T3BktjORbEBPQQ_RsscULq0ucrhBG10=w426-h240-k-no"},{"name":"Sala Apolo Barcelona","category":"Discoteca","city":"Barcelona","address":"Carrer Nou de la Rambla, 113, Sants-Montju\u00efc, 08004 Barcelona","website":"sala-apolo.com","email":"curriculum@sala-apolo.com","phone":"934414001","reviews_rating":4.2,"num_reviews":11007,"description":"Gran sala de conciertos de 2 niveles, con 2 bares, fiestas con DJ semanales, actuaciones musicales y eventos.","schedule":[{"day":"viernes","hours":"0:00\u20135:00"},{"day":"s\u00e1bado","hours":"0:00\u20135:00"},{"day":"domingo","hours":"17:00\u20135:00"},{"day":"lunes","hours":"Cerrado"},{"day":"martes","hours":"0:00\u20135:00"},{"day":"mi\u00e9rcoles","hours":"0:00\u20135:00"},{"day":"jueves","hours":"0:00\u20135:00"}],"auxiliar(borrar)":"Servicios","img1":"https:\/\/lh5.googleusercontent.com\/p\/AF1QipNBkSW4ySClg5yDT1AD7sA94KTe8obUgxTlKVp6=w163-h92-k-no","img2":"https:\/\/lh5.googleusercontent.com\/p\/AF1QipOsWYcXAEJtiHzAodsujWhnPWoSmsAakDqwu5DK=w408-h397-k-no"},{"name":"Wolf Barcelona","category":"Discoteca","city":"Barcelona","address":"Carrer dels Almog\u00e0vers, 88, Sant Mart\u00ed, 08018 Barcelona","website":"wolfbarcelona.com","email":"NO_EMAIL","phone":"672707844","reviews_rating":4.3,"num_reviews":7674,"description":"NOT_FOUND","schedule":[{"day":"viernes","hours":"0:00\u20135:00"},{"day":"s\u00e1bado","hours":"0:00\u20136:00"},{"day":"domingo","hours":"0:00\u20136:00"},{"day":"lunes","hours":"Cerrado"},{"day":"martes","hours":"Cerrado"},{"day":"mi\u00e9rcoles","hours":"Cerrado"},{"day":"jueves","hours":"Cerrado"}],"auxiliar(borrar)":"Amigable con la comunidad LGTBI+","img1":"https:\/\/lh5.googleusercontent.com\/p\/AF1QipPA8FIGB5yFfIdDYr1TofDfoucYiMAFIBpfgpY=w154-h92-k-no","img2":"https:\/\/lh3.googleusercontent.com\/p\/AF1QipOyB3XWW8Y6T4aX1d4PqBz9kuLXoB0egzMWOzpp=w426-h240-k-no"},{"name":"Bar El Tom\u00e1s de Sarri\u00e1","category":"Bar de tapas","city":"Barcelona","address":"Carrer Major de Sarri\u00e0, 49, Sarri\u00e0-Sant Gervasi, 08017 Barcelona","website":"eltomasdesarria.com","email":"NO_EMAIL","phone":"932031077","reviews_rating":4.3,"num_reviews":6632,"description":"Bar cl\u00e1sico, especializado en patatas fritas al estilo tradicional con salsa picante, donde se sirven tapas y cerveza artesanal.","schedule":[{"day":"viernes","hours":"12:30\u201316:0018:30\u201322:00"},{"day":"s\u00e1bado","hours":"12:00\u201316:0018:30\u201322:00"},{"day":"domingo","hours":"Cerrado"},{"day":"lunes","hours":"12:30\u201316:0018:30\u201322:00"},{"day":"martes","hours":"12:30\u201316:0018:30\u201322:00"},{"day":"mi\u00e9rcoles","hours":"12:30\u201316:0018:30\u201322:00"},{"day":"jueves","hours":"12:30\u201316:0018:30\u201322:00"}],"auxiliar(borrar)":"NOT_FOUND","img1":"https:\/\/lh5.googleusercontent.com\/p\/AF1QipMwamB6Y6TxDeBE35srsUTbCeOkzbcc5sPVnYdv=w163-h92-k-no","img2":"https:\/\/lh5.googleusercontent.com\/p\/AF1QipMG0zSS6rFcCMeZ1XavyBbemBKTA-sQWmjtboNF=w586-h240-k-no"},{"name":"Luz de Gas Barcelona","category":"Discoteca","city":"Barcelona","address":"C\/ de Muntaner, 246, Sarri\u00e0-Sant Gervasi, 08021 Barcelona","website":"luzdegas.com","email":"comunicacio@luzdegas.com","phone":"932097711","reviews_rating":4.0,"num_reviews":6369,"description":"Sala de conciertos y local nocturno con una decoraci\u00f3n refinada, l\u00e1mparas de ara\u00f1a, escenario y bar.","schedule":[{"day":"viernes","hours":"0:00\u20136:00"},{"day":"s\u00e1bado","hours":"0:00\u20136:00"},{"day":"domingo","hours":"Cerrado"},{"day":"lunes","hours":"Cerrado"},{"day":"martes","hours":"Cerrado"},{"day":"mi\u00e9rcoles","hours":"Cerrado"},{"day":"jueves","hours":"0:00\u20136:00"}],"auxiliar(borrar)":"NOT_FOUND","img1":"https:\/\/lh5.googleusercontent.com\/p\/AF1QipM02QTPvcjW6esK6ca1XOiO8z50yUd5wMxgcsGx=w163-h92-k-no","img2":"NOT_FOUND"},{"name":"Otto Zutz Barcelona","category":"Discoteca","city":"Barcelona","address":"Carrer de Lincoln, 15, Sarri\u00e0-Sant Gervasi, 08006 Barcelona","website":"ottozutz.com","email":"NO_EMAIL","phone":"669266410","reviews_rating":3.2,"num_reviews":4982,"description":"Discoteca con varias salas e iluminaci\u00f3n ambiental, especializada en R&B, hiphop y reguet\u00f3n.","schedule":[{"day":"viernes","hours":"0:00\u20135:0023:55\u201324:00"},{"day":"s\u00e1bado","hours":"0:00\u20136:0018:30\u201324:00"},{"day":"domingo","hours":"0:00\u20136:00"},{"day":"lunes","hours":"Cerrado"},{"day":"martes","hours":"Cerrado"},{"day":"mi\u00e9rcoles","hours":"Cerrado"},{"day":"jueves","hours":"23:55\u201324:00"}],"auxiliar(borrar)":"Amigable con la comunidad LGTBI+","img1":"https:\/\/lh5.googleusercontent.com\/p\/AF1QipMoN29MIXnuoQuLnBgZ9IrX78aeFFfItTY1cIOO=w138-h92-k-no","img2":"https:\/\/lh5.googleusercontent.com\/p\/AF1QipOGeCBGZ56xQOPgFJN9r3_2aUvVxJnOLvZAvgOD=w408-h272-k-no"},{"name":"Sutton Barcelona","category":"Discoteca","city":"Barcelona","address":"Carrer de Tuset, 13, Sarri\u00e0-Sant Gervasi, 08006 Barcelona","website":"suttonbarcelona.com","email":"info@suttonbarcelona.com","phone":"689785046","reviews_rating":3.2,"num_reviews":4576,"description":"Discoteca animada y lujosa donde tomar c\u00f3cteles y bailar al ritmo de la m\u00fasica pop que pinchan los DJs.","schedule":[{"day":"viernes","hours":"0:00\u20135:0023:55\u201324:00"},{"day":"s\u00e1bado","hours":"0:00\u20136:0023:55\u201324:00"},{"day":"domingo","hours":"0:00\u20136:00"},{"day":"lunes","hours":"Cerrado"},{"day":"martes","hours":"Cerrado"},{"day":"mi\u00e9rcoles","hours":"23:55\u201324:00"},{"day":"jueves","hours":"0:00\u20135:0023:55\u201324:00"}],"auxiliar(borrar)":"NOT_FOUND","img1":"https:\/\/lh5.googleusercontent.com\/p\/AF1QipNvig-Q5FciOl2iIBBzogRH6zSR8lqVk_5WgoRM=w137-h92-k-no","img2":"https:\/\/lh5.googleusercontent.com\/p\/AF1QipO3Jm7P4ZvxMjVhV3igqdNznKeNx2BtIx8ITLY9=w426-h240-k-no"},{"name":"Sala Salamandra","category":"Sala de conciertos","city":"L'Hospitalet de Llobregat","address":"Av. del Carrilet, 235, 08907 L'Hospitalet de Llobregat, Barcelona","website":"salamandra.cat","email":"NO_EMAIL","phone":"933370602","reviews_rating":4.2,"num_reviews":4231,"description":"Conciertos en vivo y sesiones de DJ en una espaciosa discoteca con barriles de aceite en la pista de baile.","schedule":"NOT_FOUND","auxiliar(borrar)":"NOT_FOUND","img1":"https:\/\/lh5.googleusercontent.com\/p\/AF1QipOz4ZTCYg196iVl0H-FBA1wq9xJ-OD5EjE_wcIY=w204-h92-k-no","img2":"https:\/\/lh5.googleusercontent.com\/p\/AF1QipOg0j-lFAfZlQm8-5-XBvt9fa0Ib9ls71rC7RBn=w415-h240-k-no"},{"name":"Touch Music Karaoke BARCELONA","category":"Karaoke","city":"Barcelona","address":"Carrer de Joan Mir\u00f3, 8, Sant Mart\u00ed, 08005 Barcelona","website":"karaokebcn.com","email":"touchmusic@karaokebarcelona.com","phone":"NO_PHONE","reviews_rating":4.5,"num_reviews":3733,"description":"Bar karaoke con un escenario tradicional al fondo, curiosos efectos de luz y una amplia carta de canciones.","schedule":"NOT_FOUND","auxiliar(borrar)":"Cerrado \u22c5 Apertura: 22:00","img1":"https:\/\/lh5.googleusercontent.com\/p\/AF1QipOfxlKsz4vKMQc9Kua-z5Joir2_llUfhzTfnTQ5=w184-h92-k-no","img2":"https:\/\/lh5.googleusercontent.com\/p\/AF1QipNF9WixMtWfMtDEkHA1CqlJ52u9c96XE9UunKi5=w408-h306-k-no"},{"name":"Bobby's Free","category":"Cocteler\u00eda","city":"Barcelona","address":"Carrer de Pau Claris, 85, L'Eixample, 08010 Barcelona","website":"bobbysfree.com","email":"bobbysfreebarcelona@gmail.com","phone":"NO_PHONE","reviews_rating":4.6,"num_reviews":3712,"description":"C\u00f3cteles elaborados y gin-tonics en un bar bohemio, con una iluminaci\u00f3n tenue y una fachada que se asemeja a la de una barber\u00eda.","schedule":[{"day":"viernes","hours":"19:00\u20133:30"},{"day":"s\u00e1bado","hours":"19:00\u20133:30"},{"day":"domingo","hours":"19:00\u20133:00"},{"day":"lunes","hours":"19:00\u20133:00"},{"day":"martes","hours":"19:00\u20133:00"},{"day":"mi\u00e9rcoles","hours":"19:00\u20133:00"},{"day":"jueves","hours":"19:00\u20133:00"}],"auxiliar(borrar)":"NOT_FOUND","img1":"https:\/\/lh5.googleusercontent.com\/p\/AF1QipOoJ7FT2Bs1LNp3TQHoy2sF_VA1a1if4Ptyo0bi=w122-h92-k-no","img2":"https:\/\/lh5.googleusercontent.com\/p\/AF1QipN62MTvi1U5nBvZeresW8mPQDxWhM1UK9ZWG0as=w408-h271-k-no"},{"name":"Slow Barcelona","category":"Discoteca","city":"NO_CITY","address":"Carrer de Par\u00eds, 186, L'Eixample, 08036 Barcelona","website":"slowbarcelona.es","email":"info@slowbarcelona.es","phone":"933681455","reviews_rating":4.5,"num_reviews":3466,"description":"C\u00f3cteles cl\u00e1sicos y personalizados, m\u00fasica en directo y discoteca, en un bar de lujo con decoraci\u00f3n inspirada en un bosque.","schedule":[{"day":"viernes","hours":"0:00\u20135:0019:00\u201324:00"},{"day":"s\u00e1bado","hours":"0:00\u20136:0019:00\u201324:00"},{"day":"domingo","hours":"0:00\u20136:00"},{"day":"lunes","hours":"19:00\u201324:00"},{"day":"martes","hours":"0:00\u20135:0019:00\u201324:00"},{"day":"mi\u00e9rcoles","hours":"0:00\u20135:0019:00\u201324:00"},{"day":"jueves","hours":"0:00\u20135:0019:00\u201324:00"}],"auxiliar(borrar)":"Carta","img1":"https:\/\/lh5.googleusercontent.com\/p\/AF1QipNnc_RGcgZT-UFIrsc0pc5QtAWRuMzZ7dtTsXxe=w122-h92-k-no","img2":"https:\/\/lh5.googleusercontent.com\/p\/AF1QipMKa8WrZFWF4yBHbVJBSAkZ7DJTLPexQKGRAdHC=w513-h240-k-no"},{"name":"Bling Bling Barcelona","category":"Discoteca","city":"NO_CITY","address":"Carrer de Tuset, 8-10, Sarri\u00e0-Sant Gervasi, 08006 Barcelona","website":"blingblingbcn.com","email":"NO_EMAIL","phone":"664244209","reviews_rating":3.1,"num_reviews":3318,"description":"Aperitivos de bar cl\u00e1sicos, champ\u00e1n y narguiles en una glamurosa discoteca de moda con pista de baile.","schedule":[{"day":"viernes","hours":"0:30\u20136:00"},{"day":"s\u00e1bado","hours":"0:30\u20136:0018:00\u201323:00"},{"day":"domingo","hours":"Cerrado"},{"day":"lunes","hours":"Cerrado"},{"day":"martes","hours":"Cerrado"},{"day":"mi\u00e9rcoles","hours":"0:30\u20135:00"},{"day":"jueves","hours":"0:30\u20135:00"}],"auxiliar(borrar)":"Carta","img1":"https:\/\/lh5.googleusercontent.com\/p\/AF1QipOhQUp2ae80kROr8Ff6CUhhqTfcBS-oJD6Bkvg=w137-h92-k-no","img2":"https:\/\/lh5.googleusercontent.com\/p\/AF1QipOYSBXRKgbhIktKpPKNNOtuwHIhoybapSUloK8=w408-h272-k-no"},{"name":"Twenties Barcelona","category":"Discoteca","city":"Barcelona","address":"Carrer del Rossell\u00f3, 208, Eixample, 08008 Barcelona","website":"twentiesbarcelona.com","email":"info@twentiesbarcelona.com","phone":"628708158","reviews_rating":3.4,"num_reviews":2901,"description":"C\u00f3cteles y ritmos de reguet\u00f3n y hip hop en una discoteca que recuerda a una cueva, con noches tem\u00e1ticas y espect\u00e1culos de luz.","schedule":[{"day":"viernes","hours":"0:00\u20135:0023:55\u201324:00"},{"day":"s\u00e1bado","hours":"0:00\u20136:0023:55\u201324:00"},{"day":"domingo","hours":"0:00\u20136:00"},{"day":"lunes","hours":"Cerrado"},{"day":"martes","hours":"Cerrado"},{"day":"mi\u00e9rcoles","hours":"23:55\u201324:00"},{"day":"jueves","hours":"0:00\u20135:0023:55\u201324:00"}],"auxiliar(borrar)":"NOT_FOUND","img1":"https:\/\/lh5.googleusercontent.com\/p\/AF1QipMb9D1saxAp9gDdW0Ponn43X5d0pUFkMSvWSg97=w138-h92-k-no","img2":"https:\/\/lh5.googleusercontent.com\/p\/AF1QipOzsDuHxBvJfoehE08Y2q74eDNA5sx44CidEXvr=w408-h612-k-no"},{"name":"Nu Bcn","category":"Restaurante de alta cocina","city":"Barcelona","address":"Hacer un pedido","website":"C. del Dr. Fleming, 12 - 14, Distrito de Sarri\u00e0-Sant Gervasi, 08017 Barcelona","email":"NO_EMAIL","phone":"932411720","reviews_rating":4.0,"num_reviews":2832,"description":"Platos de alta cocina, sushi y c\u00f3cteles en un restaurante exclusivo con terraza, pista de baile y sesiones de DJs.","schedule":[{"day":"viernes","hours":"13:00\u20133:00"},{"day":"s\u00e1bado","hours":"13:00\u20133:00"},{"day":"domingo","hours":"13:00\u20132:30"},{"day":"lunes","hours":"13:00\u201323:30"},{"day":"martes","hours":"13:00\u201323:30"},{"day":"mi\u00e9rcoles","hours":"13:00\u20132:30"},{"day":"jueves","hours":"13:00\u20132:30"}],"auxiliar(borrar)":"nu-bcn.com","img1":"https:\/\/lh5.googleusercontent.com\/p\/AF1QipP5JJiOTLzrniTTSjgze4JT4AcbGA1bjNySYQrl=w140-h92-k-no","img2":"https:\/\/lh5.googleusercontent.com\/p\/AF1QipO6l7kPwRbtfUz6bfHHVXjVlQVhM2TpcXEh0PRf=w408-h267-k-no"},{"name":"La Rovira","category":"Bar de tapas","city":"Barcelona","address":"Carrer de Rabassa, 23, Gr\u00e0cia, 08024 Barcelona","website":"facebook.com","email":"NO_EMAIL","phone":"934638788","reviews_rating":4.4,"num_reviews":2696,"description":"Taberna acogedora, con terraza y cervezas artesanales, que sirve tapas y bocadillos durante todo el d\u00eda.","schedule":[{"day":"viernes","hours":"9:00\u20131:00"},{"day":"s\u00e1bado","hours":"9:00\u20131:00"},{"day":"domingo","hours":"9:00\u201324:00"},{"day":"lunes","hours":"9:00\u201324:00"},{"day":"martes","hours":"9:00\u201324:00"},{"day":"mi\u00e9rcoles","hours":"9:00\u201324:00"},{"day":"jueves","hours":"9:00\u201324:00"}],"auxiliar(borrar)":"NOT_FOUND","img1":"https:\/\/lh5.googleusercontent.com\/p\/AF1QipP3urKlxuKx1VZZ0XwNFUgtbAC8s2jObPhGmTh9=w122-h92-k-no","img2":"https:\/\/lh5.googleusercontent.com\/p\/AF1QipPDXjrYG1yylkjE5SAvPmSsMJZ0zrcpAWpcjOBF=w427-h240-k-no"},{"name":"DISCO CITY HALL BARCELONA","category":"Discoteca","city":"Barcelona","address":"Rambla de Catalunya, 2, 4, Eixample, 08007 Barcelona","website":"cityhallbarcelona.com","email":"NO_EMAIL","phone":"667166789","reviews_rating":4.0,"num_reviews":2616,"description":"Bebidas, baile y m\u00fasica house, techno y hiphop en una discoteca con s\u00f3tano, decoraci\u00f3n de lujo y una terraza apacible.","schedule":[{"day":"viernes","hours":"0:00\u20136:00"},{"day":"s\u00e1bado","hours":"0:00\u20136:00"},{"day":"domingo","hours":"0:00\u20135:00"},{"day":"lunes","hours":"0:00\u20135:00"},{"day":"martes","hours":"0:00\u20135:00"},{"day":"mi\u00e9rcoles","hours":"0:00\u20135:00"},{"day":"jueves","hours":"0:00\u20135:00"}],"auxiliar(borrar)":"Amigable con la comunidad LGTBI+","img1":"https:\/\/lh5.googleusercontent.com\/p\/AF1QipNenv4WTODHqA6kjR1udMw4IHrK_0Xd042PvHX3=w80-h112-k-no","img2":"https:\/\/lh5.googleusercontent.com\/p\/AF1QipN7PGz9fshALz0ORCYwJNxVSu9I35aZDg0Af7A=w426-h240-k-no"},{"name":"Safari Disco Club Barcelona","category":"Discoteca","city":"Barcelona","address":"Carrer de Tarragona, 141, Sants-Montju\u00efc, 08014 Barcelona","website":"safaridiscoclub.com","email":"NO_EMAIL","phone":"934878342","reviews_rating":3.8,"num_reviews":2494,"description":"Discoteca animada, que abre toda la noche, con dos pistas de bailes y fiestas tem\u00e1ticas.","schedule":"NOT_FOUND","auxiliar(borrar)":"Cerrado \u22c5 Apertura: 23:59","img1":"https:\/\/lh5.googleusercontent.com\/p\/AF1QipNFuwmnpTP29aNomW5zbdIT-O_Z4rAvZGoTWVL9=w137-h92-k-no","img2":"https:\/\/lh5.googleusercontent.com\/p\/AF1QipOpeBEz6oiqIIA06_lo-9yQsVu7FdXvYu9RHWhT=w408-h306-k-no"},{"name":"Safari Disco Club Barcelona","category":"Discoteca","city":"Barcelona","address":"Carrer de Tarragona, 141, Sants-Montju\u00efc, 08014 Barcelona","website":"safaridiscoclub.com","email":"NO_EMAIL","phone":"934878342","reviews_rating":3.8,"num_reviews":2494,"description":"Discoteca animada, que abre toda la noche, con dos pistas de bailes y fiestas tem\u00e1ticas.","schedule":"NOT_FOUND","auxiliar(borrar)":"Cerrado \u22c5 Apertura: 23:59","img1":"https:\/\/lh5.googleusercontent.com\/p\/AF1QipN5fdG8Qn5nEMMWQAaVQOZgkFs8dNlys06UZJBn=w137-h92-k-no","img2":"https:\/\/lh5.googleusercontent.com\/p\/AF1QipOpeBEz6oiqIIA06_lo-9yQsVu7FdXvYu9RHWhT=w408-h306-k-no"},{"name":"Barroko's Barcelona","category":"Discoteca","city":"Barcelona","address":"Carrer d'Aribau, 242, Sarri\u00e0-Sant Gervasi, 08006 Barcelona","website":"discotecabarrokos.com","email":"NO_EMAIL","phone":"932011377","reviews_rating":3.4,"num_reviews":2278,"description":"DJs residentes y m\u00fasica variada en una discoteca moderna y animada con 2 salas y sof\u00e1s.","schedule":[{"day":"viernes","hours":"0:30\u20136:00"},{"day":"s\u00e1bado","hours":"18:00\u201324:00"},{"day":"domingo","hours":"0:00\u20136:0018:00\u201324:00"},{"day":"lunes","hours":"Cerrado"},{"day":"martes","hours":"Cerrado"},{"day":"mi\u00e9rcoles","hours":"Cerrado"},{"day":"jueves","hours":"19:00\u201323:00"}],"auxiliar(borrar)":"NOT_FOUND","img1":"https:\/\/lh5.googleusercontent.com\/p\/AF1QipM9xOrpPH-Vwca3w8za-oRJDUkS0GRUBRekR2g6=w122-h92-k-no","img2":"https:\/\/lh5.googleusercontent.com\/p\/AF1QipPtrDbLsPiVP09x8SENunZeb9VylAu1lr_Bibm_=w408-h403-k-no"},{"name":"Sala Plataforma Barcelona","category":"Discoteca","city":"Barcelona","address":"Carrer Nou de la Rambla, 145, Sants-Montju\u00efc, 08004 Barcelona","website":"salaplataforma.com","email":"support@readymag.com","phone":"607249478","reviews_rating":3.5,"num_reviews":2035,"description":"Discoteca animada, con una singular decoraci\u00f3n de aire industrial, sesiones de DJs, conciertos en directo y c\u00f3cteles.","schedule":[{"day":"viernes","hours":"Abierto 24 horas"},{"day":"s\u00e1bado","hours":"0:00\u20136:00"},{"day":"domingo","hours":"0:01\u20137:00"},{"day":"lunes","hours":"Cerrado"},{"day":"martes","hours":"Cerrado"},{"day":"mi\u00e9rcoles","hours":"Cerrado"},{"day":"jueves","hours":"0:00\u20135:00"}],"auxiliar(borrar)":"NOT_FOUND","img1":"https:\/\/lh5.googleusercontent.com\/p\/AF1QipPTiXMYvc93P9g2VFZThCSuJezt7stsFmjqmDMi=w122-h92-k-no","img2":"https:\/\/lh5.googleusercontent.com\/p\/AF1QipNXMaOGJda9y1leqiNJq_-9Ux0MGndk5pyWYSst=w408-h544-k-no"},{"name":"Hyde Club Barcelona","category":"Discoteca","city":"Barcelona","address":"Passatge de Domingo, 3, L'Eixample, 08007 Barcelona","website":"hydebcn.com","email":"infohyde@gmail.com","phone":"654201006","reviews_rating":3.8,"num_reviews":1759,"description":"Discoteca moderna con sesiones de DJ y un escenario peque\u00f1o con espect\u00e1culos en directo, c\u00f3cteles, sushi y piscolabis.","schedule":[{"day":"viernes","hours":"0:00\u20133:0021:00\u201324:00"},{"day":"s\u00e1bado","hours":"0:00\u20136:0021:00\u201324:00"},{"day":"domingo","hours":"0:00\u20136:00"},{"day":"lunes","hours":"Cerrado"},{"day":"martes","hours":"Cerrado"},{"day":"mi\u00e9rcoles","hours":"Cerrado"},{"day":"jueves","hours":"21:00\u201324:00"}],"auxiliar(borrar)":"NOT_FOUND","img1":"https:\/\/lh5.googleusercontent.com\/p\/AF1QipNXBRQfJ6MxwqkoZMQQx6E_39zK-aYmvYaD9ELP=w138-h92-k-no","img2":"https:\/\/lh5.googleusercontent.com\/p\/AF1QipMMmUgy9QFCC8oCTOB3mte_EDj4ZHhyrBSyFX05=w408-h271-k-no"},{"name":"Bar Mandri","category":"Bar de tapas","city":"Barcelona","address":"Carrer de Mandri, 60, Sarri\u00e0-Sant Gervasi, 08022 Barcelona","website":"mandribar.com","email":"NO_EMAIL","phone":"934171129","reviews_rating":4.2,"num_reviews":1636,"description":"Raciones t\u00edpicas en un bar de tapas de toda la vida, con un largo mostrador, famoso por sus patatas bravas.","schedule":[{"day":"viernes","hours":"7:00\u201324:00"},{"day":"s\u00e1bado","hours":"8:00\u201316:00"},{"day":"domingo","hours":"Cerrado"},{"day":"lunes","hours":"7:00\u201324:00"},{"day":"martes","hours":"7:00\u201324:00"},{"day":"mi\u00e9rcoles","hours":"7:00\u201324:00"},{"day":"jueves","hours":"7:00\u201324:00"}],"auxiliar(borrar)":"Carta","img1":"https:\/\/lh5.googleusercontent.com\/p\/AF1QipPO42c8quh-Ion3GQpRCogMBrm7gE1ywe7iYVrh=w163-h92-k-no","img2":"https:\/\/lh3.googleusercontent.com\/p\/AF1QipM_8Y7gltGtep6L7hc8hANYoaHnPUg916wGy50n=w408-h240-k-no-pi-30-ya3.2645402-ro0-fo100"},{"name":"Costa Breve Barcelona","category":"Discoteca","city":"Barcelona","address":"Carrer d'Aribau, 230, Sarri\u00e0-Sant Gervasi, 08006 Barcelona","website":"grupocostabreve.com","email":"hola@grupocostabreve.com","phone":"655785096","reviews_rating":3.0,"num_reviews":1550,"description":"Discoteca animada, de ambiente juvenil, con fiestas tem\u00e1ticas, 2 pistas de baile y varios bares.","schedule":[{"day":"viernes","hours":"0:30\u20136:00"},{"day":"s\u00e1bado","hours":"0:30\u20136:00"},{"day":"domingo","hours":"Cerrado"},{"day":"lunes","hours":"Cerrado"},{"day":"martes","hours":"Cerrado"},{"day":"mi\u00e9rcoles","hours":"0:30\u20135:00"},{"day":"jueves","hours":"0:30\u20135:00"}],"auxiliar(borrar)":"NOT_FOUND","img1":"https:\/\/lh5.googleusercontent.com\/p\/AF1QipPLuGwvB5imS-kgKsTRSr2p7pMSnLPqS8y7XGY=w122-h92-k-no","img2":"https:\/\/lh5.googleusercontent.com\/p\/AF1QipM0kc-oDbm1kuWikhyWH46yu4EcUpqdpyNqv09L=w408-h272-k-no"},{"name":"Karaoke Nick","category":"Karaoke","city":"Barcelona","address":"Av. de Madrid, 160, Sants-Montju\u00efc, 08028 Barcelona","website":"discotecanick.com","email":"NO_EMAIL","phone":"661886508","reviews_rating":3.4,"num_reviews":1443,"description":"Banco corrido, luces de ne\u00f3n y billar en bar-karaoke que tambi\u00e9n ofrece servicio de restaurante.","schedule":[{"day":"viernes","hours":"0:00\u20136:0022:00\u201324:00"},{"day":"s\u00e1bado","hours":"0:00\u20136:0022:00\u201324:00"},{"day":"domingo","hours":"0:00\u20136:0023:00\u201324:00"},{"day":"lunes","hours":"0:00\u20136:0023:00\u201324:00"},{"day":"martes","hours":"0:00\u20136:0023:00\u201324:00"},{"day":"mi\u00e9rcoles","hours":"0:00\u20136:0023:00\u201324:00"},{"day":"jueves","hours":"0:00\u20136:0023:00\u201324:00"}],"auxiliar(borrar)":"NOT_FOUND","img1":"https:\/\/lh5.googleusercontent.com\/p\/AF1QipPImstVqKFYFPMqCqZXP4OHMGaLIg6vzPGMexx8=w184-h92-k-no","img2":"https:\/\/lh5.googleusercontent.com\/p\/AF1QipNcnjx6hHjKxFuoTcqRLpxje-GCQdW-NYqV-K2n=w408-h725-k-no"},{"name":"Gracia Latina","category":"Bar musical","city":"Barcelona","address":"Carrer de l'Or, 19, Gr\u00e0cia, 08012 Barcelona","website":"facebook.com","email":"NO_EMAIL","phone":"669268167","reviews_rating":4.2,"num_reviews":1358,"description":"M\u00fasica latina en directo, zona de baile y c\u00f3cteles en un bar acogedor que ofrece clases de salsa y bachata.","schedule":[{"day":"viernes","hours":"21:00\u20133:00"},{"day":"s\u00e1bado","hours":"21:00\u20133:00"},{"day":"domingo","hours":"21:00\u20132:30"},{"day":"lunes","hours":"21:00\u20132:30"},{"day":"martes","hours":"21:00\u20132:30"},{"day":"mi\u00e9rcoles","hours":"21:00\u20132:30"},{"day":"jueves","hours":"21:00\u20132:30"}],"auxiliar(borrar)":"NOT_FOUND","img1":"https:\/\/lh5.googleusercontent.com\/p\/AF1QipOP3IQtapAbw5DrE4Jae4WHh3XV6bEIwGkVIRbI=w122-h92-k-no","img2":"https:\/\/lh5.googleusercontent.com\/p\/AF1QipOP3IQtapAbw5DrE4Jae4WHh3XV6bEIwGkVIRbI=w408-h306-k-no"},{"name":"Plata Cocktail Bar","category":"Cocteler\u00eda","city":"Barcelona","address":"Carrer del Consell de Cent, 233, L'Eixample, 08011 Barcelona","website":"platabar.com","email":"cocktailbar@platabar.com","phone":"934524636","reviews_rating":4.6,"num_reviews":1356,"description":"Elaboraciones creativas con originales presentaciones en una cocteler\u00eda con luces de ne\u00f3n y ambiente acogedor.","schedule":[{"day":"viernes","hours":"21:00\u20132:30"},{"day":"s\u00e1bado","hours":"21:00\u20132:30"},{"day":"domingo","hours":"Cerrado"},{"day":"lunes","hours":"Cerrado"},{"day":"martes","hours":"Cerrado"},{"day":"mi\u00e9rcoles","hours":"Cerrado"},{"day":"jueves","hours":"21:00\u20131:00"}],"auxiliar(borrar)":"Carta","img1":"https:\/\/lh5.googleusercontent.com\/p\/AF1QipNMQkEu7MrEuIxIJ4ACw8ivWAkQ0VwYHvyLtpWJ=w80-h132-k-no","img2":"https:\/\/lh5.googleusercontent.com\/p\/AF1QipNMQkEu7MrEuIxIJ4ACw8ivWAkQ0VwYHvyLtpWJ=w408-h674-k-no"},{"name":"Bar Bodega Quimet","category":"Bar","city":"Barcelona","address":"Carrer de Vic, 23, Gr\u00e0cia, 08006 Barcelona","website":"barbodegaquimet.weebly.com","email":"NO_EMAIL","phone":"932184189","reviews_rating":4.6,"num_reviews":1259,"description":"Bar acogedor y tradicional de tapas, frecuentado por lugare\u00f1os, que sirve vinos de Catalu\u00f1a y verm\u00fa casero.","schedule":[{"day":"viernes","hours":"10:00\u201316:0018:00\u201323:00"},{"day":"s\u00e1bado","hours":"11:00\u201316:0018:00\u201323:00"},{"day":"domingo","hours":"11:00\u201316:00"},{"day":"lunes","hours":"10:00\u201316:00"},{"day":"martes","hours":"10:00\u201316:0018:00\u201323:00"},{"day":"mi\u00e9rcoles","hours":"10:00\u201316:0018:00\u201323:00"},{"day":"jueves","hours":"10:00\u201316:0018:00\u201323:00"}],"auxiliar(borrar)":"NOT_FOUND","img1":"https:\/\/lh5.googleusercontent.com\/p\/AF1QipOD_wZcT-NJTb6biE4JJM-vj55k8YzcCOeHqz99=w199-h92-k-no","img2":"https:\/\/lh5.googleusercontent.com\/p\/AF1QipOlhXWxZy_3YtFVzYvWIV1ELQq_jg8Hhcy0Vm2d=w408-h575-k-no"},{"name":"El Sue\u00f1o","category":"Bar de tapas","city":"NO_CITY","address":"Carrer de les Aig\u00fces del Llobregat, 110B, 08906 L'Hospitalet de Llobregat, Barcelona","website":"instagram.com","email":"NO_EMAIL","phone":"937043141","reviews_rating":4.3,"num_reviews":1205,"description":"Amplio men\u00fa con gran variedad de tapas caseras de cocina espa\u00f1ola en un restaurante informal regentado por gente de la zona.","schedule":[{"day":"viernes","hours":"11:30\u201316:0019:00\u201323:00"},{"day":"s\u00e1bado","hours":"11:30\u201316:0019:00\u201323:00"},{"day":"domingo","hours":"11:30\u201316:0019:00\u201323:00"},{"day":"lunes","hours":"Cerrado"},{"day":"martes","hours":"11:30\u201316:0019:00\u201323:00"},{"day":"mi\u00e9rcoles","hours":"11:30\u201316:0019:00\u201323:00"},{"day":"jueves","hours":"11:30\u201316:0019:00\u201323:00"}],"auxiliar(borrar)":"Carta","img1":"https:\/\/lh5.googleusercontent.com\/p\/AF1QipMAZp3SQlI0XLXQDZG2zOt3tTeRpTJW9wQrYxBw=w122-h92-k-no","img2":"https:\/\/lh5.googleusercontent.com\/p\/AF1QipOc23Dy6J6mvW9-cxknDPjLbTSnUAZNi9-O4yJ0=w426-h240-k-no"},{"name":"Bar Cervecer\u00eda El Coto","category":"Bar","city":"NO_CITY","address":"Avinguda de Can Serra, 82, 08906 L'Hospitalet de Llobregat, Barcelona","website":"NO_WEBSITE","email":null,"phone":"NO_PHONE","reviews_rating":4.3,"num_reviews":1165,"description":"NOT_FOUND","schedule":[{"day":"viernes","hours":"8:30\u201324:00"},{"day":"s\u00e1bado","hours":"9:00\u201324:00"},{"day":"domingo","hours":"9:00\u201318:00"},{"day":"lunes","hours":"Cerrado"},{"day":"martes","hours":"8:30\u201323:00"},{"day":"mi\u00e9rcoles","hours":"8:30\u201323:00"},{"day":"jueves","hours":"8:30\u201323:00"}],"auxiliar(borrar)":"NOT_FOUND","img1":"https:\/\/lh5.googleusercontent.com\/p\/AF1QipNEx8QBefZ2_2lJb8o_4xnSgx2QUXL5du0DnbNl=w163-h92-k-no","img2":"https:\/\/lh5.googleusercontent.com\/p\/AF1QipM0MC5GZ0ZSCzBtWQ_7qVu0_vKFuG-jgf3m-ZfZ=w408-h545-k-no"},{"name":"Bar Virreina","category":"Bar","city":"NO_CITY","address":"Pla\u00e7a de la Virreina, 1, Gr\u00e0cia, 08024 Barcelona","website":"NO_WEBSITE","email":null,"phone":"NO_PHONE","reviews_rating":3.6,"num_reviews":1161,"description":"Cervezas internacionales y verm\u00fa en cafeter\u00eda con mesas redondas y terraza que sirve bocadillos y s\u00e1ndwiches.","schedule":[{"day":"viernes","hours":"9:30\u201313:00"},{"day":"s\u00e1bado","hours":"9:30\u201313:00"},{"day":"domingo","hours":"9:30\u201313:00"},{"day":"lunes","hours":"9:00\u201324:00"},{"day":"martes","hours":"9:00\u201324:00"},{"day":"mi\u00e9rcoles","hours":"9:00\u201324:00"},{"day":"jueves","hours":"9:00\u201324:00"}],"auxiliar(borrar)":"NOT_FOUND","img1":"https:\/\/lh5.googleusercontent.com\/p\/AF1QipPGAlOOoZnJfSsub6cmWDhXWIUnG-B-cuca2xPC=w122-h92-k-no","img2":"https:\/\/lh5.googleusercontent.com\/p\/AF1QipNUiIWYigFiZFt2KVs4f4TlA2rvTOIKV9qRJNnP=w408-h306-k-no"},{"name":"Sala Upload Barcelona","category":"Sala de conciertos","city":"Barcelona","address":"Planta G \u00b7 Poble Espanyol de Barcelona","website":"Av. de Francesc Ferrer i Gu\u00e0rdia, 13, Sants-Montju\u00efc, 08038 Barcelona","email":"NO_EMAIL","phone":"NO_PHONE","reviews_rating":4.3,"num_reviews":1160,"description":"Actuaciones de m\u00fasicos independientes modernos y sesiones de DJs en una sala dentro del hist\u00f3rico museo Poble Espanyol.","schedule":"NOT_FOUND","auxiliar(borrar)":"NOT_FOUND","img1":"https:\/\/lh5.googleusercontent.com\/p\/AF1QipPolrdusUtQLEUfDSXJAlxldH-2BANZP5V54t0G=w163-h92-k-no","img2":"https:\/\/lh5.googleusercontent.com\/p\/AF1QipO79oQFrsLXN8-GtzxDevIRIN5k4vZ1No5n5DZS=w408-h306-k-no"},{"name":"ELEPHANTA GINBAR COCTELERIA","category":"Cocteler\u00eda","city":"Barcelona","address":"Carrer del Torrent d'En Vidalet, 37, Gr\u00e0cia, 08012 Barcelona","website":"elephanta.cat","email":"elephanta@elephanta.cat","phone":"932376906","reviews_rating":4.6,"num_reviews":1159,"description":"Bar vistoso con toques de estilo retro y piedra vista, donde se ofrecen c\u00f3cteles artesanales con ginebra.","schedule":[{"day":"viernes","hours":"18:00\u20133:00"},{"day":"s\u00e1bado","hours":"18:00\u20133:00"},{"day":"domingo","hours":"17:00\u201323:30"},{"day":"lunes","hours":"18:00\u20131:30"},{"day":"martes","hours":"18:00\u20131:30"},{"day":"mi\u00e9rcoles","hours":"18:00\u20131:30"},{"day":"jueves","hours":"18:00\u20132:30"}],"auxiliar(borrar)":"Carta","img1":"https:\/\/lh5.googleusercontent.com\/p\/AF1QipNI6XeK2LpErUlmml5Dm-voyknlNXeIE9fOUra5=w163-h92-k-no","img2":"https:\/\/lh5.googleusercontent.com\/p\/AF1QipO0Fv9t8dfAD6sMWY9DCL0cW5TfvxVN9nVdQ0LI=w408-h271-k-no"},{"name":"La Fira Villarroel","category":"Discoteca","city":"Barcelona","address":"Carrer de Villarroel, 216, L'Eixample, 08036 Barcelona","website":"lafiravillarroel.com","email":"NO_EMAIL","phone":"676828595","reviews_rating":3.6,"num_reviews":1124,"description":"Discoteca vistosa y concurrida con sof\u00e1s lujosos, mesas que brillan en la oscuridad y bares.","schedule":[{"day":"viernes","hours":"23:55\u20135:30"},{"day":"s\u00e1bado","hours":"18:00\u201323:0023:55\u20135:30"},{"day":"domingo","hours":"Cerrado"},{"day":"lunes","hours":"Cerrado"},{"day":"martes","hours":"Cerrado"},{"day":"mi\u00e9rcoles","hours":"Cerrado"},{"day":"jueves","hours":"Cerrado"}],"auxiliar(borrar)":"Amigable con la comunidad LGTBI+","img1":"https:\/\/lh5.googleusercontent.com\/p\/AF1QipMGSJIZ01bK0SU8hjbtHaN2Wx3jCrnh8K6UK9n3=w173-h92-k-no","img2":"https:\/\/lh5.googleusercontent.com\/p\/AF1QipMNQEGVqTGIVZZMfE7NAnk6cDPvCcoUgymqtSyv=w425-h240-k-no"},{"name":"Magic Barcelona","category":"Club de m\u00fasica rock","city":"Barcelona","address":"Passeig de Picasso, 40, Ciutat Vella, 08003 Barcelona","website":"magic-club.net","email":"NO_EMAIL","phone":"933107267","reviews_rating":3.9,"num_reviews":1115,"description":"M\u00edtica y concurrida sala de conciertos donde suena el rock y la m\u00fasica indie.","schedule":[{"day":"viernes","hours":"0:00\u20134:4523:00\u201324:00"},{"day":"s\u00e1bado","hours":"0:00\u20136:0023:00\u201324:00"},{"day":"domingo","hours":"0:00\u20136:00"},{"day":"lunes","hours":"Cerrado"},{"day":"martes","hours":"Cerrado"},{"day":"mi\u00e9rcoles","hours":"Cerrado"},{"day":"jueves","hours":"23:00\u201324:00"}],"auxiliar(borrar)":"NOT_FOUND","img1":"https:\/\/lh5.googleusercontent.com\/p\/AF1QipMLuxEKDIvcRilnFey6D0Hnqo4LfixxfTpdrV-E=w122-h92-k-no","img2":"https:\/\/lh5.googleusercontent.com\/p\/AF1QipNSVBwsHY3cmZWKbNjUUTs6YqpdJ0PDEBNetoQE=w408-h272-k-no"},{"name":"Bobby Gin","category":"Cocteler\u00eda","city":"Barcelona","address":"Carrer de Francisco Giner, 47, Gr\u00e0cia, 08012 Barcelona","website":"bobbygin.com","email":"NO_EMAIL","phone":"933681892","reviews_rating":4.3,"num_reviews":1105,"description":"Sus gin-tonics con ginebra infusionada casera son el principal reclamo de este pub sofisticado y bohemio.","schedule":[{"day":"viernes","hours":"19:00\u20133:00"},{"day":"s\u00e1bado","hours":"19:00\u20133:00"},{"day":"domingo","hours":"19:00\u20132:00"},{"day":"lunes","hours":"19:00\u20132:00"},{"day":"martes","hours":"19:00\u20132:00"},{"day":"mi\u00e9rcoles","hours":"19:00\u20132:00"},{"day":"jueves","hours":"19:00\u20132:00"}],"auxiliar(borrar)":"Carta","img1":"https:\/\/lh5.googleusercontent.com\/p\/AF1QipOnyHB4_MeWjNkG7rOF42V-DCexqKmBGjUkMMb5=w92-h92-k-no","img2":"https:\/\/lh5.googleusercontent.com\/p\/AF1QipPSIefA6-wWIOeVk1PWXBZrr_hnKGVKtPP50rPF=w408-h408-k-no"},{"name":"M7 Club Barcelona","category":"Discoteca","city":"Barcelona","address":"Carrer de M\u00e8xic, 7, Sants-Montju\u00efc, 08004 Barcelona","website":"m7club.net","email":"m7club@europe.com","phone":"697341656","reviews_rating":4.4,"num_reviews":1092,"description":"NOT_FOUND","schedule":[{"day":"viernes","hours":"0:00\u20135:3023:45\u201324:00"},{"day":"s\u00e1bado","hours":"0:00\u20136:3023:45\u201324:00"},{"day":"domingo","hours":"0:00\u20136:3023:45\u201324:00"},{"day":"lunes","hours":"0:00\u20135:30"},{"day":"martes","hours":"Cerrado"},{"day":"mi\u00e9rcoles","hours":"Cerrado"},{"day":"jueves","hours":"23:45\u201324:00"}],"auxiliar(borrar)":"NOT_FOUND","img1":"https:\/\/lh5.googleusercontent.com\/p\/AF1QipNJoT1uMmzI7hlNjtGhHgbDi1qxILMsa-FDGCXR=w80-h106-k-no","img2":"https:\/\/lh3.googleusercontent.com\/p\/AF1QipMDsProsAJ92_576nOzy5fve6DXKy-wehLjhb8b=w429-h240-k-no"},{"name":"Bloody Mary Cocktail Bar","category":"Cocteler\u00eda","city":"NO_CITY","address":"Carrer de Ferrer de Blanes, 3, Gr\u00e0cia, 08012 Barcelona","website":"bloodymarybcn.es","email":"NO_EMAIL","phone":"934613985","reviews_rating":4.7,"num_reviews":1088,"description":"Combinados cl\u00e1sicos y creativos, brochetas y raciones en una cocteler\u00eda acogedora de aire retro.","schedule":[{"day":"viernes","hours":"19:00\u20133:00"},{"day":"s\u00e1bado","hours":"16:00\u20133:00"},{"day":"domingo","hours":"16:00\u20131:00"},{"day":"lunes","hours":"19:00\u20131:00"},{"day":"martes","hours":"19:00\u20132:00"},{"day":"mi\u00e9rcoles","hours":"19:00\u20132:00"},{"day":"jueves","hours":"19:00\u20132:00"}],"auxiliar(borrar)":"Carta","img1":"https:\/\/lh5.googleusercontent.com\/p\/AF1QipMJep_JmBaqbIKmCvlV-8CC9_HGlsn-sd4D69yo=w122-h92-k-no","img2":"https:\/\/lh5.googleusercontent.com\/p\/AF1QipPjdK7uVD3JW7muI5AWQKTbMfdBnQEBjY-r9vDZ=w408-h272-k-no"},{"name":"Arena Experience","category":"Discoteca","city":"Barcelona","address":"Rda. de Sant Pere, 21, Eixample, 08010 Barcelona","website":"grupoarena.com","email":"NO_EMAIL","phone":"934875140","reviews_rating":3.8,"num_reviews":1066,"description":"NOT_FOUND","schedule":[{"day":"viernes","hours":"0:00\u20135:0023:59\u201324:00"},{"day":"s\u00e1bado","hours":"0:00\u20136:0023:59\u201324:00"},{"day":"domingo","hours":"0:00\u20136:0023:59\u201324:00"},{"day":"lunes","hours":"0:00\u20135:0023:59\u201324:00"},{"day":"martes","hours":"0:00\u20135:0023:59\u201324:00"},{"day":"mi\u00e9rcoles","hours":"0:00\u20135:0023:59\u201324:00"},{"day":"jueves","hours":"0:00\u20135:0023:59\u201324:00"}],"auxiliar(borrar)":"Amigable con la comunidad LGTBI+","img1":"https:\/\/lh5.googleusercontent.com\/p\/AF1QipPJ8-5p2W5McplJHASyGkNBZ_hi73i3g5eMK-4=w122-h92-k-no","img2":"https:\/\/lh5.googleusercontent.com\/p\/AF1QipPB2gY9oL-id58RqFOIM68bW2lAIl4Ds96yqRws=w533-h240-k-no"},{"name":"Sotavent Bar","category":"Pub","city":"NO_CITY","address":"Carrer Major de Sarri\u00e0, 61, Sarri\u00e0-Sant Gervasi, 08017 Barcelona","website":"NO_WEBSITE","email":null,"phone":"NO_PHONE","reviews_rating":4.4,"num_reviews":1043,"description":"Pub informal con futbol\u00edn, billar, dardos, noches de tr\u00edvial y partidos televisados.","schedule":[{"day":"viernes","hours":"20:00\u20133:00"},{"day":"s\u00e1bado","hours":"20:00\u20133:00"},{"day":"domingo","hours":"Cerrado"},{"day":"lunes","hours":"Cerrado"},{"day":"martes","hours":"20:00\u20132:00"},{"day":"mi\u00e9rcoles","hours":"20:00\u20132:00"},{"day":"jueves","hours":"20:00\u20132:30"}],"auxiliar(borrar)":"NOT_FOUND","img1":"https:\/\/lh5.googleusercontent.com\/p\/AF1QipP0ECKa1iIv-Bea03NNZirlxoo5kK5NKJqVAyG4=w80-h106-k-no","img2":"https:\/\/lh5.googleusercontent.com\/p\/AF1QipMhE6ADSzEP5bbOeuvGOD0hIo7SQvnP6hQJjEaB=w408-h407-k-no"},{"name":"Skyfall Cocktail Club","category":"Club nocturno","city":"L'Hospitalet de Llobregat","address":"Avinguda de la Granvia de l\u2019Hospitalet, 144, 08907 L'Hospitalet de Llobregat, Barcelona","website":"skyfallbcn.com","email":"info@skyfallbcn.com","phone":"613012610","reviews_rating":3.9,"num_reviews":1029,"description":"NOT_FOUND","schedule":[{"day":"viernes","hours":"19:00\u20133:30"},{"day":"s\u00e1bado","hours":"19:00\u20133:30"},{"day":"domingo","hours":"17:00\u20131:00"},{"day":"lunes","hours":"19:00\u20132:00"},{"day":"martes","hours":"19:00\u20132:00"},{"day":"mi\u00e9rcoles","hours":"19:00\u20132:00"},{"day":"jueves","hours":"19:00\u20132:00"}],"auxiliar(borrar)":"Planta 0 \u00b7 Restaurant Terrum","img1":"https:\/\/lh5.googleusercontent.com\/p\/AF1QipOYEU9cYzQT5lvYfvm0dIn5pTQ3ee0JYsqah2uM=w128-h92-k-no","img2":"https:\/\/lh5.googleusercontent.com\/p\/AF1QipPDlLhjoEN2P2yqJB_0ktV1Wo0E0dJehgZZ_FDf=w408-h271-k-no"},{"name":"SUMMUM Nightbar","category":"Pub","city":"Barcelona","address":"Carrer d'Aribau, 66, L'Eixample, 08011 Barcelona","website":"instagram.com","email":"NO_EMAIL","phone":"931067089","reviews_rating":4.2,"num_reviews":999,"description":"Pub concurrido de aire retro, con patio, que ofrece c\u00f3cteles cl\u00e1sicos y creativos, cervezas artesanales y vinos, y televisa f\u00fatbol.","schedule":[{"day":"viernes","hours":"16:00\u20133:30"},{"day":"s\u00e1bado","hours":"16:00\u20133:30"},{"day":"domingo","hours":"Cerrado"},{"day":"lunes","hours":"16:00\u20132:30"},{"day":"martes","hours":"16:00\u20132:30"},{"day":"mi\u00e9rcoles","hours":"16:00\u20132:30"},{"day":"jueves","hours":"16:00\u20132:30"}],"auxiliar(borrar)":"Amigable con la comunidad LGTBI+","img1":"https:\/\/lh5.googleusercontent.com\/p\/AF1QipNMjr4TxaABFbxa_DK_qYzFwuBdxUvHBp9x2UbJ=w163-h92-k-no","img2":"https:\/\/lh5.googleusercontent.com\/p\/AF1QipPlgyIgWXLTGeiHeUwpdr7ieepsKdY_kb5n3NVW=w408-h279-k-no"},{"name":"La Biblio Barcelona","category":"Discoteca","city":"Barcelona","address":"Carrer de Moi\u00e0, 1, Sarri\u00e0-Sant Gervasi, 08006 Barcelona","website":"labibliobcn.com","email":"labibliobcn@gmail.com","phone":"672410127","reviews_rating":3.6,"num_reviews":992,"description":"NOT_FOUND","schedule":[{"day":"viernes","hours":"0:00\u20135:0023:59\u201324:00"},{"day":"s\u00e1bado","hours":"0:00\u20136:0023:59\u201324:00"},{"day":"domingo","hours":"0:00\u20136:00"},{"day":"lunes","hours":"Cerrado"},{"day":"martes","hours":"Cerrado"},{"day":"mi\u00e9rcoles","hours":"Cerrado"},{"day":"jueves","hours":"23:59\u201324:00"}],"auxiliar(borrar)":"Se identifica como de propietarias mujeres","img1":"https:\/\/lh5.googleusercontent.com\/p\/AF1QipOqd5OBLp4DeOJXAaK1KBjxGyYkSK3U6dS5CMqB=w138-h92-k-no","img2":"https:\/\/lh5.googleusercontent.com\/p\/AF1QipMx_SSofYShkH4a8qo2M3Lcm7T33obh22d1L-pb=w408-h544-k-no"},{"name":"Sol de NIT","category":"Bar","city":"Barcelona","address":"Pla\u00e7a del Sol, 9, Gr\u00e0cia, 08012 Barcelona","website":"sol-de-nit.eltenedor.rest","email":"NO_EMAIL","phone":"932373937","reviews_rating":3.6,"num_reviews":976,"description":"Tapas, ensaladas, raciones y c\u00f3cteles en un estrecho bar con decoraci\u00f3n ecl\u00e9ctica, que trabaja con ingredientes de temporada.","schedule":[{"day":"viernes","hours":"11:00\u20133:00"},{"day":"s\u00e1bado","hours":"11:00\u20133:00"},{"day":"domingo","hours":"11:00\u20132:30"},{"day":"lunes","hours":"11:00\u20132:30"},{"day":"martes","hours":"11:00\u20132:30"},{"day":"mi\u00e9rcoles","hours":"11:00\u20132:30"},{"day":"jueves","hours":"11:00\u20132:30"}],"auxiliar(borrar)":"Reclamar esta empresa","img1":"https:\/\/lh5.googleusercontent.com\/p\/AF1QipN7tss2UvxziZ1XCSAiVIPeqG1RE-2sLccsC4Y_=w80-h106-k-no","img2":"https:\/\/lh5.googleusercontent.com\/p\/AF1QipPe76G3KDvEm4mcVRS1osni7-o2lNqahszKiN8b=w493-h240-k-no"},{"name":"Bar Pietro","category":"Bar de tapas","city":"Barcelona","address":"Travessera de Gr\u00e0cia, 197, Gr\u00e0cia, 08012 Barcelona","website":"instagram.com","email":"NO_EMAIL","phone":"935251143","reviews_rating":4.5,"num_reviews":965,"description":"Desayuno, tapas cl\u00e1sicas y licores como verm\u00fa en un peque\u00f1o bar animado.","schedule":[{"day":"viernes","hours":"8:00\u201323:00"},{"day":"s\u00e1bado","hours":"9:00\u201323:00"},{"day":"domingo","hours":"11:00\u201317:00"},{"day":"lunes","hours":"8:00\u201315:00"},{"day":"martes","hours":"8:00\u201323:00"},{"day":"mi\u00e9rcoles","hours":"8:00\u201323:00"},{"day":"jueves","hours":"8:00\u201323:00"}],"auxiliar(borrar)":"NOT_FOUND","img1":"https:\/\/lh5.googleusercontent.com\/p\/AF1QipPZAZAQFn5fbkYq9ohVKH-PkS0kKMV6lguVAD_j=w122-h92-k-no","img2":"https:\/\/lh5.googleusercontent.com\/p\/AF1QipOAHIRMkNlJvvMZf3c5i0FetPg7HV80gbkdKZ8S=w408-h306-k-no"},{"name":"Solange Cocktails & Luxury Spirits","category":"Cocteler\u00eda","city":"NO_CITY","address":"Carrer d'Aribau, 143, L'Eixample, 08036 Barcelona","website":"solangecocktail.com","email":"NO_EMAIL","phone":"931643625","reviews_rating":4.5,"num_reviews":893,"description":"C\u00f3cteles sofisticados e innovadores en un bar refinado con tem\u00e1tica inspirada en James Bond.","schedule":[{"day":"viernes","hours":"18:00\u20132:30"},{"day":"s\u00e1bado","hours":"18:00\u20132:30"},{"day":"domingo","hours":"18:00\u20131:30"},{"day":"lunes","hours":"18:00\u20131:30"},{"day":"martes","hours":"18:00\u20131:30"},{"day":"mi\u00e9rcoles","hours":"18:00\u20131:30"},{"day":"jueves","hours":"18:00\u20131:30"}],"auxiliar(borrar)":"Carta","img1":"https:\/\/lh5.googleusercontent.com\/p\/AF1QipM6_sjNtivfO84ZV8n_Dr2JU3t2mcdE5EAmt4Ou=w122-h92-k-no","img2":"https:\/\/lh5.googleusercontent.com\/p\/AF1QipN_fOI3spjaDEr7Q9_h3mfA9enSHWGpknh26kRM=w426-h240-k-no"},{"name":"Bar Ri","category":"Restaurante","city":"NO_CITY","address":"Pla\u00e7a de Joaquim Pena, 4, Sarri\u00e0-Sant Gervasi, 08017 Barcelona","website":"barribarcelona.com","email":"sarria@barribarcelona.com","phone":"932057856","reviews_rating":3.9,"num_reviews":884,"description":"Hamburguesas, tapas y especiales del d\u00eda en comedor chic y minimalista con pared de ladrillo.","schedule":"NOT_FOUND","auxiliar(borrar)":"Hacer un pedido","img1":"https:\/\/lh5.googleusercontent.com\/p\/AF1QipO-bQ6xpCGZKF-ssFqgGWwEu78q0uswn20X5xES=w163-h92-k-no","img2":"https:\/\/lh5.googleusercontent.com\/p\/AF1QipNTAaIa3ggB0-sx7FSoIMwkvb91MlPDe5t3lP3_=w408-h271-k-no"},{"name":"Bar El OtrO","category":"Bar","city":"Barcelona","address":"Travessera de Gr\u00e0cia, 167, Gr\u00e0cia, 08012 Barcelona","website":"barelotro.com","email":"info@barelotro.com","phone":"931478833","reviews_rating":4.1,"num_reviews":879,"description":"C\u00f3cteles, incluidas opciones congeladas, cervezas y tapas servidos en un bar bohemio pintado de colores vivos.","schedule":[{"day":"viernes","hours":"18:00\u20133:00"},{"day":"s\u00e1bado","hours":"18:00\u20133:00"},{"day":"domingo","hours":"18:00\u20132:30"},{"day":"lunes","hours":"18:00\u20132:30"},{"day":"martes","hours":"18:00\u20132:30"},{"day":"mi\u00e9rcoles","hours":"18:00\u20132:30"},{"day":"jueves","hours":"18:00\u20132:30"}],"auxiliar(borrar)":"NOT_FOUND","img1":"https:\/\/lh5.googleusercontent.com\/p\/AF1QipNdtQKD_qSIn1HIBp6ZYxoyUztfSbJrCxM2DKPA=w122-h92-k-no","img2":"https:\/\/lh5.googleusercontent.com\/p\/AF1QipN_w91uV9yvl3EvsQMUhNPyMaK_gm-Zzhfb3G59=w408-h505-k-no"},{"name":"Almodobar Barcelona","category":"Discoteca","city":"Barcelona","address":"Carrer d'en Grassot, 36, Gr\u00e0cia, 08025 Barcelona","website":"grupalmodobar.com","email":"NO_EMAIL","phone":"932073855","reviews_rating":2.2,"num_reviews":867,"description":"Bar de copas y c\u00f3cteles con m\u00fasica actual y karaoke de sof\u00e1s naranjas y escenario en discoteca de dos plantas.","schedule":[{"day":"viernes","hours":"0:00\u20135:0023:00\u201324:00"},{"day":"s\u00e1bado","hours":"0:00\u20136:0023:00\u201324:00"},{"day":"domingo","hours":"0:00\u20136:00"},{"day":"lunes","hours":"Cerrado"},{"day":"martes","hours":"Cerrado"},{"day":"mi\u00e9rcoles","hours":"Cerrado"},{"day":"jueves","hours":"23:00\u201324:00"}],"auxiliar(borrar)":"NOT_FOUND","img1":"https:\/\/lh5.googleusercontent.com\/p\/AF1QipPwupffv7ygmQhySl7MmnDbu0XU7IDGntzP9gbu=w80-h118-k-no","img2":"https:\/\/lh5.googleusercontent.com\/p\/AF1QipNlYhGg4dcfh9LhWsG53MLGhE5U53uVQ6bDRDCj=w408-h306-k-no"},{"name":"Musical Maria","category":"Bar","city":"NO_CITY","address":"Carrer de Maria, 5, Gr\u00e0cia, 08012 Barcelona","website":"NO_WEBSITE","email":null,"phone":"NO_PHONE","reviews_rating":4.5,"num_reviews":845,"description":"Carteles y fotograf\u00edas de m\u00fasicos en bar de copas rockero con empanadas y pizza, trivial musical y billar.","schedule":[{"day":"viernes","hours":"21:00\u20133:00"},{"day":"s\u00e1bado","hours":"21:00\u20133:00"},{"day":"domingo","hours":"Cerrado"},{"day":"lunes","hours":"21:00\u20132:30"},{"day":"martes","hours":"21:00\u20132:30"},{"day":"mi\u00e9rcoles","hours":"21:00\u20132:30"},{"day":"jueves","hours":"21:00\u20132:30"}],"auxiliar(borrar)":"NOT_FOUND","img1":"https:\/\/lh5.googleusercontent.com\/p\/AF1QipOwgr656KE_uyM6mlWWVDrk1RYKaper2Q2vDyOK=w143-h92-k-no","img2":"https:\/\/lh3.googleusercontent.com\/p\/AF1QipNPwEmmgo2fsKbTDjIyUhme95STv8NkMqy-LcIH=w408-h240-k-no-pi0-ya300-ro0-fo100"},{"name":"Input - High Fidelity Dance Club","category":"Club nocturno","city":"NO_CITY","address":"Av. de Francesc Ferrer i Gu\u00e0rdia, 13, Sants-Montju\u00efc, 08038 Barcelona","website":"inputbcn.com","email":"NO_EMAIL","phone":"NO_PHONE","reviews_rating":4.1,"num_reviews":822,"description":"Sesiones de DJs internacionales en una discoteca con proyectores, l\u00e1seres y un sistema de sonido potente.","schedule":[{"day":"viernes","hours":"23:59\u201324:00"},{"day":"s\u00e1bado","hours":"0:00\u20136:0023:59\u201324:00"},{"day":"domingo","hours":"0:00\u20136:00"},{"day":"lunes","hours":"Cerrado"},{"day":"martes","hours":"Cerrado"},{"day":"mi\u00e9rcoles","hours":"Cerrado"},{"day":"jueves","hours":"Cerrado"}],"auxiliar(borrar)":"NOT_FOUND","img1":"https:\/\/lh5.googleusercontent.com\/p\/AF1QipNCjBWy99B9gt3JUTMMIaVuaCg58oRcV01cJkP8=w122-h92-k-no","img2":"https:\/\/lh5.googleusercontent.com\/p\/AF1QipPOrryIorisW5otYBI-IKkbXnsbgQrrxifCXwQq=w408-h272-k-no"},{"name":"Illusion Barcelona","category":"Discoteca","city":"Barcelona","address":"Carrer de Proven\u00e7a, 43, L'Eixample, 08029 Barcelona","website":"illusionbarcelona.com","email":"Mandarinalalatina@gmail.com.","phone":"682277321","reviews_rating":3.7,"num_reviews":819,"description":"NOT_FOUND","schedule":[{"day":"viernes","hours":"23:55\u201324:00"},{"day":"s\u00e1bado","hours":"0:00\u20136:0023:30\u201324:00"},{"day":"domingo","hours":"0:00\u20136:0023:59\u201324:00"},{"day":"lunes","hours":"0:00\u20135:00"},{"day":"martes","hours":"Cerrado"},{"day":"mi\u00e9rcoles","hours":"Cerrado"},{"day":"jueves","hours":"Cerrado"}],"auxiliar(borrar)":"Amigable con la comunidad LGTBI+","img1":"https:\/\/lh5.googleusercontent.com\/p\/AF1QipPZBNdVx3rzU2wJ-X6ASeXtzpgkoJaANOxQbTw=w138-h92-k-no","img2":"https:\/\/lh5.googleusercontent.com\/p\/AF1QipOTuEIgiWuDjiK9IASXEPzCHmH65wQAI7cLdjw=w408-h510-k-no"},{"name":"Madame George Lounge Bar","category":"Cocteler\u00eda","city":"Barcelona","address":"Carrer de Pujades, 179, Sant Mart\u00ed, 08005 Barcelona","website":"madamegeorgebar.com","email":"NO_EMAIL","phone":"935005151","reviews_rating":4.4,"num_reviews":802,"description":"NOT_FOUND","schedule":[{"day":"viernes","hours":"18:00\u20133:00"},{"day":"s\u00e1bado","hours":"18:00\u20133:00"},{"day":"domingo","hours":"18:00\u20132:00"},{"day":"lunes","hours":"18:00\u20132:00"},{"day":"martes","hours":"18:00\u20132:00"},{"day":"mi\u00e9rcoles","hours":"18:00\u20132:30"},{"day":"jueves","hours":"18:00\u20132:30"}],"auxiliar(borrar)":"Amigable con la comunidad LGTBI+","img1":"https:\/\/lh5.googleusercontent.com\/p\/AF1QipOtu6xP70sMAywpFuQ1F8n4hf671L5eQBrR64gB=w163-h92-k-no","img2":"https:\/\/lh5.googleusercontent.com\/p\/AF1QipMVgh-O0-Kcn3klNdQL-Kp3lD72XbFF-Qd0gNLW=w408-h373-k-no"},{"name":"Duvet Barcelona","category":"Discoteca","city":"Barcelona","address":"Carrer de C\u00f2rsega, 327, Gr\u00e0cia, 08037 Barcelona","website":"duvetbarcelona.com","email":"NO_EMAIL","phone":"932374322","reviews_rating":3.4,"num_reviews":771,"description":"Iluminaci\u00f3n tenue, zonas VIP y c\u00f3cteles en una discoteca sofisticada con sesiones de DJ y noches de salsa.","schedule":[{"day":"viernes","hours":"23:55\u201324:00"},{"day":"s\u00e1bado","hours":"0:00\u20136:0023:55\u201324:00"},{"day":"domingo","hours":"0:00\u20136:00"},{"day":"lunes","hours":"Cerrado"},{"day":"martes","hours":"Cerrado"},{"day":"mi\u00e9rcoles","hours":"Cerrado"},{"day":"jueves","hours":"Cerrado"}],"auxiliar(borrar)":"NOT_FOUND","img1":"https:\/\/lh5.googleusercontent.com\/p\/AF1QipPYfJ5lmLDNxaFYnJBAPApavwpaeI15eDJ7jskQ=w163-h92-k-no","img2":"https:\/\/lh5.googleusercontent.com\/p\/AF1QipMffu03MAzsSIQkx6cqa9JGRARuP_c6HqDDoH8I=w408-h272-k-no"},{"name":"Punto BCN","category":"Bar gay","city":"Barcelona","address":"C\/ de Muntaner, 65, L'Eixample, 08007 Barcelona","website":"facebook.com","email":"NO_EMAIL","phone":"934519152","reviews_rating":3.9,"num_reviews":771,"description":"Bar gay animado y espacioso, con m\u00fasica, eventos, cervezas, c\u00f3cteles, hora feliz y mesas de billar.","schedule":[{"day":"viernes","hours":"18:00\u20133:00"},{"day":"s\u00e1bado","hours":"18:00\u20133:00"},{"day":"domingo","hours":"Cerrado"},{"day":"lunes","hours":"Cerrado"},{"day":"martes","hours":"18:00\u20132:30"},{"day":"mi\u00e9rcoles","hours":"18:00\u20132:30"},{"day":"jueves","hours":"18:00\u20132:30"}],"auxiliar(borrar)":"Amigable con la comunidad LGTBI+","img1":"https:\/\/lh5.googleusercontent.com\/p\/AF1QipN5j4WhYwkcpudSPvKykPMzs8oo_ZOheNfOAlc=w80-h106-k-no","img2":"https:\/\/lh5.googleusercontent.com\/p\/AF1QipOtzKsSFPXYKTYEH78yN1xMSaVoTN2rOFtYPswF=w408-h272-k-no"},{"name":"JazzMan","category":"Club de jazz","city":"Barcelona","address":"Carrer de Roger de Flor, 238, L'Eixample, 08025 Barcelona","website":"jazzmanbcn.com","email":"NO_EMAIL","phone":"667618593","reviews_rating":4.6,"num_reviews":735,"description":"Licores y combinados en peque\u00f1o y acogedor club de jazz de 1979 con dos ambientes y altillo para los m\u00fasicos.","schedule":[{"day":"viernes","hours":"21:00\u20133:00"},{"day":"s\u00e1bado","hours":"21:00\u20133:00"},{"day":"domingo","hours":"Cerrado"},{"day":"lunes","hours":"21:00\u20132:30"},{"day":"martes","hours":"21:00\u20132:30"},{"day":"mi\u00e9rcoles","hours":"21:00\u20132:30"},{"day":"jueves","hours":"21:00\u20132:30"}],"auxiliar(borrar)":"Carta","img1":"https:\/\/lh5.googleusercontent.com\/p\/AF1QipPWK6LnVXWK-SrlYhwM-6J4VbZquxjuEtSqMPSz=w163-h92-k-no","img2":"https:\/\/lh5.googleusercontent.com\/p\/AF1QipN78lxmsKwdXgjDihOqnPCFC4kiL84EegvmHO4U=w427-h240-k-no"},{"name":"La Fira Casanova","category":"Discoteca","city":"Barcelona","address":"Carrer de Casanova, 171, Eixample, 08036 Barcelona","website":"lafiragroup.com","email":"oficinas@invermik.es","phone":"699544530","reviews_rating":3.8,"num_reviews":719,"description":"NOT_FOUND","schedule":[{"day":"viernes","hours":"0:00\u20135:00"},{"day":"s\u00e1bado","hours":"0:00\u20135:3018:00\u201323:00"},{"day":"domingo","hours":"0:00\u20135:30"},{"day":"lunes","hours":"0:00\u201317:00"},{"day":"martes","hours":"Cerrado"},{"day":"mi\u00e9rcoles","hours":"Cerrado"},{"day":"jueves","hours":"Cerrado"}],"auxiliar(borrar)":"NOT_FOUND","img1":"https:\/\/lh5.googleusercontent.com\/p\/AF1QipNlO71ntXsb1EJhv3SiF0XbmsFv0bX81nDqE8z9=w80-h106-k-no","img2":"https:\/\/lh5.googleusercontent.com\/p\/AF1QipPl5d-3cWYT15Jt5kqTHeCvccaB7gZNG0JW4EGf=w408-h544-k-no"},{"name":"Monterrey","category":"Bar","city":"NO_CITY","address":"Carrer Major de Sarri\u00e0, 68, Sarri\u00e0-Sant Gervasi, 08017 Barcelona","website":"NO_WEBSITE","email":null,"phone":"NO_PHONE","reviews_rating":4.2,"num_reviews":715,"description":"NOT_FOUND","schedule":[{"day":"viernes","hours":"7:30\u20131:00"},{"day":"s\u00e1bado","hours":"7:30\u20132:00"},{"day":"domingo","hours":"Cerrado"},{"day":"lunes","hours":"7:30\u20131:00"},{"day":"martes","hours":"7:30\u20131:00"},{"day":"mi\u00e9rcoles","hours":"7:30\u20131:00"},{"day":"jueves","hours":"7:30\u20131:00"}],"auxiliar(borrar)":"NOT_FOUND","img1":"https:\/\/lh5.googleusercontent.com\/p\/AF1QipO2W8tvapOwsmDFnvt8bT7isyBb8Dw6gJbvMNE=w163-h92-k-no","img2":"https:\/\/lh5.googleusercontent.com\/p\/AF1QipMWh82uB94JnmJmwPahfu9Rjj4rUa-wUVO9G1H2=w408-h305-k-no"},{"name":"Bar Serra","category":"Bar","city":"NO_CITY","address":"Carrer Santa Eul\u00e0lia, 100, 08902 L'Hospitalet de Llobregat, Barcelona","website":"NO_WEBSITE","email":null,"phone":"NO_PHONE","reviews_rating":3.9,"num_reviews":708,"description":"NOT_FOUND","schedule":[{"day":"viernes","hours":"7:00\u20130:30"},{"day":"s\u00e1bado","hours":"9:00\u201322:00"},{"day":"domingo","hours":"9:00\u201317:00"},{"day":"lunes","hours":"7:00\u20130:30"},{"day":"martes","hours":"7:00\u20130:30"},{"day":"mi\u00e9rcoles","hours":"7:00\u20130:30"},{"day":"jueves","hours":"7:00\u20130:30"}],"auxiliar(borrar)":"NOT_FOUND","img1":"https:\/\/lh5.googleusercontent.com\/p\/AF1QipNDAawLncnj3z25sJHIg37W2I4voIFsN-xxcM7i=w163-h92-k-no","img2":"https:\/\/lh5.googleusercontent.com\/p\/AF1QipPH5BSrseTnM7hDjdc3Lg_stDCrcHhgXQzdwllB=w426-h240-k-no"},{"name":"Eleven Shisha Lounge Barcelona & Cocktails","category":"Bar con narguiles","city":"Barcelona","address":"Carrer de C\u00f2rsega, 257, L'Eixample, 08036 Barcelona","website":"instagram.com","email":"NO_EMAIL","phone":"646596048","reviews_rating":5.0,"num_reviews":695,"description":"NOT_FOUND","schedule":[{"day":"viernes","hours":"18:00\u20133:00"},{"day":"s\u00e1bado","hours":"18:00\u20133:00"},{"day":"domingo","hours":"18:00\u20131:00"},{"day":"lunes","hours":"18:00\u20132:00"},{"day":"martes","hours":"18:00\u20132:00"},{"day":"mi\u00e9rcoles","hours":"18:00\u20132:00"},{"day":"jueves","hours":"18:00\u20132:00"}],"auxiliar(borrar)":"Carta","img1":"https:\/\/lh5.googleusercontent.com\/p\/AF1QipPogVHbp3pTei05SYPbcKpeeVVw1WM0RzKe_OIC=w137-h92-k-no","img2":"https:\/\/lh5.googleusercontent.com\/p\/AF1QipOhCIqLuB1Swnrgw9CrfWMtT-eVeBdFAulfl90I=w426-h240-k-no"},{"name":"Almo2bar","category":"Discoteca","city":"Barcelona","address":"59-61, Carrer de Bruniquer, 08024 Barcelona","website":"grupalmodobar.com","email":"NO_EMAIL","phone":"932199345","reviews_rating":2.5,"num_reviews":684,"description":"Futbol\u00edn y taburetes altos en discoteca con m\u00fasica actual y d\u00eda dedicado al baile de swing con m\u00fasica en vivo.","schedule":[{"day":"viernes","hours":"0:00\u20135:0023:00\u201324:00"},{"day":"s\u00e1bado","hours":"0:00\u20136:0023:00\u201324:00"},{"day":"domingo","hours":"0:00\u20136:0023:59\u201324:00"},{"day":"lunes","hours":"0:00\u20135:00"},{"day":"martes","hours":"Cerrado"},{"day":"mi\u00e9rcoles","hours":"Cerrado"},{"day":"jueves","hours":"23:00\u201324:00"}],"auxiliar(borrar)":"NOT_FOUND","img1":"https:\/\/lh5.googleusercontent.com\/p\/AF1QipPtnW0JMnwZmBQD3WeS_4g9IfYe50sJezDgh-uH=w122-h92-k-no","img2":"https:\/\/lh5.googleusercontent.com\/p\/AF1QipMHTiwiSWKcf8y6uqUzDQb-eAvjZWaeaYff6JHl=w408-h306-k-no"},{"name":"Ballbreaker","category":"Club de m\u00fasica rock","city":"NO_CITY","address":"Carrer de Matilde, 7, Gr\u00e0cia, 08012 Barcelona","website":"NO_WEBSITE","email":null,"phone":"NO_PHONE","reviews_rating":4.6,"num_reviews":671,"description":"NOT_FOUND","schedule":[{"day":"viernes","hours":"19:00\u20133:00"},{"day":"s\u00e1bado","hours":"19:00\u20133:00"},{"day":"domingo","hours":"Cerrado"},{"day":"lunes","hours":"19:00\u20132:30"},{"day":"martes","hours":"19:00\u20132:30"},{"day":"mi\u00e9rcoles","hours":"19:00\u20132:30"},{"day":"jueves","hours":"19:00\u20132:30"}],"auxiliar(borrar)":"NOT_FOUND","img1":"https:\/\/lh5.googleusercontent.com\/p\/AF1QipM1ETFArWx59gpjG5emmVnDW3Y9yYu1nulD7k0I=w122-h92-k-no","img2":"https:\/\/lh5.googleusercontent.com\/p\/AF1QipM7wWnd01hCma0IVHL9uQrGn_-weQ6Ubjop1BO7=w408-h408-k-no"},{"name":"Karma Discoteca Bar","category":"Discoteca","city":"Barcelona","address":"Pl. Reial, 10, Ciutat Vella, 08002 Barcelona","website":"karmadisco.com","email":"info@karmadisco.com","phone":"933025680","reviews_rating":3.8,"num_reviews":658,"description":"Discoteca abierta desde 1978, con m\u00fasica rock desde los 60 hasta la actualidad.","schedule":[{"day":"viernes","hours":"0:00\u20135:0011:30\u201324:00"},{"day":"s\u00e1bado","hours":"0:00\u20136:0011:30\u201324:00"},{"day":"domingo","hours":"0:00\u20136:0011:30\u201324:00"},{"day":"lunes","hours":"0:00\u20132:3011:30\u201324:00"},{"day":"martes","hours":"0:00\u20132:3011:30\u201324:00"},{"day":"mi\u00e9rcoles","hours":"0:00\u20132:3011:30\u201324:00"},{"day":"jueves","hours":"0:00\u20135:0011:30\u201324:00"}],"auxiliar(borrar)":"NOT_FOUND","img1":"https:\/\/lh5.googleusercontent.com\/p\/AF1QipO4BMsub3Zsi_U9u21SzXHnGTaLLcPgerWQQKTL=w138-h92-k-no","img2":"https:\/\/lh5.googleusercontent.com\/p\/AF1QipOf1t-EXubIARliGPnSIBF5DSxSe-5EdUU7ga5g=w408-h306-k-no"},{"name":"Draco Premium Club","category":"Discoteca","city":"Barcelona","address":"Carrer de Ca l'Alegre de Dalt, 55, Gr\u00e0cia, 08024 Barcelona","website":"dracodisco.com","email":"NO_EMAIL","phone":"620933417","reviews_rating":4.4,"num_reviews":654,"description":"NOT_FOUND","schedule":[{"day":"viernes","hours":"23:59\u201324:00"},{"day":"s\u00e1bado","hours":"0:00\u20136:0023:59\u201324:00"},{"day":"domingo","hours":"0:00\u20136:0023:59\u201324:00"},{"day":"lunes","hours":"0:00\u20135:00"},{"day":"martes","hours":"Cerrado"},{"day":"mi\u00e9rcoles","hours":"Cerrado"},{"day":"jueves","hours":"Cerrado"}],"auxiliar(borrar)":"Servicios","img1":"https:\/\/lh5.googleusercontent.com\/p\/AF1QipMy62TFrcsQLyJk8sDnX8-90362fUDPCHSF-AKL=w137-h92-k-no","img2":"https:\/\/lh3.googleusercontent.com\/p\/AF1QipOKWhUGTIvuHKgwJAWTxyj3WkTDdoT-WpJ3WGzk=w408-h738-k-no"},{"name":"L'Oncle Jack Music & Cocktail Bar","category":"Bar musical","city":"L'Hospitalet de Llobregat","address":"Carrer de les Roselles, 32, 08901 L'Hospitalet de Llobregat, Barcelona","website":"mizuwaricocktailbar.es","email":"NO_EMAIL","phone":"692123697","reviews_rating":4.6,"num_reviews":652,"description":"NOT_FOUND","schedule":[{"day":"viernes","hours":"18:00\u20133:00"},{"day":"s\u00e1bado","hours":"17:00\u20133:00"},{"day":"domingo","hours":"17:00\u201322:00"},{"day":"lunes","hours":"Cerrado"},{"day":"martes","hours":"Cerrado"},{"day":"mi\u00e9rcoles","hours":"18:00\u20132:00"},{"day":"jueves","hours":"18:00\u20132:00"}],"auxiliar(borrar)":"NOT_FOUND","img1":"https:\/\/lh5.googleusercontent.com\/p\/AF1QipOniT6KKlwoTF7eiMINmXt3J2B12wFsipo-txbZ=w122-h92-k-no","img2":"https:\/\/lh5.googleusercontent.com\/p\/AF1QipM9__E9xsN82MIUwhKrXccSVGd_7RRmwvoqDxMX=w426-h240-k-no"},{"name":"BLACK BOX","category":"Discoteca","city":"Barcelona","address":"Carrer de la Diputaci\u00f3, 233, L'Eixample, 08007 Barcelona","website":"blackboxdisco.com","email":"NO_EMAIL","phone":"934878342","reviews_rating":3.7,"num_reviews":636,"description":"Remezclas de canciones de los 80 y los 90 en discoteca de ambiente mixta con paredes rojas y columnas.","schedule":[{"day":"viernes","hours":"23:59\u201324:00"},{"day":"s\u00e1bado","hours":"0:00\u20136:0023:59\u201324:00"},{"day":"domingo","hours":"0:00\u20136:00"},{"day":"lunes","hours":"Cerrado"},{"day":"martes","hours":"Cerrado"},{"day":"mi\u00e9rcoles","hours":"Cerrado"},{"day":"jueves","hours":"Cerrado"}],"auxiliar(borrar)":"Servicios","img1":"https:\/\/lh5.googleusercontent.com\/p\/AF1QipN1LzZmUPvr1etH43uwFwRDARXsw15iOYfJruo=w138-h92-k-no","img2":"https:\/\/lh5.googleusercontent.com\/p\/AF1QipMBYrGA4qBznCxrs92L8S2kYqV7ElijuvMFbbDz=w408-h612-k-no"},{"name":"Bartreze","category":"Bar","city":"Barcelona","address":"Carrer Major de Sarri\u00e0, 115, Sarri\u00e0-Sant Gervasi, 08017 Barcelona","website":"bartreze.com","email":"bartreze@outlook.es","phone":"932506499","reviews_rating":4.2,"num_reviews":626,"description":"NOT_FOUND","schedule":[{"day":"viernes","hours":"8:00\u20132:00"},{"day":"s\u00e1bado","hours":"9:00\u20132:00"},{"day":"domingo","hours":"9:00\u20131:00"},{"day":"lunes","hours":"8:00\u20131:00"},{"day":"martes","hours":"8:00\u20131:00"},{"day":"mi\u00e9rcoles","hours":"8:00\u20131:00"},{"day":"jueves","hours":"8:00\u20132:00"}],"auxiliar(borrar)":"NOT_FOUND","img1":"https:\/\/lh5.googleusercontent.com\/p\/AF1QipOdR5Wdn0EvMOxdayhR0GmbrZgzP4xYLN0x6cjj=w80-h106-k-no","img2":"https:\/\/lh5.googleusercontent.com\/p\/AF1QipMinWPlCYWD6wlb7EWuJzgFgEmfViELj2pieveD=w408-h272-k-no"},{"name":"Soda Ac\u00fastic","category":"Club de jazz","city":"Barcelona","address":"Carrer de les Guilleries, 6, Gr\u00e0cia, 08012 Barcelona","website":"soda.cat","email":"info@soda.cat","phone":"930165590","reviews_rating":4.4,"num_reviews":616,"description":"Bar acogedor de estilo retro con conciertos de artistas locales de jazz, blues y otros g\u00e9neros musicales.","schedule":[{"day":"viernes","hours":"20:00\u20133:00"},{"day":"s\u00e1bado","hours":"20:00\u20133:00"},{"day":"domingo","hours":"Cerrado"},{"day":"lunes","hours":"Cerrado"},{"day":"martes","hours":"20:00\u20132:00"},{"day":"mi\u00e9rcoles","hours":"20:00\u20132:00"},{"day":"jueves","hours":"20:00\u20132:30"}],"auxiliar(borrar)":"NOT_FOUND","img1":"https:\/\/lh5.googleusercontent.com\/p\/AF1QipMH2VRDrBjcW0Wo3s4ub84ev6qHyIP-fqr8JmeY=w163-h92-k-no","img2":"https:\/\/lh5.googleusercontent.com\/p\/AF1QipOfIKKDD9CbnIpfkG4W5sHYoSJnD3ALztJ4dWIq=w408-h272-k-no"},{"name":"Canela Dance Club","category":"Discoteca","city":"NO_CITY","address":"Carrer de Ca l'Alegre de Dalt, 55, Gr\u00e0cia, 08024 Barcelona","website":"NO_WEBSITE","email":null,"phone":"NO_PHONE","reviews_rating":3.4,"num_reviews":595,"description":"Taburetes bajos, ambiente de baile e iluminaci\u00f3n de colores en discoteca con rumba y m\u00fasica colombiana.","schedule":[{"day":"viernes","hours":"0:00\u20136:00"},{"day":"s\u00e1bado","hours":"0:00\u20136:00"},{"day":"domingo","hours":"Cerrado"},{"day":"lunes","hours":"Cerrado"},{"day":"martes","hours":"Cerrado"},{"day":"mi\u00e9rcoles","hours":"Cerrado"},{"day":"jueves","hours":"Cerrado"}],"auxiliar(borrar)":"NOT_FOUND","img1":"https:\/\/lh5.googleusercontent.com\/p\/AF1QipMTEPz1yvFec1gmj_hrfU8nwjg2IVmArR1zgnqV=w163-h92-k-no","img2":"https:\/\/lh3.googleusercontent.com\/p\/AF1QipM-moP7V9z86qFrM5LgaS6Rydb_H4rATFmiRMVV=w408-h789-k-no"},{"name":"SINGULAR Copas y Billares","category":"Pub","city":"Barcelona","address":"Carrer de Sant Antoni Maria Claret, 514, Sant Andreu, 08027 Barcelona","website":"singularpub.com","email":"NO_EMAIL","phone":"935181113","reviews_rating":4.4,"num_reviews":580,"description":"NOT_FOUND","schedule":[{"day":"viernes","hours":"18:00\u20132:30"},{"day":"s\u00e1bado","hours":"16:00\u20132:30"},{"day":"domingo","hours":"16:00\u20131:00"},{"day":"lunes","hours":"18:00\u20131:00"},{"day":"martes","hours":"18:00\u20131:00"},{"day":"mi\u00e9rcoles","hours":"18:00\u20131:00"},{"day":"jueves","hours":"18:00\u20131:00"}],"auxiliar(borrar)":"Amigable con la comunidad LGTBI+","img1":"https:\/\/lh5.googleusercontent.com\/p\/AF1QipNRhZ2J_PcoiqGmbd42_CBvVPqnp5jnizlVSiPT=w138-h92-k-no","img2":"https:\/\/lh5.googleusercontent.com\/p\/AF1QipOBaGMt8IQWP6v9YMO3_zU8YlV703HJGIH7sB3T=w426-h240-k-no"},{"name":"Believe Club Barcelona","category":"Discoteca","city":"Barcelona","address":"Carrer de Balmes, 56, L'Eixample, 08011 Barcelona","website":"thebelieve.club","email":"hola@believegroup.cat","phone":"679115105","reviews_rating":3.5,"num_reviews":577,"description":"NOT_FOUND","schedule":[{"day":"viernes","hours":"0:00\u20135:0023:00\u201324:00"},{"day":"s\u00e1bado","hours":"0:00\u20136:0023:00\u201324:00"},{"day":"domingo","hours":"0:00\u20136:0023:00\u201324:00"},{"day":"lunes","hours":"0:00\u20135:0023:00\u201324:00"},{"day":"martes","hours":"0:00\u20135:0023:00\u201324:00"},{"day":"mi\u00e9rcoles","hours":"0:00\u20135:0023:00\u201324:00"},{"day":"jueves","hours":"0:00\u20135:0023:00\u201324:00"}],"auxiliar(borrar)":"Carta","img1":"https:\/\/lh5.googleusercontent.com\/p\/AF1QipNxhjfpQc555KWW3SeQQNQYUYVCPJKhHrr5xMvK=w138-h92-k-no","img2":"https:\/\/lh5.googleusercontent.com\/p\/AF1QipNz3Kft9eIYp61oPa8SsmsPPmmuOv3kujbxSGNy=w408-h272-k-no"},{"name":"Bar Odisea 5.0","category":"Bar musical","city":"NO_CITY","address":"Carrer de Barcelona, 49, 08901 L'Hospitalet de Llobregat, Barcelona","website":"wa.link","email":"NO_EMAIL","phone":"689024401","reviews_rating":4.2,"num_reviews":576,"description":"NOT_FOUND","schedule":[{"day":"viernes","hours":"21:00\u20133:00"},{"day":"s\u00e1bado","hours":"19:00\u20133:00"},{"day":"domingo","hours":"19:00\u20132:00"},{"day":"lunes","hours":"Cerrado"},{"day":"martes","hours":"Cerrado"},{"day":"mi\u00e9rcoles","hours":"21:00\u20132:00"},{"day":"jueves","hours":"21:00\u20132:00"}],"auxiliar(borrar)":"Carta","img1":"https:\/\/lh5.googleusercontent.com\/p\/AF1QipOc4924CZu19ORaK3M3F2SbPvk9pPd4krk9dXOH=w138-h92-k-no","img2":"https:\/\/lh5.googleusercontent.com\/p\/AF1QipPUM1hc0SjoH6TAH-PNGyoP2iMYq0BKlsciEDYc=w408-h544-k-no"},{"name":"Four Elements Shisha Lounge Barcelona","category":"Bar con narguiles","city":"Barcelona","address":"Carrer de Laforja, 61, Sarri\u00e0-Sant Gervasi, 08021 Barcelona","website":"4elementslounge.com","email":"info@4foureelementslaunge.com","phone":"930251461","reviews_rating":4.8,"num_reviews":575,"description":"NOT_FOUND","schedule":[{"day":"viernes","hours":"13:00\u20131:00"},{"day":"s\u00e1bado","hours":"13:00\u20131:00"},{"day":"domingo","hours":"13:00\u20131:00"},{"day":"lunes","hours":"13:00\u20131:00"},{"day":"martes","hours":"13:00\u20131:00"},{"day":"mi\u00e9rcoles","hours":"13:00\u20131:00"},{"day":"jueves","hours":"13:00\u20131:00"}],"auxiliar(borrar)":"NOT_FOUND","img1":"https:\/\/lh5.googleusercontent.com\/p\/AF1QipOBbjDxDPoFfPw6JL8anvWNOWUPudSmM9Rx9cRi=w80-h141-k-no","img2":"https:\/\/lh5.googleusercontent.com\/p\/AF1QipMlYBEz6rT0ZyuD0pQHKDHv_CIP_uRvoW9_KFro=w408-h298-k-no"},{"name":"Cockteler\u00eda Mary Pickford","category":"Cocteler\u00eda","city":"L'Hospitalet de Llobregat","address":"Carrer d'Enric Prat de la Riba, 246, 08901 L'Hospitalet de Llobregat, Barcelona","website":"facebook.com","email":"NO_EMAIL","phone":"933379165","reviews_rating":4.6,"num_reviews":565,"description":"NOT_FOUND","schedule":[{"day":"viernes","hours":"19:00\u20133:00"},{"day":"s\u00e1bado","hours":"19:00\u20133:00"},{"day":"domingo","hours":"19:00\u20132:00"},{"day":"lunes","hours":"Cerrado"},{"day":"martes","hours":"Cerrado"},{"day":"mi\u00e9rcoles","hours":"19:00\u20132:00"},{"day":"jueves","hours":"19:00\u20132:00"}],"auxiliar(borrar)":"NOT_FOUND","img1":"https:\/\/lh5.googleusercontent.com\/p\/AF1QipMu0NoFG4pk6r7LNDuNl_d8m3Y9Ub8CoIxdoxWA=w122-h92-k-no","img2":"https:\/\/lh3.googleusercontent.com\/p\/AF1QipN7jEuRu2Gjhg6TSclI7D8hw-2JEDba66LBuBRk=w408-h240-k-no-pi0-ya60-ro0-fo100"},{"name":"Almirall","category":"Bar","city":"Barcelona","address":"Carrer d'Arag\u00f3, 625, Sant Mart\u00ed, 08026 Barcelona","website":"facebook.com","email":"NO_EMAIL","phone":"677575868","reviews_rating":3.8,"num_reviews":540,"description":"NOT_FOUND","schedule":[{"day":"viernes","hours":"8:30\u20132:30"},{"day":"s\u00e1bado","hours":"9:00\u20132:30"},{"day":"domingo","hours":"Cerrado"},{"day":"lunes","hours":"8:30\u201323:30"},{"day":"martes","hours":"8:30\u201323:30"},{"day":"mi\u00e9rcoles","hours":"8:30\u201323:30"},{"day":"jueves","hours":"8:30\u201323:30"}],"auxiliar(borrar)":"Reclamar esta empresa","img1":"https:\/\/lh5.googleusercontent.com\/p\/AF1QipMIC20clmsCX-SUJnFYjVEhJUllyRhPO62myAps=w122-h92-k-no","img2":"https:\/\/lh5.googleusercontent.com\/p\/AF1QipMNRquXkiX-CxqXWwgPa1exXSkdsS5WomIK0PuJ=w408-h306-k-no"},{"name":"CASA FIGARI \/\/ Bar de Jazz","category":"Club de jazz","city":"Barcelona","address":"Carrer del Torrent de l'Olla, 141, Gr\u00e0cia, 08012 Barcelona","website":"casafigari.com","email":"NO_EMAIL","phone":"930049975","reviews_rating":4.5,"num_reviews":534,"description":"NOT_FOUND","schedule":[{"day":"viernes","hours":"20:00\u20132:30"},{"day":"s\u00e1bado","hours":"20:00\u20132:30"},{"day":"domingo","hours":"Cerrado"},{"day":"lunes","hours":"Cerrado"},{"day":"martes","hours":"20:00\u20132:00"},{"day":"mi\u00e9rcoles","hours":"20:00\u20132:00"},{"day":"jueves","hours":"20:00\u20132:00"}],"auxiliar(borrar)":"Amigable con la comunidad LGTBI+","img1":"https:\/\/lh5.googleusercontent.com\/p\/AF1QipPcERVJDOHsq-6wkk0aZnMnAMIU8_0Rob_Rdoo2=w80-h106-k-no","img2":"https:\/\/lh5.googleusercontent.com\/p\/AF1QipOAafYc60Eu8x_KVJG251InVTXD537PB6V1cBhp=w426-h240-k-no"},{"name":"14 De La Rosa","category":"Bar","city":"Barcelona","address":"Carrer de Mart\u00ednez de la Rosa, 14, Gr\u00e0cia, 08012 Barcelona","website":"14delarosa.com","email":"info@14delarosa.com","phone":"NO_PHONE","reviews_rating":4.8,"num_reviews":508,"description":"NOT_FOUND","schedule":[{"day":"viernes","hours":"18:00\u20132:30"},{"day":"s\u00e1bado","hours":"18:00\u20132:30"},{"day":"domingo","hours":"Cerrado"},{"day":"lunes","hours":"18:00\u20131:30"},{"day":"martes","hours":"18:00\u20131:30"},{"day":"mi\u00e9rcoles","hours":"18:00\u20131:30"},{"day":"jueves","hours":"18:00\u20131:30"}],"auxiliar(borrar)":"Amigable con la comunidad LGTBI+","img1":"https:\/\/lh5.googleusercontent.com\/p\/AF1QipPUawqydTNJAIesh-UnqkmHy1sAJIm5To1LXJg7=w128-h92-k-no","img2":"https:\/\/lh5.googleusercontent.com\/p\/AF1QipO33jr3OUHobHCdS5z_5MaZsHFxlbvthtVezXrQ=w408-h544-k-no"},{"name":"Juanchito","category":"Discoteca","city":"NO_CITY","address":"Carrer d'Enric Prat de la Riba, 61, 08901 L'Hospitalet de Llobregat, Barcelona","website":"NO_WEBSITE","email":null,"phone":"NO_PHONE","reviews_rating":3.9,"num_reviews":496,"description":"NOT_FOUND","schedule":[{"day":"viernes","hours":"23:00\u201324:00"},{"day":"s\u00e1bado","hours":"0:00\u201317:0023:00\u201324:00"},{"day":"domingo","hours":"0:00\u201317:00"},{"day":"lunes","hours":"Cerrado"},{"day":"martes","hours":"Cerrado"},{"day":"mi\u00e9rcoles","hours":"Cerrado"},{"day":"jueves","hours":"Cerrado"}],"auxiliar(borrar)":"NOT_FOUND","img1":"https:\/\/lh5.googleusercontent.com\/p\/AF1QipO6ec-IT7YRMI_g3f5goc7Sc777X0jshEnO4pAZ=w122-h92-k-no","img2":"https:\/\/lh5.googleusercontent.com\/p\/AF1QipM6xDhlidUzrBdSvHONQ2N0FqK9nVi2kLTUVuQ_=w408-h544-k-no"},{"name":"Bar Viu","category":"Bar","city":"Barcelona","address":"Carrer de la Perla, 26, Gr\u00e0cia, 08012 Barcelona","website":"m.facebook.com","email":"NO_EMAIL","phone":"937609458","reviews_rating":4.5,"num_reviews":493,"description":"Local peque\u00f1o y animado lleno de cuadros, donde tomar tapas cl\u00e1sicas, cerveza y vino con m\u00fasica en directo.","schedule":[{"day":"viernes","hours":"18:00\u20132:30"},{"day":"s\u00e1bado","hours":"18:00\u20132:30"},{"day":"domingo","hours":"Cerrado"},{"day":"lunes","hours":"Cerrado"},{"day":"martes","hours":"18:00\u20131:00"},{"day":"mi\u00e9rcoles","hours":"18:00\u20131:00"},{"day":"jueves","hours":"18:00\u20132:30"}],"auxiliar(borrar)":"NOT_FOUND","img1":"https:\/\/lh5.googleusercontent.com\/p\/AF1QipM4Uhp0DyTtzvPip_9Lr5fcXiEC1anlQcpqQ_Cs=w137-h92-k-no","img2":"https:\/\/lh5.googleusercontent.com\/p\/AF1QipNp_IFm3mNUZgtXVHsGk1OFjAgGXQtH62ZodRA8=w408-h306-k-no"},{"name":"De Copas","category":"Bar","city":"NO_CITY","address":"Carrer de Bruniquer, 65, Gr\u00e0cia, 08024 Barcelona","website":"NO_WEBSITE","email":null,"phone":"NO_PHONE","reviews_rating":3.8,"num_reviews":469,"description":"NOT_FOUND","schedule":[{"day":"viernes","hours":"18:00\u20133:00"},{"day":"s\u00e1bado","hours":"18:00\u20133:00"},{"day":"domingo","hours":"18:00\u20132:00"},{"day":"lunes","hours":"18:00\u20132:00"},{"day":"martes","hours":"18:00\u20132:00"},{"day":"mi\u00e9rcoles","hours":"18:00\u20132:00"},{"day":"jueves","hours":"18:00\u20132:00"}],"auxiliar(borrar)":"NOT_FOUND","img1":"https:\/\/lh5.googleusercontent.com\/p\/AF1QipPi9mxcZbcjPmHG9DYlCO6BXwNVisLQwIG6GA52=w80-h102-k-no","img2":"https:\/\/lh5.googleusercontent.com\/p\/AF1QipPQfBUR62CaOL9h-hgLLzwbd6k0TGCoCct6c4bC=w408-h884-k-no"},{"name":"Bar Ra\u00efm","category":"Bar","city":"NO_CITY","address":"Carrer de Siracusa, 4, Gr\u00e0cia, 08012 Barcelona","website":"NO_WEBSITE","email":null,"phone":"NO_PHONE","reviews_rating":4.3,"num_reviews":465,"description":"NOT_FOUND","schedule":[{"day":"viernes","hours":"22:00\u20132:00"},{"day":"s\u00e1bado","hours":"22:00\u20132:00"},{"day":"domingo","hours":"Cerrado"},{"day":"lunes","hours":"Cerrado"},{"day":"martes","hours":"Cerrado"},{"day":"mi\u00e9rcoles","hours":"Cerrado"},{"day":"jueves","hours":"22:00\u20131:30"}],"auxiliar(borrar)":"NOT_FOUND","img1":"https:\/\/lh5.googleusercontent.com\/p\/AF1QipPTSSzrcYDhReHUc9MxOO4ahibHgqrYLbmAti_e=w163-h92-k-no","img2":"https:\/\/lh5.googleusercontent.com\/p\/AF1QipMhUD9gC05LBIhauLvlwNhNQglcSoVs0_lvvCHS=w408-h320-k-no"},{"name":"A Viva Voz | Muntaner","category":"Karaoke","city":"Barcelona","address":"C\/ de Muntaner, 414, Sarri\u00e0-Sant Gervasi, 08006 Barcelona","website":"barcelonakaraoke.com","email":"NO_EMAIL","phone":"620805745","reviews_rating":4.2,"num_reviews":461,"description":"NOT_FOUND","schedule":"NOT_FOUND","auxiliar(borrar)":"Cerrado \u22c5 Apertura: 19:00","img1":"https:\/\/lh5.googleusercontent.com\/p\/AF1QipNqJaIEFifs1Vaqnmh_iLMEXAGInlJYYTU8oy13=w131-h92-k-no","img2":"https:\/\/lh5.googleusercontent.com\/p\/AF1QipMj2QvAJBvuOP_CnLoPLRVwlDedAt_n9BXBJCZw=w426-h240-k-no"},{"name":"The Secret Garden Restaurant & Lounge Club","category":"Restaurante","city":"Barcelona","address":"Carrer de Salvador Espriu, 79, Sant Mart\u00ed, 08005 Barcelona","website":"thesecretgardenbcn.es","email":"NO_EMAIL","phone":"641464872","reviews_rating":4.7,"num_reviews":456,"description":"NOT_FOUND","schedule":[{"day":"viernes","hours":"20:00\u20133:00"},{"day":"s\u00e1bado","hours":"20:00\u20133:00"},{"day":"domingo","hours":"20:00\u20133:00"},{"day":"lunes","hours":"Cerrado"},{"day":"martes","hours":"Cerrado"},{"day":"mi\u00e9rcoles","hours":"20:00\u20133:00"},{"day":"jueves","hours":"20:00\u20133:00"}],"auxiliar(borrar)":"Carta","img1":"https:\/\/lh5.googleusercontent.com\/p\/AF1QipMvahzYYwLAsP6wBC31fXCRIqbjH29uMDXmjhtb=w122-h92-k-no","img2":"https:\/\/lh5.googleusercontent.com\/p\/AF1QipNKHnU7Aonh4iTTBaHkr3gctuZC7p7FcHgidRpG=w408-h272-k-no"},{"name":"Canap\u00e9 Premium Music Bar","category":"Bar musical","city":"NO_CITY","address":"Carrer de la Muntanya, 34, Sant Mart\u00ed, 08026 Barcelona","website":"NO_WEBSITE","email":null,"phone":"NO_PHONE","reviews_rating":3.9,"num_reviews":428,"description":"NOT_FOUND","schedule":[{"day":"viernes","hours":"21:00\u20133:30"},{"day":"s\u00e1bado","hours":"21:00\u20133:30"},{"day":"domingo","hours":"17:00\u20133:00"},{"day":"lunes","hours":"21:00\u20133:00"},{"day":"martes","hours":"21:00\u20133:00"},{"day":"mi\u00e9rcoles","hours":"21:00\u20133:00"},{"day":"jueves","hours":"21:00\u20133:00"}],"auxiliar(borrar)":"NOT_FOUND","img1":"https:\/\/lh5.googleusercontent.com\/p\/AF1QipN98eEjtc1dsgIjLeSMQuLs6zBwP9f91KGDHRXl=w122-h92-k-no","img2":"https:\/\/lh5.googleusercontent.com\/p\/AF1QipPLLv4N4pGo9s5SGQN4orr2yk2JX70GCaD95tE-=w408-h306-k-no"},{"name":"PAU DE SARRI\u00c0.","category":"Bar restaurante","city":"Barcelona","address":"Pla\u00e7a Sant Vicen\u00e7 de Sarri\u00e0, 1, Sarri\u00e0-Sant Gervasi, 08017 Barcelona","website":"instagram.com","email":"NO_EMAIL","phone":"932031052","reviews_rating":4.2,"num_reviews":413,"description":"NOT_FOUND","schedule":[{"day":"viernes","hours":"8:00\u201324:00"},{"day":"s\u00e1bado","hours":"8:00\u201324:00"},{"day":"domingo","hours":"8:00\u201324:00"},{"day":"lunes","hours":"12:00\u201324:00"},{"day":"martes","hours":"8:00\u201324:00"},{"day":"mi\u00e9rcoles","hours":"8:00\u201324:00"},{"day":"jueves","hours":"8:00\u201324:00"}],"auxiliar(borrar)":"NOT_FOUND","img1":"https:\/\/lh5.googleusercontent.com\/p\/AF1QipOFahhdA-0Hj0uGxzAWy75fQygun4PNFG-XR0MN=w122-h92-k-no","img2":"https:\/\/lh5.googleusercontent.com\/p\/AF1QipM53Sld-SHh8fON_TND2GXS8kiBtVHMXBTuByAJ=w408-h307-k-no"},{"name":"NIGHT & DAY","category":"Pub","city":"NO_CITY","address":"Carrer dels Almog\u00e0vers, 62, Sant Mart\u00ed, 08018 Barcelona","website":"linktr.ee","email":"NO_EMAIL","phone":"622380323","reviews_rating":4.2,"num_reviews":410,"description":"Discoteca con zona de sof\u00e1s tipo chill out m\u00e1s cachimbas y m\u00fasica de bachata, reggaeton, salsa o house.","schedule":[{"day":"viernes","hours":"20:00\u20134:00"},{"day":"s\u00e1bado","hours":"20:00\u20134:00"},{"day":"domingo","hours":"20:00\u20133:00"},{"day":"lunes","hours":"20:00\u20133:00"},{"day":"martes","hours":"20:00\u20133:00"},{"day":"mi\u00e9rcoles","hours":"20:00\u20133:00"},{"day":"jueves","hours":"20:00\u20133:00"}],"auxiliar(borrar)":"Carta","img1":"https:\/\/lh5.googleusercontent.com\/p\/AF1QipMoPGXoK07YAwfGkppjnc-z7vU668b9bLHODRgl=w122-h92-k-no","img2":"https:\/\/lh5.googleusercontent.com\/p\/AF1QipMoPGXoK07YAwfGkppjnc-z7vU668b9bLHODRgl=w408-h306-k-no"},{"name":"Night Barcelona","category":"Bar gay","city":"Barcelona","address":"Carrer de la Diputaci\u00f3, 161, L'Eixample, 08015 Barcelona","website":"nightbarcelona.net","email":"NO_EMAIL","phone":"935031701","reviews_rating":4.1,"num_reviews":409,"description":"Bar gay muy animado, con hora feliz los jueves por la noche, famoso por los c\u00f3cteles y el cruising.","schedule":[{"day":"viernes","hours":"18:00\u20133:00"},{"day":"s\u00e1bado","hours":"18:00\u20133:00"},{"day":"domingo","hours":"18:00\u20132:30"},{"day":"lunes","hours":"18:00\u20132:30"},{"day":"martes","hours":"18:00\u20132:30"},{"day":"mi\u00e9rcoles","hours":"18:00\u20132:30"},{"day":"jueves","hours":"18:00\u20132:30"}],"auxiliar(borrar)":"Carta","img1":"https:\/\/lh5.googleusercontent.com\/p\/AF1QipPgJxMbmKdFq2rCanpeafuH7NkV61Man7FAQ8Rh=w138-h92-k-no","img2":"https:\/\/lh5.googleusercontent.com\/p\/AF1QipP23f0m5j-mvp9cRlcrYj_OGVVNEFBXYCKcNQKU=w408-h544-k-no"},{"name":"Bar Falstaff","category":"Bar musical","city":"Barcelona","address":"Carrer de Venus, 3, Gr\u00e0cia, 08012 Barcelona","website":"barfalstaff.com","email":"info@barfalstaff.com","phone":"695866246","reviews_rating":4.2,"num_reviews":398,"description":"Bar musical de estilo informal con actuaciones en directo, bailes los fines de semana, cervezas artesanales y elaborados c\u00f3cteles.","schedule":[{"day":"viernes","hours":"20:00\u20133:00"},{"day":"s\u00e1bado","hours":"20:00\u20133:00"},{"day":"domingo","hours":"Cerrado"},{"day":"lunes","hours":"Cerrado"},{"day":"martes","hours":"Cerrado"},{"day":"mi\u00e9rcoles","hours":"20:30\u20132:30"},{"day":"jueves","hours":"20:30\u20132:30"}],"auxiliar(borrar)":"Amigable con la comunidad LGTBI+","img1":"https:\/\/lh5.googleusercontent.com\/p\/AF1QipOi1E72TKFdA-AKLXjqxAUEp2jVHgCcNnk7of9C=w122-h92-k-no","img2":"https:\/\/lh5.googleusercontent.com\/p\/AF1QipPiu5_31g3ltjqmfIx1XHKvG4vuYm4D4eRxmmYP=w408-h544-k-no"},{"name":"Karaoke Rooms Barcelona","category":"Karaoke","city":"NO_CITY","address":"Reservar una mesa","website":"Av. del Carrilet, 237, 08907 L'Hospitalet de Llobregat, Barcelona","email":"NO_EMAIL","phone":"675923826","reviews_rating":4.6,"num_reviews":393,"description":"NOT_FOUND","schedule":[{"day":"viernes","hours":"10:00\u20132:00"},{"day":"s\u00e1bado","hours":"10:00\u20132:00"},{"day":"domingo","hours":"10:00\u201324:00"},{"day":"lunes","hours":"9:00\u201317:00"},{"day":"martes","hours":"10:00\u201324:00"},{"day":"mi\u00e9rcoles","hours":"10:00\u201324:00"},{"day":"jueves","hours":"10:00\u201324:00"}],"auxiliar(borrar)":"Carta","img1":"https:\/\/lh5.googleusercontent.com\/p\/AF1QipMsCjh9G20qci8QQ-pUYfhPCUM8oVdz5NVG_spi=w124-h92-k-no","img2":"https:\/\/lh5.googleusercontent.com\/p\/AF1QipOZ3gEh88jeQiJ_LDWSBPelTDFyUUQidzI-u5wI=w408-h272-k-no"},{"name":"Quatre Cocteleria","category":"Cocteler\u00eda","city":"NO_CITY","address":"Carrer de Lincoln, 3, Sarri\u00e0-Sant Gervasi, 08006 Barcelona","website":"quatrecocteleria.com","email":"cuatrebarcafe@gmail.com","phone":"645320677","reviews_rating":4.9,"num_reviews":388,"description":"NOT_FOUND","schedule":"NOT_FOUND","auxiliar(borrar)":"Carta","img1":"https:\/\/lh5.googleusercontent.com\/p\/AF1QipM1GWnGYlvLMC4xYUVfmBsTLXjUqLF76_NHv1xk=w163-h92-k-no","img2":"https:\/\/lh5.googleusercontent.com\/p\/AF1QipM1GWnGYlvLMC4xYUVfmBsTLXjUqLF76_NHv1xk=w427-h240-k-no"},{"name":"El Cinco Club Barcelona","category":"Discoteca","city":"NO_CITY","address":"Pla\u00e7a de Joan Llongueras, 5, Sarri\u00e0-Sant Gervasi, 08021 Barcelona","website":"elcinco.barcelona","email":"NO_EMAIL","phone":"938580813","reviews_rating":3.8,"num_reviews":361,"description":"NOT_FOUND","schedule":[{"day":"viernes","hours":"0:00\u20135:0023:55\u201324:00"},{"day":"s\u00e1bado","hours":"0:00\u20136:0023:55\u201324:00"},{"day":"domingo","hours":"0:00\u20136:00"},{"day":"lunes","hours":"Cerrado"},{"day":"martes","hours":"Cerrado"},{"day":"mi\u00e9rcoles","hours":"Cerrado"},{"day":"jueves","hours":"23:55\u201324:00"}],"auxiliar(borrar)":"Reservar una mesa","img1":"https:\/\/lh5.googleusercontent.com\/p\/AF1QipNR1EwxMhXIQ3_w36MkcXEIvjzoLL3pMuabfrfe=w138-h92-k-no","img2":"https:\/\/lh5.googleusercontent.com\/p\/AF1QipOSJk4Wa1ywEvBGbrqBRz0RONLVgb8pc2DVSKjC=w408-h272-k-no"},{"name":"Swinger Club Oops Barcelona","category":"Club nocturno","city":"Barcelona","address":"Carrer d'Angl\u00ed, 69, Distrito de Sarri\u00e0-Sant Gervasi, 08017 Barcelona","website":"oops.barcelona","email":"NO_EMAIL","phone":"665138734","reviews_rating":4.0,"num_reviews":359,"description":"NOT_FOUND","schedule":[{"day":"viernes","hours":"0:00\u20135:0023:00\u201324:00"},{"day":"s\u00e1bado","hours":"0:00\u20136:0023:00\u201324:00"},{"day":"domingo","hours":"0:00\u20137:0023:00\u201324:00"},{"day":"lunes","hours":"0:00\u20135:0023:00\u201324:00"},{"day":"martes","hours":"0:00\u20135:0023:00\u201324:00"},{"day":"mi\u00e9rcoles","hours":"0:00\u20135:0023:00\u201324:00"},{"day":"jueves","hours":"0:00\u20135:0023:00\u201324:00"}],"auxiliar(borrar)":"Amigable con la comunidad LGTBI+","img1":"https:\/\/lh5.googleusercontent.com\/p\/AF1QipNTM2ISGCZvHWnptCSgzD8PyVpPnzvER7VC8P1l=w142-h92-k-no","img2":"https:\/\/lh5.googleusercontent.com\/p\/AF1QipMI3k7s9D0Js4Rl_awwUevwGQ9Bgt5zxrQSFXnF=w408-h271-k-no"},{"name":"Los Tilos BCN","category":"Sal\u00f3n para eventos","city":"Barcelona","address":"Passeig dels Til\u00b7lers, 1, Les Corts, 08034 Barcelona","website":"lostilosbcn.com","email":"info@lostilosbcn.com","phone":"639375251","reviews_rating":3.8,"num_reviews":355,"description":"Diversos salones y jard\u00edn en exclusiva casa modernista donde tomar una copa o celebrar un evento.","schedule":[{"day":"viernes","hours":"10:00\u201315:00"},{"day":"s\u00e1bado","hours":"10:00\u201315:00"},{"day":"domingo","hours":"Cerrado"},{"day":"lunes","hours":"10:00\u201320:00"},{"day":"martes","hours":"10:00\u201320:00"},{"day":"mi\u00e9rcoles","hours":"10:00\u201320:00"},{"day":"jueves","hours":"10:00\u201320:00"}],"auxiliar(borrar)":"Reservar una mesa","img1":"https:\/\/lh5.googleusercontent.com\/p\/AF1QipM2C1Bpz4wPKf27XTyY4LfMfb9mGIlO0oVe9M-4=w122-h92-k-no","img2":"https:\/\/lh5.googleusercontent.com\/p\/AF1QipMchXjwNxXHCQ1aIIf0jgC04XVzDq2YBj6L7Rp4=w408-h270-k-no"},{"name":"Bar Estaci\u00f3n","category":"Bar","city":"NO_CITY","address":"Pla\u00e7a de l'Estaci\u00f3, 6, Sant Andreu, 08030 Barcelona","website":"NO_WEBSITE","email":null,"phone":"NO_PHONE","reviews_rating":4.0,"num_reviews":326,"description":"NOT_FOUND","schedule":[{"day":"viernes","hours":"6:00\u201316:30"},{"day":"s\u00e1bado","hours":"7:00\u201314:00"},{"day":"domingo","hours":"Cerrado"},{"day":"lunes","hours":"6:00\u201316:30"},{"day":"martes","hours":"6:00\u201316:30"},{"day":"mi\u00e9rcoles","hours":"6:00\u201316:30"},{"day":"jueves","hours":"6:00\u201316:30"}],"auxiliar(borrar)":"NOT_FOUND","img1":"https:\/\/lh5.googleusercontent.com\/p\/AF1QipNHeV-CrdolJyzEOBxF6bo8qtG5105lhgiZAEh5=w162-h92-k-no","img2":"https:\/\/lh5.googleusercontent.com\/p\/AF1QipOsUwUlLQb5TOVIIlzMSXXnR9vbDQnJeIfmm9C5=w408-h544-k-no"},{"name":"L'Oncle Jack Music & Cocktail Bar","category":"Bar de alterne","city":"L'Hospitalet de Llobregat","address":"Carrer de les Roselles, 32, 08901 L'Hospitalet de Llobregat, Barcelona","website":"mizuwaricocktailbar.es","email":"NO_EMAIL","phone":"692123697","reviews_rating":4.7,"num_reviews":324,"description":"NOT_FOUND","schedule":"NOT_FOUND","auxiliar(borrar)":"Carta","img1":"https:\/\/lh5.googleusercontent.com\/p\/AF1QipPQlrSMO_Mlo1bOrA7T3a-TREuqQjfX2xCaO6wy=w122-h92-k-no","img2":"https:\/\/lh5.googleusercontent.com\/p\/AF1QipP847JDRX2xFN-qC-QpGymeqotJpu2mHuy6DetZ=w427-h240-k-no"},{"name":"Mandarina Deluxe Vintage","category":"Discoteca","city":"Barcelona","address":"Carrer d'Alcolea, 98, Sants-Montju\u00efc, 08014 Barcelona","website":"m.facebook.com","email":"NO_EMAIL","phone":"695922053","reviews_rating":3.8,"num_reviews":320,"description":"NOT_FOUND","schedule":[{"day":"viernes","hours":"23:00\u201324:00"},{"day":"s\u00e1bado","hours":"0:00\u20136:0023:00\u201324:00"},{"day":"domingo","hours":"0:00\u20136:00"},{"day":"lunes","hours":"Cerrado"},{"day":"martes","hours":"Cerrado"},{"day":"mi\u00e9rcoles","hours":"Cerrado"},{"day":"jueves","hours":"Cerrado"}],"auxiliar(borrar)":"NOT_FOUND","img1":"https:\/\/lh5.googleusercontent.com\/p\/AF1QipM5oLF6JHc7yID9bHf-jRbw2h0IkfKxIx3YZsD5=w80-h106-k-no","img2":"https:\/\/lh5.googleusercontent.com\/p\/AF1QipPEn0fNIOiUgNQY81iGSub-wUxutxZVqD7g6TfN=w408-h408-k-no"},{"name":"Strip Club Barcelona Blue Night","category":"Club de entretenimiento para adultos","city":"Barcelona","address":"Carrer de Beethoven, 15, Sarri\u00e0-Sant Gervasi, 08021 Barcelona","website":"bluenightbarcelona.com","email":"hello@bluenight.es","phone":"627255555","reviews_rating":3.9,"num_reviews":306,"description":"NOT_FOUND","schedule":[{"day":"viernes","hours":"0:00\u20135:0021:00\u201324:00"},{"day":"s\u00e1bado","hours":"0:00\u20136:0021:00\u201324:00"},{"day":"domingo","hours":"0:00\u20136:0021:00\u201324:00"},{"day":"lunes","hours":"0:00\u20135:0021:00\u201324:00"},{"day":"martes","hours":"0:00\u20135:0021:00\u201324:00"},{"day":"mi\u00e9rcoles","hours":"0:00\u20135:0021:00\u201324:00"},{"day":"jueves","hours":"0:00\u20135:0021:00\u201324:00"}],"auxiliar(borrar)":"Servicios","img1":"https:\/\/lh5.googleusercontent.com\/p\/AF1QipPqPNiU2iP_mUycgqyx5dfzKupJxZTrLE241uv2=w138-h92-k-no","img2":"https:\/\/lh3.googleusercontent.com\/p\/AF1QipP1lG7VhxAI83lX9MmGtrnLYCwB_h_6Ro2pfnS1=w408-h240-k-no-pi-0-ya148.31258-ro0-fo100"},{"name":"Switch","category":"Bar","city":"NO_CITY","address":"Carrer de Francisco Giner, 24, Gr\u00e0cia, 08012 Barcelona","website":"instagram.com","email":"NO_EMAIL","phone":"NO_PHONE","reviews_rating":4.3,"num_reviews":298,"description":"NOT_FOUND","schedule":[{"day":"viernes","hours":"22:00\u20133:00"},{"day":"s\u00e1bado","hours":"22:00\u20133:00"},{"day":"domingo","hours":"Cerrado"},{"day":"lunes","hours":"Cerrado"},{"day":"martes","hours":"Cerrado"},{"day":"mi\u00e9rcoles","hours":"22:00\u20132:30"},{"day":"jueves","hours":"22:00\u20132:30"}],"auxiliar(borrar)":"NOT_FOUND","img1":"https:\/\/lh5.googleusercontent.com\/p\/AF1QipNhtvTlSKggF1J6D6gCY0253f0CvaU2kEn6qKnI=w122-h92-k-no","img2":"https:\/\/lh5.googleusercontent.com\/p\/AF1QipMgRm0G3wSfWx446AL-pTTrvT9Emw-a1kb76xpd=w408-h725-k-no"},{"name":"MutiClub","category":"Cocteler\u00eda","city":"Barcelona","address":"Carrer de C\u00f2rsega, 318, L'Eixample, 08037 Barcelona","website":"instagram.com","email":"NO_EMAIL","phone":"933885866","reviews_rating":4.4,"num_reviews":293,"description":"NOT_FOUND","schedule":[{"day":"viernes","hours":"18:00\u20133:00"},{"day":"s\u00e1bado","hours":"18:00\u20133:00"},{"day":"domingo","hours":"18:00\u20131:30"},{"day":"lunes","hours":"20:00\u20131:30"},{"day":"martes","hours":"19:00\u20132:00"},{"day":"mi\u00e9rcoles","hours":"19:00\u20132:00"},{"day":"jueves","hours":"18:00\u20132:30"}],"auxiliar(borrar)":"NOT_FOUND","img1":"https:\/\/lh5.googleusercontent.com\/p\/AF1QipMd2cIENBooBqnWGGX-UUlG7AtbaGTWI4WwUel1=w204-h92-k-no","img2":"https:\/\/lh5.googleusercontent.com\/p\/AF1QipNX0e-nx-5czl0MyjDDvpeYu-7GtyWZZsGgxr1W=w408-h371-k-no"},{"name":"La Orquidea Karaoke","category":"Karaoke","city":"NO_CITY","address":"Carrer de Calvet, 14, Sarri\u00e0-Sant Gervasi, 08021 Barcelona","website":"NO_WEBSITE","email":null,"phone":"NO_PHONE","reviews_rating":2.9,"num_reviews":283,"description":"NOT_FOUND","schedule":[{"day":"viernes","hours":"20:00\u201324:00"},{"day":"s\u00e1bado","hours":"20:00\u201324:00"},{"day":"domingo","hours":"20:00\u201324:00"},{"day":"lunes","hours":"20:00\u201324:00"},{"day":"martes","hours":"20:00\u201324:00"},{"day":"mi\u00e9rcoles","hours":"20:00\u201324:00"},{"day":"jueves","hours":"20:00\u201324:00"}],"auxiliar(borrar)":"NOT_FOUND","img1":"https:\/\/lh5.googleusercontent.com\/p\/AF1QipOycIdBIHEKP5wehcKAEI6-6Dg4PJME_KQvfOEV=w163-h92-k-no","img2":"https:\/\/lh5.googleusercontent.com\/p\/AF1QipOycIdBIHEKP5wehcKAEI6-6Dg4PJME_KQvfOEV=w426-h240-k-no"},{"name":"Atlantic Club Barcelona","category":"Recinto para eventos","city":"Barcelona","address":"Av. del Tibidabo, 56, Sarri\u00e0-Sant Gervasi, 08035 Barcelona","website":"atlanticbarcelona.com","email":"NO_EMAIL","phone":"675273071","reviews_rating":3.9,"num_reviews":282,"description":"M\u00fasica comercial en una amplia discoteca de estilo modernista con terraza ajardinada y vistas a Barcelona.","schedule":[{"day":"viernes","hours":"Cerrado"},{"day":"s\u00e1bado","hours":"12:00\u201318:00"},{"day":"domingo","hours":"12:00\u201318:00"},{"day":"lunes","hours":"Cerrado"},{"day":"martes","hours":"Cerrado"},{"day":"mi\u00e9rcoles","hours":"Cerrado"},{"day":"jueves","hours":"Cerrado"}],"auxiliar(borrar)":"Reclamar esta empresa","img1":"https:\/\/lh5.googleusercontent.com\/p\/AF1QipPrc9J40t7QER1r99NtDXlR2fBmWGc97Utv7C4I=w202-h92-k-no","img2":"https:\/\/lh5.googleusercontent.com\/p\/AF1QipNyvUjhaI6aMYlRtjxTcKObcem2DK2GbBbUJn0W=w487-h240-k-no"},{"name":"Bar restaurante Bar-celona","category":"Bar","city":"Barcelona","address":"Carrer del Vallespir, 81, Sants-Montju\u00efc, 08014 Barcelona","website":"gastrobarcelona.com","email":"barcelonasants308@gmail.com","phone":"639363549","reviews_rating":4.2,"num_reviews":281,"description":"NOT_FOUND","schedule":[{"day":"viernes","hours":"8:00\u201323:00"},{"day":"s\u00e1bado","hours":"8:00\u201316:00"},{"day":"domingo","hours":"8:00\u201322:00"},{"day":"lunes","hours":"8:00\u201322:00"},{"day":"martes","hours":"8:00\u201322:00"},{"day":"mi\u00e9rcoles","hours":"8:00\u201322:00"},{"day":"jueves","hours":"8:00\u201322:00"}],"auxiliar(borrar)":"NOT_FOUND","img1":"https:\/\/lh5.googleusercontent.com\/p\/AF1QipNBdzvildOFICUkN02RijUKkP4Cl71Wzx0Fz6u1=w80-h106-k-no","img2":"https:\/\/lh5.googleusercontent.com\/p\/AF1QipPK5J6Negr0Jjurq2yzHEGGX__fpNXDwie46Lq3=w426-h240-k-no"},{"name":"Blue Space Arag\u00f3","category":"Bar musical","city":"Barcelona","address":"Carrer d'Arag\u00f3, 595, Sant Mart\u00ed, 08026 Barcelona","website":"facebook.com","email":"NO_EMAIL","phone":"605153636","reviews_rating":3.9,"num_reviews":281,"description":"Bar animado, con DJ, narguiles y c\u00f3cteles cl\u00e1sicos, donde se pueden pedir botellas enteras.","schedule":[{"day":"viernes","hours":"21:00\u20133:30"},{"day":"s\u00e1bado","hours":"21:00\u20133:30"},{"day":"domingo","hours":"21:00\u20133:00"},{"day":"lunes","hours":"21:00\u20133:00"},{"day":"martes","hours":"21:00\u20133:00"},{"day":"mi\u00e9rcoles","hours":"21:00\u20133:00"},{"day":"jueves","hours":"21:00\u20133:00"}],"auxiliar(borrar)":"NOT_FOUND","img1":"https:\/\/lh5.googleusercontent.com\/p\/AF1QipPnDPV32k3ByQcwdhZFhsL-6SbAnASR2qF5kTdK=w80-h106-k-no","img2":"https:\/\/lh5.googleusercontent.com\/p\/AF1QipN8b0Ltrh8WpcWyBDGaD1T6lzjlSH63P8bmE_uH=w408-h271-k-no"},{"name":"Coyotes Disco Pub Barcelona","category":"Discoteca","city":"Barcelona","address":"Carrer del Tenor Masini, 65, Sants-Montju\u00efc, 08028 Barcelona","website":"coyotes.eatbu.com","email":"NO_EMAIL","phone":"622045829","reviews_rating":4.0,"num_reviews":276,"description":"NOT_FOUND","schedule":[{"day":"viernes","hours":"0:00\u20136:00"},{"day":"s\u00e1bado","hours":"0:00\u20136:00"},{"day":"domingo","hours":"0:00\u20136:00"},{"day":"lunes","hours":"Cerrado"},{"day":"martes","hours":"Cerrado"},{"day":"mi\u00e9rcoles","hours":"Cerrado"},{"day":"jueves","hours":"Cerrado"}],"auxiliar(borrar)":"Reclamar esta empresa","img1":"https:\/\/lh5.googleusercontent.com\/p\/AF1QipNkWMDU8p9lvh--cI5YzhBLy2lJyySfWTeseIby=w122-h92-k-no","img2":"https:\/\/lh5.googleusercontent.com\/p\/AF1QipMwQodsFX9jEXj06HxSn43ZwrIlr3j6TuS3g4G-=w408-h272-k-no"},{"name":"Topxi music","category":"Club musical","city":"Barcelona","address":"Carrer de Val\u00e8ncia, 358, L'Eixample, 08029 Barcelona","website":"topximusic.com","email":"NO_EMAIL","phone":"NO_PHONE","reviews_rating":3.7,"num_reviews":275,"description":"NOT_FOUND","schedule":[{"day":"viernes","hours":"0:30\u20135:00"},{"day":"s\u00e1bado","hours":"0:30\u20136:00"},{"day":"domingo","hours":"0:30\u20136:00"},{"day":"lunes","hours":"0:30\u20135:00"},{"day":"martes","hours":"0:30\u20135:00"},{"day":"mi\u00e9rcoles","hours":"0:30\u20135:00"},{"day":"jueves","hours":"0:30\u20135:00"}],"auxiliar(borrar)":"NOT_FOUND","img1":"https:\/\/lh5.googleusercontent.com\/p\/AF1QipNQyapqCDj6f5x0hLcC8ZbklEf8ec0qBmxwR-Kd=w80-h142-k-no","img2":"https:\/\/lh5.googleusercontent.com\/p\/AF1QipPcUlqKDSY8XpLR5JeUrEoFxgUMA7i-Z4fHsKoF=w408-h306-k-no"},{"name":"Casablanca Hospitalet","category":"Bar musical","city":"NO_CITY","address":"Carrer de Rod\u00e9s, 32, 34, 08901 L'HOSPITALET, Barcelona","website":"NO_WEBSITE","email":null,"phone":"NO_PHONE","reviews_rating":4.1,"num_reviews":274,"description":"NOT_FOUND","schedule":[{"day":"viernes","hours":"19:00\u20133:30"},{"day":"s\u00e1bado","hours":"19:00\u20133:30"},{"day":"domingo","hours":"Cerrado"},{"day":"lunes","hours":"Cerrado"},{"day":"martes","hours":"Cerrado"},{"day":"mi\u00e9rcoles","hours":"Cerrado"},{"day":"jueves","hours":"Cerrado"}],"auxiliar(borrar)":"NOT_FOUND","img1":"https:\/\/lh5.googleusercontent.com\/p\/AF1QipPs1Hh_2kRphwAHS0IxyOM6D0KYme7ugWb2Lom8=w122-h92-k-no","img2":"https:\/\/lh5.googleusercontent.com\/p\/AF1QipPyiBr16wdbsyri5_PdRjkz7PXYs54xv5h7Bdev=w408-h306-k-no"},{"name":"Bar Par\u00eds","category":"Bar","city":"NO_CITY","address":"Carrer del Rector Juanico, 68, 08740 Sant Andreu de la Barca, Barcelona","website":"NO_WEBSITE","email":null,"phone":"NO_PHONE","reviews_rating":3.9,"num_reviews":260,"description":"NOT_FOUND","schedule":[{"day":"viernes","hours":"8:00\u201323:00"},{"day":"s\u00e1bado","hours":"8:00\u201323:00"},{"day":"domingo","hours":"8:00\u201323:00"},{"day":"lunes","hours":"Cerrado"},{"day":"martes","hours":"8:00\u201323:00"},{"day":"mi\u00e9rcoles","hours":"8:00\u201323:00"},{"day":"jueves","hours":"8:00\u201323:00"}],"auxiliar(borrar)":"NOT_FOUND","img1":"https:\/\/lh5.googleusercontent.com\/p\/AF1QipPKqMztURcShoEDGaoZZlpCSVPYFgdhvVTy2k5j=w122-h92-k-no","img2":"https:\/\/lh5.googleusercontent.com\/p\/AF1QipPKqMztURcShoEDGaoZZlpCSVPYFgdhvVTy2k5j=w408-h306-k-no"},{"name":"The End Bar","category":"Bar","city":"Barcelona","address":"Carrer de Santal\u00f3, 34, Sarri\u00e0-Sant Gervasi, 08021 Barcelona","website":"NO_WEBSITE","email":null,"phone":"671102046","reviews_rating":3.7,"num_reviews":259,"description":"Sala y bar de copas de elegante dise\u00f1o en tonos neutros que ofrece men\u00fas para grupos y acoge fiestas privadas.","schedule":[{"day":"viernes","hours":"20:00\u20133:00"},{"day":"s\u00e1bado","hours":"20:00\u20133:00"},{"day":"domingo","hours":"Cerrado"},{"day":"lunes","hours":"Cerrado"},{"day":"martes","hours":"Cerrado"},{"day":"mi\u00e9rcoles","hours":"Cerrado"},{"day":"jueves","hours":"22:00\u20132:30"}],"auxiliar(borrar)":"NOT_FOUND","img1":"https:\/\/lh5.googleusercontent.com\/p\/AF1QipPPJ8n28EzpeV5eqQWsmOcyu_TV4Eee0av1M7tL=w138-h92-k-no","img2":"https:\/\/lh5.googleusercontent.com\/p\/AF1QipPPJ8n28EzpeV5eqQWsmOcyu_TV4Eee0av1M7tL=w408-h272-k-no"},{"name":"Garage 442","category":"Bar musical","city":"Barcelona","address":"Av. Diagonal, 442, L'Eixample, 08037 Barcelona","website":"garage442.com","email":"NO_EMAIL","phone":"934152231","reviews_rating":4.3,"num_reviews":227,"description":"NOT_FOUND","schedule":[{"day":"viernes","hours":"22:30\u20133:00"},{"day":"s\u00e1bado","hours":"22:30\u20133:00"},{"day":"domingo","hours":"Cerrado"},{"day":"lunes","hours":"Cerrado"},{"day":"martes","hours":"Cerrado"},{"day":"mi\u00e9rcoles","hours":"22:30\u20132:30"},{"day":"jueves","hours":"22:30\u20132:30"}],"auxiliar(borrar)":"Amigable con la comunidad LGTBI+","img1":"https:\/\/lh5.googleusercontent.com\/p\/AF1QipN9Hs7InPi1VLdLQivNZGr5X_DzUJXF9xm0xXAV=w137-h92-k-no","img2":"https:\/\/lh5.googleusercontent.com\/p\/AF1QipPtkzABuZhlG3N4ex__tH79qaIO8qHakycMM5GA=w408-h272-k-no"},{"name":"Saint Tropez Cocktails | Barcelona","category":"Cocteler\u00eda","city":"Barcelona","address":"Travessera de Gr\u00e0cia, 276, Gr\u00e0cia, 08025 Barcelona","website":"facebook.com","email":"NO_EMAIL","phone":"932539604","reviews_rating":4.6,"num_reviews":227,"description":"NOT_FOUND","schedule":[{"day":"viernes","hours":"19:00\u20132:30"},{"day":"s\u00e1bado","hours":"19:00\u20132:30"},{"day":"domingo","hours":"21:30\u20132:00"},{"day":"lunes","hours":"Cerrado"},{"day":"martes","hours":"Cerrado"},{"day":"mi\u00e9rcoles","hours":"Cerrado"},{"day":"jueves","hours":"Cerrado"}],"auxiliar(borrar)":"Planta 0 \u00b7 ImpulsBarcelona","img1":"https:\/\/lh5.googleusercontent.com\/p\/AF1QipP-2HxyY0QAsLFvnl4HYT7JTaViIEqze7Kpq6Uv=w141-h92-k-no","img2":"https:\/\/lh5.googleusercontent.com\/p\/AF1QipM4SwjumHM5fdxqGs_wHMFqul5MEy76p2cRYA_z=w408-h272-k-no"},{"name":"RED58","category":"Club nocturno","city":"NO_CITY","address":"Carrer del Consell de Cent, 280, L'Eixample, 08007 Barcelona","website":"red58.club","email":"NO_EMAIL","phone":"NO_PHONE","reviews_rating":4.2,"num_reviews":226,"description":"NOT_FOUND","schedule":[{"day":"viernes","hours":"23:59\u201324:00"},{"day":"s\u00e1bado","hours":"0:00\u20136:0023:59\u201324:00"},{"day":"domingo","hours":"0:00\u20136:00"},{"day":"lunes","hours":"Cerrado"},{"day":"martes","hours":"Cerrado"},{"day":"mi\u00e9rcoles","hours":"Cerrado"},{"day":"jueves","hours":"Cerrado"}],"auxiliar(borrar)":"NOT_FOUND","img1":"https:\/\/lh5.googleusercontent.com\/p\/AF1QipNqr4bGNaXng74wmOA2tvT5O4dg9bEOQgIiVi3o=w138-h92-k-no","img2":"https:\/\/lh5.googleusercontent.com\/p\/AF1QipNqr4bGNaXng74wmOA2tvT5O4dg9bEOQgIiVi3o=w408-h271-k-no"},{"name":"Sala Taro","category":"Bar musical","city":"NO_CITY","address":"Carrer de Rossend Ar\u00fas, 9, Sants-Montju\u00efc, 08014 Barcelona","website":"NO_WEBSITE","email":null,"phone":"NO_PHONE","reviews_rating":4.5,"num_reviews":224,"description":"NOT_FOUND","schedule":[{"day":"viernes","hours":"21:00\u20133:00"},{"day":"s\u00e1bado","hours":"21:00\u20133:00"},{"day":"domingo","hours":"Cerrado"},{"day":"lunes","hours":"Cerrado"},{"day":"martes","hours":"Cerrado"},{"day":"mi\u00e9rcoles","hours":"21:00\u201324:00"},{"day":"jueves","hours":"21:00\u20132:30"}],"auxiliar(borrar)":"NOT_FOUND","img1":"https:\/\/lh5.googleusercontent.com\/p\/AF1QipMpybo7rHWbYLn73djJVIK_vHYSoFU6q2cERxUp=w122-h92-k-no","img2":"https:\/\/lh5.googleusercontent.com\/p\/AF1QipPmrhIbtEMQhKW-ixBPcJir8OtyyNs6BOMi-LsG=w408-h306-k-no"},{"name":"Queen's","category":"Discoteca","city":"Cornell\u00e0 de Llobregat","address":"Amigable con la comunidad LGTBI+","website":"Pg. dels Ferrocarrils Catalans, 117, 08940 Cornell\u00e0 de Llobregat, Barcelona","email":"NO_EMAIL","phone":"695798627","reviews_rating":3.9,"num_reviews":219,"description":"NOT_FOUND","schedule":[{"day":"viernes","hours":"23:00\u201324:00"},{"day":"s\u00e1bado","hours":"0:00\u20136:0023:00\u201324:00"},{"day":"domingo","hours":"0:00\u20136:0015:00\u201324:00"},{"day":"lunes","hours":"Cerrado"},{"day":"martes","hours":"Cerrado"},{"day":"mi\u00e9rcoles","hours":"Cerrado"},{"day":"jueves","hours":"Cerrado"}],"auxiliar(borrar)":"NOT_FOUND","img1":"https:\/\/lh5.googleusercontent.com\/p\/AF1QipPMEQrCWc1sAt4VAPXvvnoUF2OVhDnkr8FdeeVs=w122-h92-k-no","img2":"https:\/\/lh5.googleusercontent.com\/p\/AF1QipPBVFLx2scKwoMZj4O49O_i3AxaJiAB4m_ndXn-=w513-h240-k-no"},{"name":"Mobster's Barcelona","category":"Cocteler\u00eda","city":"NO_CITY","address":"Carrer de Moi\u00e0, 1, Sarri\u00e0-Sant Gervasi, 08006 Barcelona","website":"NO_WEBSITE","email":null,"phone":"NO_PHONE","reviews_rating":3.5,"num_reviews":215,"description":"NOT_FOUND","schedule":[{"day":"viernes","hours":"22:00\u20133:00"},{"day":"s\u00e1bado","hours":"22:00\u20133:00"},{"day":"domingo","hours":"Cerrado"},{"day":"lunes","hours":"Cerrado"},{"day":"martes","hours":"Cerrado"},{"day":"mi\u00e9rcoles","hours":"22:00\u20132:30"},{"day":"jueves","hours":"22:00\u20132:30"}],"auxiliar(borrar)":"NOT_FOUND","img1":"https:\/\/lh5.googleusercontent.com\/p\/AF1QipOrs8hQQ9d_V-kQiXskpOfwodfIXruieN5d6pj2=w138-h92-k-no","img2":"https:\/\/lh5.googleusercontent.com\/p\/AF1QipMYWZozCUPCXcLJJhFCG_gFIsBjUBHSEgYM9bZb=w408-h287-k-no"},{"name":"PULSA9","category":"Restaurante","city":"NO_CITY","address":"Pla\u00e7a de les Palmeres, 5, Sant Andreu, 08030 Barcelona","website":"NO_WEBSITE","email":null,"phone":"NO_PHONE","reviews_rating":4.1,"num_reviews":214,"description":"NOT_FOUND","schedule":"NOT_FOUND","auxiliar(borrar)":"NOT_FOUND","img1":"https:\/\/lh5.googleusercontent.com\/p\/AF1QipOe4WgyJmYQaw7KG9KSJbx18_5Gc0cRNaErFWe8=w122-h92-k-no","img2":"https:\/\/lh5.googleusercontent.com\/p\/AF1QipMBZ7OveC1_p7xQnCHcGWFshK4WHNXAS6MLIhs9=w408-h408-k-no"},{"name":"Disco Bar Mami","category":"Discoteca","city":"Barcelona","address":"Carrer de Sants, 443, Sants-Montju\u00efc, 08028 Barcelona","website":"m.facebook.com","email":"NO_EMAIL","phone":"671296949","reviews_rating":3.1,"num_reviews":212,"description":"NOT_FOUND","schedule":[{"day":"viernes","hours":"22:30\u201324:00"},{"day":"s\u00e1bado","hours":"0:00\u20136:0022:30\u201324:00"},{"day":"domingo","hours":"0:00\u20136:0022:30\u201324:00"},{"day":"lunes","hours":"0:00\u20135:0022:30\u201324:00"},{"day":"martes","hours":"0:00\u20135:0022:00\u201324:00"},{"day":"mi\u00e9rcoles","hours":"0:00\u20135:0022:30\u201324:00"},{"day":"jueves","hours":"0:00\u20135:00"}],"auxiliar(borrar)":"Reservar una mesa","img1":"https:\/\/lh5.googleusercontent.com\/p\/AF1QipPJFXydPw6OfGQvZRISduBTaGfK7WTc335x1Ivk=w122-h92-k-no","img2":"https:\/\/lh5.googleusercontent.com\/p\/AF1QipMY2csack0C58TMsalSBl22LlTHm9gvi5S90voP=w408-h292-k-no"},{"name":"Ocean Barcelona","category":"Discoteca","city":"Barcelona","address":"Carrer de Balmes, 32, L'Eixample, 08007 Barcelona","website":"oceanbcn.com","email":"contact@mysite.com","phone":"937155661","reviews_rating":3.7,"num_reviews":206,"description":"NOT_FOUND","schedule":[{"day":"viernes","hours":"23:59\u201324:00"},{"day":"s\u00e1bado","hours":"0:00\u20136:0023:59\u201324:00"},{"day":"domingo","hours":"0:00\u20136:00"},{"day":"lunes","hours":"Cerrado"},{"day":"martes","hours":"22:30\u201324:00"},{"day":"mi\u00e9rcoles","hours":"0:00\u20133:45"},{"day":"jueves","hours":"Cerrado"}],"auxiliar(borrar)":"NOT_FOUND","img1":"https:\/\/lh5.googleusercontent.com\/p\/AF1QipPH7xC9B5KhqGtPKl11tYFYwlu5lqH2XnjiVMzc=w138-h92-k-no","img2":"https:\/\/lh5.googleusercontent.com\/p\/AF1QipPH7xC9B5KhqGtPKl11tYFYwlu5lqH2XnjiVMzc=w408-h272-k-no"},{"name":"G Y PUNTO","category":"Bar musical","city":"Sant Andreu de la Barca","address":"El Palau, Av. Constituci\u00f3, 111, 08740 Sant Andreu de la Barca, Barcelona","website":"facebook.com","email":"NO_EMAIL","phone":"655237461","reviews_rating":3.8,"num_reviews":206,"description":"NOT_FOUND","schedule":[{"day":"viernes","hours":"22:00\u20133:30"},{"day":"s\u00e1bado","hours":"22:00\u20133:30"},{"day":"domingo","hours":"22:00\u20133:00"},{"day":"lunes","hours":"Cerrado"},{"day":"martes","hours":"22:00\u20133:00"},{"day":"mi\u00e9rcoles","hours":"22:00\u20133:00"},{"day":"jueves","hours":"22:00\u20133:00"}],"auxiliar(borrar)":"Amigable con la comunidad LGTBI+","img1":"https:\/\/lh5.googleusercontent.com\/p\/AF1QipNMUTJguUlhGfIfzKogkae52Lcsc20Csk2Zfem1=w122-h92-k-no","img2":"https:\/\/lh5.googleusercontent.com\/p\/AF1QipOnQh1MpmwyN0JDNEAEI4CW10Y771goJZ_iKBLO=w519-h240-k-no"},{"name":"Bar Bombo Maracana","category":"Bar","city":"NO_CITY","address":"Pla\u00e7a de Moss\u00e8n Clap\u00e9s, 23, Sant Andreu, 08030 Barcelona","website":"NO_WEBSITE","email":null,"phone":"NO_PHONE","reviews_rating":3.6,"num_reviews":202,"description":"NOT_FOUND","schedule":[{"day":"viernes","hours":"6:00\u201324:00"},{"day":"s\u00e1bado","hours":"6:00\u201324:00"},{"day":"domingo","hours":"6:00\u201324:00"},{"day":"lunes","hours":"6:00\u201324:00"},{"day":"martes","hours":"6:00\u201324:00"},{"day":"mi\u00e9rcoles","hours":"6:00\u201324:00"},{"day":"jueves","hours":"6:00\u201324:00"}],"auxiliar(borrar)":"NOT_FOUND","img1":"https:\/\/lh5.googleusercontent.com\/p\/AF1QipMHi4rcR_Hff2sekW5MiM_GyknTyRI1LKUySrY8=w80-h113-k-no","img2":"https:\/\/lh5.googleusercontent.com\/p\/AF1QipMHi4rcR_Hff2sekW5MiM_GyknTyRI1LKUySrY8=w408-h580-k-no"},{"name":"Morro Fi","category":"Bar","city":"NO_CITY","address":"Pg. de la Bonanova, 105, Sarri\u00e0-Sant Gervasi, 08017 Barcelona","website":"morrofi.cat","email":"NO_EMAIL","phone":"NO_PHONE","reviews_rating":4.4,"num_reviews":200,"description":"NOT_FOUND","schedule":[{"day":"viernes","hours":"12:00\u201316:0018:00\u201324:00"},{"day":"s\u00e1bado","hours":"12:00\u201316:0018:00\u201324:00"},{"day":"domingo","hours":"12:00\u201316:0018:00\u201322:00"},{"day":"lunes","hours":"12:00\u201316:0018:00\u201323:00"},{"day":"martes","hours":"12:00\u201316:0018:00\u201323:00"},{"day":"mi\u00e9rcoles","hours":"12:00\u201316:0018:00\u201323:00"},{"day":"jueves","hours":"12:00\u201316:0018:00\u201324:00"}],"auxiliar(borrar)":"NOT_FOUND","img1":"https:\/\/lh5.googleusercontent.com\/p\/AF1QipPWfSdo3YFfjFALnCx8t2gJGLawjhELZ-IIkfoU=w92-h92-k-no","img2":"https:\/\/lh5.googleusercontent.com\/p\/AF1QipNAuuT8mHvAl_AiOU_0ebnMtqFj2pOpKBeqwNKy=w408-h272-k-no"},{"name":"Bar Musical Luna","category":"Pub","city":"L'Hospitalet de Llobregat","address":"NOT_FOUND","website":"Av. de Josep Tarradellas i Joan, 197, 08901 L'Hospitalet de Llobregat, Barcelona","email":"NO_EMAIL","phone":"615348505","reviews_rating":3.8,"num_reviews":199,"description":"NOT_FOUND","schedule":[{"day":"viernes","hours":"18:00\u20133:00"},{"day":"s\u00e1bado","hours":"18:00\u20133:00"},{"day":"domingo","hours":"18:00\u20133:00"},{"day":"lunes","hours":"Cerrado"},{"day":"martes","hours":"18:00\u20133:00"},{"day":"mi\u00e9rcoles","hours":"18:00\u20133:00"},{"day":"jueves","hours":"18:00\u20133:00"}],"auxiliar(borrar)":"NOT_FOUND","img1":"https:\/\/lh5.googleusercontent.com\/p\/AF1QipPmKq6dufKnM_ria5Uhlpwfa1g6R8rYyhWrUdeE=w80-h106-k-no","img2":"https:\/\/lh5.googleusercontent.com\/p\/AF1QipPmKq6dufKnM_ria5Uhlpwfa1g6R8rYyhWrUdeE=w408-h544-k-no"},{"name":"Undead Dark Club","category":"Discoteca","city":"NO_CITY","address":"Carrer Violant d'Hongria, 128, Distrito de Sants-Montju\u00efc, 08028 Barcelona","website":"undeadarkclub.com","email":"NO_EMAIL","phone":"NO_PHONE","reviews_rating":4.3,"num_reviews":199,"description":"Oscuro local decorado con estatuas y armaduras especializado en m\u00fasica gothic rock o post punk.","schedule":[{"day":"viernes","hours":"0:30\u20135:00"},{"day":"s\u00e1bado","hours":"0:30\u20136:00"},{"day":"domingo","hours":"Cerrado"},{"day":"lunes","hours":"Cerrado"},{"day":"martes","hours":"Cerrado"},{"day":"mi\u00e9rcoles","hours":"Cerrado"},{"day":"jueves","hours":"Cerrado"}],"auxiliar(borrar)":"NOT_FOUND","img1":"https:\/\/lh5.googleusercontent.com\/p\/AF1QipP1rAL22QPemLDgYwO5EXXJFEUHdFT4nUugsYnE=w122-h92-k-no","img2":"https:\/\/lh5.googleusercontent.com\/p\/AF1QipNRP1Sq4hLFHv6gWGbU9HnfaFd8R-lFSXln2Rfg=w408-h544-k-no"},{"name":"Blunit","category":"Bar","city":"NO_CITY","address":"C\/ de Muntaner, 24, L'Eixample, 08011 Barcelona","website":"blunit.es","email":"NO_EMAIL","phone":"616799853","reviews_rating":4.4,"num_reviews":195,"description":"NOT_FOUND","schedule":[{"day":"viernes","hours":"21:00\u20133:00"},{"day":"s\u00e1bado","hours":"21:00\u20133:00"},{"day":"domingo","hours":"21:00\u20132:30"},{"day":"lunes","hours":"21:00\u20132:30"},{"day":"martes","hours":"21:00\u20132:30"},{"day":"mi\u00e9rcoles","hours":"21:00\u20132:30"},{"day":"jueves","hours":"21:00\u20132:30"}],"auxiliar(borrar)":"Carta","img1":"https:\/\/lh5.googleusercontent.com\/p\/AF1QipO3Ovevozk1iLTDMW_scenxKZhx_r6PWybi2W88=w122-h92-k-no","img2":"https:\/\/lh5.googleusercontent.com\/p\/AF1QipOtZSUmRBmC_j9wWiw2MffjVxydqTCQRKbnhn5j=w408-h272-k-no"},{"name":"Disco Bar Joes","category":"Bar musical","city":"Barcelona","address":"Se encuentra en: Restaurante Hoja Verde","website":"Pg. Sant Antoni, 19, Sants-Montju\u00efc, 08014 Barcelona","email":"NO_EMAIL","phone":"674451291","reviews_rating":3.8,"num_reviews":195,"description":"C\u00f3cteles y m\u00fasica en una cocteler\u00eda informal con iluminaci\u00f3n tenue y ambiente distendido.","schedule":[{"day":"viernes","hours":"18:00\u20133:00"},{"day":"s\u00e1bado","hours":"18:00\u20133:00"},{"day":"domingo","hours":"18:00\u20132:30"},{"day":"lunes","hours":"9:00\u201317:00"},{"day":"martes","hours":"0:30\u20135:00"},{"day":"mi\u00e9rcoles","hours":"Cerrado"},{"day":"jueves","hours":"18:00\u20132:30"}],"auxiliar(borrar)":"facebook.com","img1":"https:\/\/lh5.googleusercontent.com\/p\/AF1QipMnW52MaRHTd-dLE8qbon_sa6-RkvwHxa7vuRYF=w163-h92-k-no","img2":"https:\/\/lh5.googleusercontent.com\/p\/AF1QipO_fMkP84JTAFdw3P_IEFGVg4NVRRT7fT3g_e_T=w408-h544-k-no"},{"name":"Tatos bar","category":"Bar de tapas","city":"NO_CITY","address":"Carrer de Barcelona, 84, 08901 L'Hospitalet de Llobregat, Barcelona","website":"NO_WEBSITE","email":null,"phone":"NO_PHONE","reviews_rating":4.7,"num_reviews":179,"description":"NOT_FOUND","schedule":[{"day":"viernes","hours":"12:30\u201316:0018:30\u201323:30"},{"day":"s\u00e1bado","hours":"12:30\u201316:0018:30\u201323:30"},{"day":"domingo","hours":"12:00\u201316:00"},{"day":"lunes","hours":"Cerrado"},{"day":"martes","hours":"Cerrado"},{"day":"mi\u00e9rcoles","hours":"18:30\u201323:00"},{"day":"jueves","hours":"18:30\u201323:00"}],"auxiliar(borrar)":"NOT_FOUND","img1":"https:\/\/lh5.googleusercontent.com\/p\/AF1QipPrd0VnQuL5h4IA_mhhB9lScqz8vR9n8FjOmGal=w80-h106-k-no","img2":"https:\/\/lh5.googleusercontent.com\/p\/AF1QipPrd0VnQuL5h4IA_mhhB9lScqz8vR9n8FjOmGal=w408-h544-k-no"},{"name":"Chica Club Barcelona","category":"Discoteca","city":"Barcelona","address":"Carrer del Rossell\u00f3, 217, Eixample, 08008 Barcelona","website":"chicabcn.cat","email":"NO_EMAIL","phone":"699232543","reviews_rating":3.1,"num_reviews":162,"description":"NOT_FOUND","schedule":[{"day":"viernes","hours":"22:00\u20135:00"},{"day":"s\u00e1bado","hours":"22:00\u20135:00"},{"day":"domingo","hours":"22:00\u20135:00"},{"day":"lunes","hours":"Cerrado"},{"day":"martes","hours":"Cerrado"},{"day":"mi\u00e9rcoles","hours":"22:00\u20135:00"},{"day":"jueves","hours":"22:00\u20135:00"}],"auxiliar(borrar)":"NOT_FOUND","img1":"https:\/\/lh5.googleusercontent.com\/p\/AF1QipM-Mk1k-ERUPSzyDw7YB5-kggPQxqStASfqrncY=w143-h92-k-no","img2":"https:\/\/lh5.googleusercontent.com\/p\/AF1QipM-Mk1k-ERUPSzyDw7YB5-kggPQxqStASfqrncY=w408-h261-k-no"},{"name":"56 Lounge Bar","category":"Lounge","city":"NO_CITY","address":"Carrer de la Marina, 56, Sant Mart\u00ed, 08005 Barcelona","website":"NO_WEBSITE","email":null,"phone":"NO_PHONE","reviews_rating":4.0,"num_reviews":149,"description":"NOT_FOUND","schedule":[{"day":"viernes","hours":"16:00\u20133:00"},{"day":"s\u00e1bado","hours":"16:00\u20133:00"},{"day":"domingo","hours":"16:00\u20133:00"},{"day":"lunes","hours":"17:00\u20132:30"},{"day":"martes","hours":"17:00\u20132:30"},{"day":"mi\u00e9rcoles","hours":"17:00\u20132:30"},{"day":"jueves","hours":"17:00\u20132:30"}],"auxiliar(borrar)":"NOT_FOUND","img1":"https:\/\/lh5.googleusercontent.com\/p\/AF1QipOlih7y2RphCnGQeZF2HACA6Kbt3kVAEflmg_fx=w122-h92-k-no","img2":"https:\/\/lh5.googleusercontent.com\/p\/AF1QipNnwphCUMs2IvcmmB23Neu9dnTCohYDuHcmvipE=w408-h544-k-no"},{"name":"Bar Abanico","category":"Pub","city":"Barcelona","address":"Carrer del Camp, 3, Sarri\u00e0-Sant Gervasi, 08021 Barcelona","website":"abanico-barcelona.com","email":"info@abanico-barcelona.com","phone":"650291010","reviews_rating":4.4,"num_reviews":138,"description":"NOT_FOUND","schedule":[{"day":"viernes","hours":"23:00\u20133:00"},{"day":"s\u00e1bado","hours":"23:00\u20133:00"},{"day":"domingo","hours":"Cerrado"},{"day":"lunes","hours":"Cerrado"},{"day":"martes","hours":"Cerrado"},{"day":"mi\u00e9rcoles","hours":"Cerrado"},{"day":"jueves","hours":"Cerrado"}],"auxiliar(borrar)":"NOT_FOUND","img1":"https:\/\/lh5.googleusercontent.com\/p\/AF1QipNWDC24xyjQ5-wCicESSWDdbJad0SjKmsbTlgE-=w163-h92-k-no","img2":"https:\/\/lh5.googleusercontent.com\/p\/AF1QipOjUbgr8S_p4QoneX3lkvh3tRjodw7_ZHQ2tjhJ=w408-h271-k-no"},{"name":"Sala River","category":"Bar con m\u00fasica en directo","city":"NO_CITY","address":"Carrer Santa Anna, 14, 08901 L'Hospitalet de Llobregat, Barcelona","website":"NO_WEBSITE","email":null,"phone":"NO_PHONE","reviews_rating":4.6,"num_reviews":136,"description":"NOT_FOUND","schedule":[{"day":"viernes","hours":"23:00\u20133:00"},{"day":"s\u00e1bado","hours":"19:30\u20133:00"},{"day":"domingo","hours":"Cerrado"},{"day":"lunes","hours":"Cerrado"},{"day":"martes","hours":"Cerrado"},{"day":"mi\u00e9rcoles","hours":"Cerrado"},{"day":"jueves","hours":"20:00\u20131:00"}],"auxiliar(borrar)":"NOT_FOUND","img1":"https:\/\/lh5.googleusercontent.com\/p\/AF1QipM4cFs5ezUid_YP-ZGspYJOkkfVQqatjjMfUECK=w80-h106-k-no","img2":"https:\/\/lh5.googleusercontent.com\/p\/AF1QipNir7FF0IS9MrBTbmuAvTHWtW2_G30bljikewnN=w408-h306-k-no"},{"name":"Albaic\u00edn","category":"Bar","city":"NO_CITY","address":"Carrer de Josep Pla, 6, 08901 L'Hospitalet de Llobregat, Barcelona","website":"NO_WEBSITE","email":null,"phone":"NO_PHONE","reviews_rating":4.3,"num_reviews":136,"description":"NOT_FOUND","schedule":[{"day":"viernes","hours":"6:15\u201323:00"},{"day":"s\u00e1bado","hours":"7:30\u201323:00"},{"day":"domingo","hours":"Cerrado"},{"day":"lunes","hours":"6:15\u201323:00"},{"day":"martes","hours":"6:15\u201323:00"},{"day":"mi\u00e9rcoles","hours":"6:15\u201323:00"},{"day":"jueves","hours":"6:15\u201323:00"}],"auxiliar(borrar)":"NOT_FOUND","img1":"https:\/\/lh5.googleusercontent.com\/p\/AF1QipMNA0W6E3EffVp3QdYisf52_aXgako5Z-gLotXU=w80-h142-k-no","img2":"https:\/\/lh5.googleusercontent.com\/p\/AF1QipMNA0W6E3EffVp3QdYisf52_aXgako5Z-gLotXU=w408-h725-k-no"},{"name":"Bar Enka 3","category":"Lounge","city":"NO_CITY","address":"Carrer de Sants, 384, Les Corts, 08028 Barcelona","website":"NO_WEBSITE","email":null,"phone":"NO_PHONE","reviews_rating":3.5,"num_reviews":133,"description":"NOT_FOUND","schedule":[{"day":"viernes","hours":"8:00\u201324:00"},{"day":"s\u00e1bado","hours":"8:00\u20131:00"},{"day":"domingo","hours":"9:00\u20131:00"},{"day":"lunes","hours":"8:00\u201324:00"},{"day":"martes","hours":"8:00\u201324:00"},{"day":"mi\u00e9rcoles","hours":"8:00\u201324:00"},{"day":"jueves","hours":"8:00\u201324:00"}],"auxiliar(borrar)":"NOT_FOUND","img1":"https:\/\/lh5.googleusercontent.com\/p\/AF1QipNkMQvzADRPaYQEB500NKhbktOYtuwzWPOAcVne=w92-h92-k-no","img2":"https:\/\/lh5.googleusercontent.com\/p\/AF1QipNkMQvzADRPaYQEB500NKhbktOYtuwzWPOAcVne=w408-h408-k-no"},{"name":"El Cangrejo Eixample","category":"Bar gay","city":"NO_CITY","address":"Carrer de Villarroel, 88, L'Eixample, 08011 Barcelona","website":"NO_WEBSITE","email":null,"phone":"NO_PHONE","reviews_rating":3.9,"num_reviews":131,"description":"NOT_FOUND","schedule":[{"day":"viernes","hours":"22:45\u20133:00"},{"day":"s\u00e1bado","hours":"22:45\u20133:00"},{"day":"domingo","hours":"Cerrado"},{"day":"lunes","hours":"Cerrado"},{"day":"martes","hours":"Cerrado"},{"day":"mi\u00e9rcoles","hours":"Cerrado"},{"day":"jueves","hours":"Cerrado"}],"auxiliar(borrar)":"NOT_FOUND","img1":"https:\/\/lh5.googleusercontent.com\/p\/AF1QipOk38QZTYBPseRo0hRd8gxrRQS1KFh8HoaG6BoA=w163-h92-k-no","img2":"https:\/\/lh5.googleusercontent.com\/p\/AF1QipOk38QZTYBPseRo0hRd8gxrRQS1KFh8HoaG6BoA=w426-h240-k-no"},{"name":"Lennon's Club","category":"Discoteca","city":"NO_CITY","address":"Av. Fabregada, 91, 08901 L'Hospitalet de Llobregat, Barcelona","website":"lennonsclub.com","email":"NO_EMAIL","phone":"NO_PHONE","reviews_rating":3.8,"num_reviews":120,"description":"NOT_FOUND","schedule":[{"day":"viernes","hours":"21:00\u201324:00"},{"day":"s\u00e1bado","hours":"0:00\u20136:0021:00\u201324:00"},{"day":"domingo","hours":"0:00\u20136:00"},{"day":"lunes","hours":"Cerrado"},{"day":"martes","hours":"Cerrado"},{"day":"mi\u00e9rcoles","hours":"Cerrado"},{"day":"jueves","hours":"Cerrado"}],"auxiliar(borrar)":"NOT_FOUND","img1":"https:\/\/lh5.googleusercontent.com\/p\/AF1QipN_pjesaYgDr7_tCVmnepo04aIB1O5SCH1AxMVC=w122-h92-k-no","img2":"https:\/\/lh5.googleusercontent.com\/p\/AF1QipOvDhXFfWAQf6zUxuP-ndv0_vFfb8JFJuoD3z_6=w408-h296-k-no"},{"name":"LaKontra de Gr\u00e0cia","category":"Bar musical","city":"Barcelona","address":"Pla\u00e7a del Sol, 3, Local 1, Gr\u00e0cia, 08012 Barcelona","website":"lakontra.org","email":"lakontradegracia@gmail.com","phone":"NO_PHONE","reviews_rating":3.9,"num_reviews":113,"description":"NOT_FOUND","schedule":[{"day":"viernes","hours":"12:00\u20133:00"},{"day":"s\u00e1bado","hours":"12:00\u20133:00"},{"day":"domingo","hours":"12:00\u201319:00"},{"day":"lunes","hours":"Cerrado"},{"day":"martes","hours":"Cerrado"},{"day":"mi\u00e9rcoles","hours":"18:30\u20131:00"},{"day":"jueves","hours":"18:30\u20132:30"}],"auxiliar(borrar)":"Amigable con la comunidad LGTBI+","img1":"https:\/\/lh5.googleusercontent.com\/p\/AF1QipPm2DmaYv2wqi7GEPeWkfllLvl1m2W_pNzP0PtC=w122-h92-k-no","img2":"https:\/\/lh5.googleusercontent.com\/p\/AF1QipM1zNMQmAd-zFrUV6GrwnqkW5UKKrqRTtNPtNSt=w408-h544-k-no"},{"name":"Manolo's Bar","category":"Bar","city":"NO_CITY","address":"Carrer de Garcilaso, 161, Sant Andreu, 08027 Barcelona","website":"NO_WEBSITE","email":null,"phone":"NO_PHONE","reviews_rating":4.5,"num_reviews":104,"description":"NOT_FOUND","schedule":[{"day":"viernes","hours":"8:00\u201323:00"},{"day":"s\u00e1bado","hours":"8:00\u201323:00"},{"day":"domingo","hours":"8:00\u201323:00"},{"day":"lunes","hours":"8:00\u201323:00"},{"day":"martes","hours":"8:00\u201323:00"},{"day":"mi\u00e9rcoles","hours":"8:00\u201323:00"},{"day":"jueves","hours":"8:00\u201323:00"}],"auxiliar(borrar)":"NOT_FOUND","img1":"https:\/\/lh5.googleusercontent.com\/p\/AF1QipOeL5jCztu6m85XGDUAvQdkEQvDWR7dx9V8JtSz=w122-h92-k-no","img2":"https:\/\/lh5.googleusercontent.com\/p\/AF1QipOeL5jCztu6m85XGDUAvQdkEQvDWR7dx9V8JtSz=w408-h305-k-no"},{"name":"EL TIET","category":"Cocteler\u00eda","city":"Barcelona","address":"Carrer de Neop\u00e0tria, 43, Sant Andreu, 08030 Barcelona","website":"NO_WEBSITE","email":null,"phone":"602020483","reviews_rating":4.4,"num_reviews":104,"description":"NOT_FOUND","schedule":[{"day":"viernes","hours":"18:00\u20133:00"},{"day":"s\u00e1bado","hours":"18:00\u20133:00"},{"day":"domingo","hours":"18:00\u20132:30"},{"day":"lunes","hours":"Cerrado"},{"day":"martes","hours":"18:00\u20132:30"},{"day":"mi\u00e9rcoles","hours":"18:00\u20132:30"},{"day":"jueves","hours":"18:00\u20132:30"}],"auxiliar(borrar)":"Reclamar esta empresa","img1":"https:\/\/lh5.googleusercontent.com\/p\/AF1QipOHFlRdhrPViFI4qVZT5ptMjoWlHP_zn5OJBx1x=w80-h106-k-no","img2":"https:\/\/lh5.googleusercontent.com\/p\/AF1QipO4LVU-ZTBTEhNM-8BlUEJWwIR4gRzDDJBIVBVi=w493-h240-k-no"},{"name":"Leounge Karaoke Bar","category":"Karaoke","city":"NO_CITY","address":"Carrer del Francol\u00ed, 68, Sarri\u00e0-Sant Gervasi, 08006 Barcelona","website":"NO_WEBSITE","email":null,"phone":"NO_PHONE","reviews_rating":4.3,"num_reviews":103,"description":"Espejos y sof\u00e1s de estilo barroco y toques en rojo crean ambiente en este bar musical apto para eventos.","schedule":[{"day":"viernes","hours":"18:00\u20132:30"},{"day":"s\u00e1bado","hours":"12:00\u20132:30"},{"day":"domingo","hours":"12:30\u201324:00"},{"day":"lunes","hours":"Cerrado"},{"day":"martes","hours":"Cerrado"},{"day":"mi\u00e9rcoles","hours":"Cerrado"},{"day":"jueves","hours":"18:00\u201323:30"}],"auxiliar(borrar)":"NOT_FOUND","img1":"https:\/\/lh5.googleusercontent.com\/p\/AF1QipMdxaI6lwYPhpZTpi656vbyclblevIdub3hKC8N=w138-h92-k-no","img2":"https:\/\/lh5.googleusercontent.com\/p\/AF1QipNlJTdkRAZJ969sTz4Hwfid0wHxjz3-lAuP06jq=w431-h240-k-no"},{"name":"Milestones Bar","category":"Snack bar","city":"Barcelona","address":"Carrer de Saragossa, 89, Sarri\u00e0-Sant Gervasi, 08006 Barcelona","website":"instagram.com","email":"NO_EMAIL","phone":"669295850","reviews_rating":4.7,"num_reviews":95,"description":"NOT_FOUND","schedule":[{"day":"viernes","hours":"20:00\u20133:00"},{"day":"s\u00e1bado","hours":"20:00\u20133:00"},{"day":"domingo","hours":"20:00\u20132:30"},{"day":"lunes","hours":"Cerrado"},{"day":"martes","hours":"20:00\u20132:30"},{"day":"mi\u00e9rcoles","hours":"20:00\u20132:30"},{"day":"jueves","hours":"20:00\u20132:30"}],"auxiliar(borrar)":"Reservar una mesa","img1":"https:\/\/lh5.googleusercontent.com\/p\/AF1QipNaw3pN61sgDm7FzAQ1rCO0StqOmlQY8bWBdE5a=w80-h106-k-no","img2":"https:\/\/lh5.googleusercontent.com\/p\/AF1QipN-3IvI5Tl3y84Omg5Vi8zw6LABX9VpUdwFATPG=w408-h306-k-no"},{"name":"Telephone nightbar","category":"Club nocturno","city":"Barcelona","address":"Carrer d'Aribau, 87, L'Eixample, 08036 Barcelona","website":"instagram.com","email":"NO_EMAIL","phone":"615684688","reviews_rating":4.7,"num_reviews":93,"description":"NOT_FOUND","schedule":[{"day":"viernes","hours":"20:00\u20133:30"},{"day":"s\u00e1bado","hours":"20:00\u20133:30"},{"day":"domingo","hours":"Cerrado"},{"day":"lunes","hours":"Cerrado"},{"day":"martes","hours":"Cerrado"},{"day":"mi\u00e9rcoles","hours":"20:00\u20132:30"},{"day":"jueves","hours":"20:00\u20132:30"}],"auxiliar(borrar)":"Carta","img1":"https:\/\/lh5.googleusercontent.com\/p\/AF1QipMngpcpP6C61APnwx_6U0ZRlyZCGvAJWCcDHVFY=w163-h92-k-no","img2":"https:\/\/lh5.googleusercontent.com\/p\/AF1QipMiF3Twmwaf1U_UVRFgJt6O1AZI9rsQz9C_y8gT=w408-h409-k-no"},{"name":"WOODY","category":"Bar","city":"Barcelona","address":"Pla\u00e7a del Sol, 7, Gr\u00e0cia, 08012 Barcelona","website":"facebook.com","email":"NO_EMAIL","phone":"625597645","reviews_rating":3.0,"num_reviews":75,"description":"M\u00fasica jazz y c\u00f3cteles en bar de copas revestido en madera con carteles de cine que sirve tambi\u00e9n tapas.","schedule":[{"day":"viernes","hours":"18:00\u20133:00"},{"day":"s\u00e1bado","hours":"18:00\u20133:00"},{"day":"domingo","hours":"18:00\u20131:00"},{"day":"lunes","hours":"18:00\u20131:00"},{"day":"martes","hours":"18:00\u20131:00"},{"day":"mi\u00e9rcoles","hours":"18:00\u20131:00"},{"day":"jueves","hours":"18:00\u20131:00"}],"auxiliar(borrar)":"Reclamar esta empresa","img1":"https:\/\/lh5.googleusercontent.com\/p\/AF1QipPn7C81fdFP0rGHX77ZnfaEqayMipOuACneTNzy=w80-h93-k-no","img2":"https:\/\/lh5.googleusercontent.com\/p\/AF1QipMzoFzck1yPsVKTGr5rAP_ONxGX-AAypNjNbdYZ=w408-h544-k-no"},{"name":"Shisha Lounge Dejavu - Shisha Hospitalet del Llobregat","category":"Lounge","city":"NO_CITY","address":"Carrer de Pere Pelegr\u00ed, 32, 08906 Esplugues de Llobregat, Barcelona","website":"NO_WEBSITE","email":null,"phone":"NO_PHONE","reviews_rating":4.5,"num_reviews":74,"description":"NOT_FOUND","schedule":[{"day":"viernes","hours":"20:00\u20133:00"},{"day":"s\u00e1bado","hours":"20:00\u20133:00"},{"day":"domingo","hours":"20:00\u20133:00"},{"day":"lunes","hours":"20:00\u20132:30"},{"day":"martes","hours":"Cerrado"},{"day":"mi\u00e9rcoles","hours":"20:00\u20132:30"},{"day":"jueves","hours":"20:00\u20132:30"}],"auxiliar(borrar)":"NOT_FOUND","img1":"https:\/\/lh5.googleusercontent.com\/p\/AF1QipPJWvNVENpxTl-yyDHwp0EMlee_qF5tZ1ZffVrs=w80-h106-k-no","img2":"https:\/\/lh5.googleusercontent.com\/p\/AF1QipNm86PUZl6KlYJtAubHAjBPZItrQnTP671mBkyI=w427-h240-k-no"},{"name":"Nick Havanna","category":"Discoteca","city":"Barcelona","address":"Carrer del Rossell\u00f3, Eixample, 08008 Barcelona","website":"m.facebook.com","email":"NO_EMAIL","phone":"658303704","reviews_rating":3.9,"num_reviews":73,"description":"NOT_FOUND","schedule":[{"day":"viernes","hours":"Cerrado"},{"day":"s\u00e1bado","hours":"Cerrado"},{"day":"domingo","hours":"6:00\u201323:00"},{"day":"lunes","hours":"Cerrado"},{"day":"martes","hours":"Cerrado"},{"day":"mi\u00e9rcoles","hours":"Cerrado"},{"day":"jueves","hours":"19:30\u201323:30"}],"auxiliar(borrar)":"Reclamar esta empresa","img1":"https:\/\/lh5.googleusercontent.com\/p\/AF1QipM3lXn5C_P9tcIloI2VxbAAVXQ08m22YndThUqZ=w92-h92-k-no","img2":"https:\/\/lh5.googleusercontent.com\/p\/AF1QipM3lXn5C_P9tcIloI2VxbAAVXQ08m22YndThUqZ=w408-h408-k-no"},{"name":"Wanasah Barcelona","category":"Discoteca","city":"Barcelona","address":"Carta","website":"Av. de Sarri\u00e0, 44, Les Corts, 08029 Barcelona","email":"NO_EMAIL","phone":"666317753","reviews_rating":3.6,"num_reviews":67,"description":"NOT_FOUND","schedule":[{"day":"viernes","hours":"0:00\u20135:0023:00\u201324:00"},{"day":"s\u00e1bado","hours":"0:00\u20136:0023:00\u201324:00"},{"day":"domingo","hours":"0:00\u20136:0023:00\u201324:00"},{"day":"lunes","hours":"0:00\u20135:0023:00\u201324:00"},{"day":"martes","hours":"0:00\u20135:0023:00\u201324:00"},{"day":"mi\u00e9rcoles","hours":"0:00\u20135:0023:00\u201324:00"},{"day":"jueves","hours":"0:00\u20135:0023:00\u201324:00"}],"auxiliar(borrar)":"instagram.com","img1":"https:\/\/lh5.googleusercontent.com\/p\/AF1QipMrAAFDkichp6C4lx6zTcKnbpoubSuuQXABGRSp=w163-h92-k-no","img2":"https:\/\/lh5.googleusercontent.com\/p\/AF1QipMrAAFDkichp6C4lx6zTcKnbpoubSuuQXABGRSp=w427-h240-k-no"},{"name":"YASS! Barcelona | LGTBIQ+ Gay Party","category":"Discoteca","city":"Barcelona","address":"Carrer de Tarragona, 141, Sants-Montju\u00efc, 08014 Barcelona","website":"yassparty.com","email":"NO_EMAIL","phone":"934878342","reviews_rating":3.6,"num_reviews":66,"description":"NOT_FOUND","schedule":[{"day":"viernes","hours":"Cerrado"},{"day":"s\u00e1bado","hours":"23:45\u201324:00"},{"day":"domingo","hours":"0:00\u20136:00"},{"day":"lunes","hours":"Cerrado"},{"day":"martes","hours":"Cerrado"},{"day":"mi\u00e9rcoles","hours":"Cerrado"},{"day":"jueves","hours":"Cerrado"}],"auxiliar(borrar)":"Amigable con la comunidad LGTBI+","img1":"https:\/\/lh5.googleusercontent.com\/p\/AF1QipN-dLfCApdXbmYlHbsp7nhbxiuaVaK3w1DX2fbq=w138-h92-k-no","img2":"https:\/\/lh5.googleusercontent.com\/p\/AF1QipOoGPn_QDHyro9VMx7CHBRqFlWvbdToQOXJhUU=w408-h725-k-no"},{"name":"Snoopy","category":"Lounge","city":"NO_CITY","address":"Carrer de Sant Jordi, 5, 08740 Sant Andreu de la Barca, Barcelona","website":"NO_WEBSITE","email":null,"phone":"NO_PHONE","reviews_rating":4.2,"num_reviews":60,"description":"NOT_FOUND","schedule":[{"day":"viernes","hours":"11:00\u201322:00"},{"day":"s\u00e1bado","hours":"11:00\u201322:00"},{"day":"domingo","hours":"11:00\u201322:00"},{"day":"lunes","hours":"11:00\u201322:00"},{"day":"martes","hours":"11:00\u201322:00"},{"day":"mi\u00e9rcoles","hours":"11:00\u201322:00"},{"day":"jueves","hours":"11:00\u201322:00"}],"auxiliar(borrar)":"NOT_FOUND","img1":"https:\/\/lh5.googleusercontent.com\/p\/AF1QipPbwEmbv3yqiqGLe9uqOJxW0pLnzNvArQEZRiSD=w80-h106-k-no","img2":"https:\/\/lh5.googleusercontent.com\/p\/AF1QipPbwEmbv3yqiqGLe9uqOJxW0pLnzNvArQEZRiSD=w408-h544-k-no"},{"name":"Los Panda Lounge","category":"Lounge","city":"Barcelona","address":"Carrer de la Independ\u00e8ncia, 326, Sant Mart\u00ed, 08026 Barcelona","website":"facebook.com","email":"NO_EMAIL","phone":"634244970","reviews_rating":4.8,"num_reviews":60,"description":"NOT_FOUND","schedule":[{"day":"viernes","hours":"11:00\u201314:0016:00\u201322:00"},{"day":"s\u00e1bado","hours":"16:00\u201322:00"},{"day":"domingo","hours":"16:00\u201322:00"},{"day":"lunes","hours":"11:00\u201314:0016:00\u201322:00"},{"day":"martes","hours":"11:00\u201314:0016:00\u201322:00"},{"day":"mi\u00e9rcoles","hours":"11:00\u201314:0016:00\u201322:00"},{"day":"jueves","hours":"11:00\u201314:0016:00\u201322:00"}],"auxiliar(borrar)":"NOT_FOUND","img1":"https:\/\/lh5.googleusercontent.com\/p\/AF1QipMjPKymWpu-UhLq21P3EySw7LfkSnnLojTy0-RB=w80-h106-k-no","img2":"https:\/\/lh5.googleusercontent.com\/p\/AF1QipMjPKymWpu-UhLq21P3EySw7LfkSnnLojTy0-RB=w408-h544-k-no"},{"name":"Bar Anubis","category":"Lounge","city":"L'Hospitalet de Llobregat","address":"Carrer de Rafael Campalans, 166, 08903 L'Hospitalet de Llobregat, Barcelona","website":"facebook.com","email":"NO_EMAIL","phone":"933325692","reviews_rating":3.9,"num_reviews":58,"description":"NOT_FOUND","schedule":[{"day":"viernes","hours":"8:00\u201322:00"},{"day":"s\u00e1bado","hours":"8:00\u201322:00"},{"day":"domingo","hours":"8:00\u201322:00"},{"day":"lunes","hours":"8:00\u201322:00"},{"day":"martes","hours":"8:00\u201322:00"},{"day":"mi\u00e9rcoles","hours":"8:00\u201322:00"},{"day":"jueves","hours":"8:00\u201322:00"}],"auxiliar(borrar)":"NOT_FOUND","img1":"https:\/\/lh5.googleusercontent.com\/p\/AF1QipMSUvbU9OvG6Wgk_2NfHXqZKzXhoHKoriv6ohCF=w122-h92-k-no","img2":"https:\/\/lh5.googleusercontent.com\/p\/AF1QipMSUvbU9OvG6Wgk_2NfHXqZKzXhoHKoriv6ohCF=w408-h306-k-no"},{"name":"Maison Close Barcelona","category":"Club de entretenimiento para adultos","city":"Barcelona","address":"Pg. de Gr\u00e0cia, 123, bajos, Gracia, 08008 Barcelona","website":"maisonclose.com","email":"reservas@maisonclose.com","phone":"626242275","reviews_rating":4.3,"num_reviews":57,"description":"NOT_FOUND","schedule":"NOT_FOUND","auxiliar(borrar)":"Amigable con la comunidad LGTBI+","img1":"https:\/\/lh5.googleusercontent.com\/p\/AF1QipPY_uTw-ao25SOJPBoUpK05uFANoKsAQi7UE2Yo=w138-h92-k-no","img2":"https:\/\/lh5.googleusercontent.com\/p\/AF1QipPY_uTw-ao25SOJPBoUpK05uFANoKsAQi7UE2Yo=w408-h272-k-no"},{"name":"The Black Room","category":"Club nocturno","city":"Barcelona","address":"Rambla de Catalunya, 4, Eixample, 08007 Barcelona","website":"facebook.com","email":"NO_EMAIL","phone":"NO_PHONE","reviews_rating":3.4,"num_reviews":55,"description":"NOT_FOUND","schedule":[{"day":"viernes","hours":"9:00\u201317:00"},{"day":"s\u00e1bado","hours":"9:00\u201317:00"},{"day":"domingo","hours":"9:00\u201317:00"},{"day":"lunes","hours":"9:00\u201317:00"},{"day":"martes","hours":"9:00\u201317:00"},{"day":"mi\u00e9rcoles","hours":"9:00\u201317:00"},{"day":"jueves","hours":"9:00\u201317:00"}],"auxiliar(borrar)":"NOT_FOUND","img1":"https:\/\/lh5.googleusercontent.com\/p\/AF1QipPah97Pn5NG8mAhi25ZHytQLrnXMDMBupxMjpyY=w128-h92-k-no","img2":"https:\/\/lh5.googleusercontent.com\/p\/AF1QipPah97Pn5NG8mAhi25ZHytQLrnXMDMBupxMjpyY=w408-h292-k-no"},{"name":"Mr. French Barcelona","category":"Discoteca","city":"Barcelona","address":"Carrer del Comte d'Urgell, 292, L'Eixample, 08036 Barcelona","website":"instagram.com","email":"NO_EMAIL","phone":"622865203","reviews_rating":4.3,"num_reviews":54,"description":"NOT_FOUND","schedule":[{"day":"viernes","hours":"0:00\u20136:0023:59\u201324:00"},{"day":"s\u00e1bado","hours":"0:00\u20136:0023:59\u201324:00"},{"day":"domingo","hours":"0:00\u20136:0023:59\u201324:00"},{"day":"lunes","hours":"0:00\u20136:00"},{"day":"martes","hours":"Cerrado"},{"day":"mi\u00e9rcoles","hours":"Cerrado"},{"day":"jueves","hours":"23:59\u201324:00"}],"auxiliar(borrar)":"NOT_FOUND","img1":"https:\/\/lh5.googleusercontent.com\/p\/AF1QipN-WFJYUMnXz4EkVuxtqUHZXQ3X9l81SGgKVdrI=w80-h106-k-no","img2":"https:\/\/lh5.googleusercontent.com\/p\/AF1QipN-WFJYUMnXz4EkVuxtqUHZXQ3X9l81SGgKVdrI=w408-h541-k-no"},{"name":"Sala B Barcelona","category":"Discoteca","city":"Barcelona","address":"C\/ de Muntaner, 244, Sarri\u00e0-Sant Gervasi, 08021 Barcelona","website":"luzdegas.com","email":"comunicacio@luzdegas.com","phone":"932097711","reviews_rating":2.6,"num_reviews":51,"description":"NOT_FOUND","schedule":[{"day":"viernes","hours":"0:00\u20135:0023:59\u201324:00"},{"day":"s\u00e1bado","hours":"0:00\u20136:0023:59\u201324:00"},{"day":"domingo","hours":"0:00\u20136:00"},{"day":"lunes","hours":"Cerrado"},{"day":"martes","hours":"Cerrado"},{"day":"mi\u00e9rcoles","hours":"Cerrado"},{"day":"jueves","hours":"23:59\u201324:00"}],"auxiliar(borrar)":"NOT_FOUND","img1":"https:\/\/lh5.googleusercontent.com\/p\/AF1QipOoWRkpQHquYfNgTyrcEeGM6GHYlpH1JhcndzaC=w80-h177-k-no","img2":"https:\/\/lh5.googleusercontent.com\/p\/AF1QipOoWRkpQHquYfNgTyrcEeGM6GHYlpH1JhcndzaC=w408-h904-k-no"},{"name":"Sala Imperator","category":"Discoteca","city":"NO_CITY","address":"Carrer de C\u00f2rsega, 327, Bajos, Gracia, 08037 Barcelona","website":"NO_WEBSITE","email":null,"phone":"NO_PHONE","reviews_rating":3.4,"num_reviews":47,"description":"NOT_FOUND","schedule":[{"day":"viernes","hours":"Cerrado"},{"day":"s\u00e1bado","hours":"18:30\u201322:00"},{"day":"domingo","hours":"18:30\u201324:00"},{"day":"lunes","hours":"Cerrado"},{"day":"martes","hours":"Cerrado"},{"day":"mi\u00e9rcoles","hours":"18:30\u201324:00"},{"day":"jueves","hours":"Cerrado"}],"auxiliar(borrar)":"NOT_FOUND","img1":"https:\/\/lh5.googleusercontent.com\/p\/AF1QipPvU2sqhmqzHFbfJASGbCuN70ciL289Ea0PU0P3=w80-h106-k-no","img2":"https:\/\/lh5.googleusercontent.com\/p\/AF1QipPvU2sqhmqzHFbfJASGbCuN70ciL289Ea0PU0P3=w408-h544-k-no"},{"name":"Bar Terraza","category":"Lounge","city":"NO_CITY","address":"Carrer del Mol\u00ed, 23, 08906 L'Hospitalet de Llobregat, Barcelona","website":"NO_WEBSITE","email":null,"phone":"NO_PHONE","reviews_rating":4.6,"num_reviews":47,"description":"NOT_FOUND","schedule":[{"day":"viernes","hours":"8:30\u201323:30"},{"day":"s\u00e1bado","hours":"8:30\u201323:30"},{"day":"domingo","hours":"9:00\u201323:30"},{"day":"lunes","hours":"8:30\u201323:30"},{"day":"martes","hours":"8:30\u201323:30"},{"day":"mi\u00e9rcoles","hours":"8:30\u201323:30"},{"day":"jueves","hours":"Cerrado"}],"auxiliar(borrar)":"NOT_FOUND","img1":"https:\/\/lh5.googleusercontent.com\/p\/AF1QipM8tkZiTQP6nYVDcRTkOXMGZOqgFLAsbqK7WQQ9=w80-h106-k-no","img2":"https:\/\/lh5.googleusercontent.com\/p\/AF1QipM8tkZiTQP6nYVDcRTkOXMGZOqgFLAsbqK7WQQ9=w408-h544-k-no"},{"name":"Bar Restaurante la Caba\u00f1a Y Club Don Royal","category":"Club nocturno","city":"NO_CITY","address":"Carrer de B\u00e9jar, 51, Sants-Montju\u00efc, 08014 Barcelona","website":"NO_WEBSITE","email":null,"phone":"NO_PHONE","reviews_rating":3.9,"num_reviews":43,"description":"NOT_FOUND","schedule":"NOT_FOUND","auxiliar(borrar)":"NOT_FOUND","img1":"https:\/\/lh5.googleusercontent.com\/p\/AF1QipMYodTeO5KP105FSmzW9HC51h5X00szeMFsrfGZ=w124-h92-k-no","img2":"https:\/\/lh5.googleusercontent.com\/p\/AF1QipMYodTeO5KP105FSmzW9HC51h5X00szeMFsrfGZ=w408-h302-k-no"},{"name":".","category":"Bar","city":"NO_CITY","address":"Carrer de la Pubilla Cases, 18, 08906 L'Hospitalet de Llobregat, Barcelona","website":"NO_WEBSITE","email":null,"phone":"NO_PHONE","reviews_rating":4.1,"num_reviews":41,"description":"NOT_FOUND","schedule":[{"day":"viernes","hours":"6:00\u20131:00"},{"day":"s\u00e1bado","hours":"6:00\u20131:00"},{"day":"domingo","hours":"6:00\u201324:00"},{"day":"lunes","hours":"Cerrado"},{"day":"martes","hours":"0:00\u20131:006:00\u20131:00"},{"day":"mi\u00e9rcoles","hours":"6:00\u20131:00"},{"day":"jueves","hours":"6:00\u20131:00"}],"auxiliar(borrar)":"NOT_FOUND","img1":"https:\/\/lh5.googleusercontent.com\/p\/AF1QipPTG3QjfAX94tfwuJ3Sb4qel-lLTbJHemi6K5Qs=w80-h139-k-no","img2":"https:\/\/lh5.googleusercontent.com\/p\/AF1QipPTG3QjfAX94tfwuJ3Sb4qel-lLTbJHemi6K5Qs=w408-h711-k-no"},{"name":"Bar Salvador","category":"Lounge","city":"NO_CITY","address":"Pla\u00e7a del Repartidor, 08901 Hospitalet de Llobregat (L'), Barcelona","website":"NO_WEBSITE","email":null,"phone":"NO_PHONE","reviews_rating":3.2,"num_reviews":41,"description":"NOT_FOUND","schedule":[{"day":"viernes","hours":"7:00\u201324:00"},{"day":"s\u00e1bado","hours":"7:00\u201324:00"},{"day":"domingo","hours":"7:00\u201324:00"},{"day":"lunes","hours":"7:00\u201324:00"},{"day":"martes","hours":"7:00\u201324:00"},{"day":"mi\u00e9rcoles","hours":"7:00\u201324:00"},{"day":"jueves","hours":"7:00\u201324:00"}],"auxiliar(borrar)":"NOT_FOUND","img1":"https:\/\/streetviewpixels-pa.googleapis.com\/v1\/thumbnail?panoid=ZKfpicT7AolWeNpPd12c9g&cb_client=search.gws-prod.gps&w=80&h=92&yaw=3.097971&pitch=0&thumbfov=100","img2":"https:\/\/streetviewpixels-pa.googleapis.com\/v1\/thumbnail?panoid=ZKfpicT7AolWeNpPd12c9g&cb_client=search.gws-prod.gps&w=408&h=240&yaw=3.097971&pitch=0&thumbfov=100"},{"name":"Icon Club Barcelona","category":"Discoteca","city":"Barcelona","address":"Carrer de Felip II, 25, Sant Andreu, 08027 Barcelona","website":"instagram.com","email":"NO_EMAIL","phone":"675585159","reviews_rating":3.4,"num_reviews":39,"description":"NOT_FOUND","schedule":[{"day":"viernes","hours":"0:00\u20135:0023:55\u201324:00"},{"day":"s\u00e1bado","hours":"0:00\u20136:0023:55\u201324:00"},{"day":"domingo","hours":"0:00\u20136:0023:55\u201324:00"},{"day":"lunes","hours":"0:00\u20135:00"},{"day":"martes","hours":"Cerrado"},{"day":"mi\u00e9rcoles","hours":"Cerrado"},{"day":"jueves","hours":"23:55\u201324:00"}],"auxiliar(borrar)":"Reclamar esta empresa","img1":"https:\/\/lh5.googleusercontent.com\/p\/AF1QipOZN_9ryu_RPCmTWFoR34sOh4JydrDVUa3ackdp=w163-h92-k-no","img2":"https:\/\/lh3.googleusercontent.com\/p\/AF1QipO73mdxiF-rAJeokjxpP2njgsnW7JfZFCZsy2c=w408-h725-k-no"},{"name":"Vertigo Club","category":"Discoteca","city":"NO_CITY","address":"Carrer de C\u00f2rsega, 327, Gr\u00e0cia, 08037 Barcelona","website":"instagram.com","email":"NO_EMAIL","phone":"NO_PHONE","reviews_rating":3.7,"num_reviews":39,"description":"NOT_FOUND","schedule":[{"day":"viernes","hours":"0:00\u20136:00"},{"day":"s\u00e1bado","hours":"Cerrado"},{"day":"domingo","hours":"Cerrado"},{"day":"lunes","hours":"Cerrado"},{"day":"martes","hours":"Cerrado"},{"day":"mi\u00e9rcoles","hours":"Cerrado"},{"day":"jueves","hours":"Cerrado"}],"auxiliar(borrar)":"NOT_FOUND","img1":"https:\/\/lh5.googleusercontent.com\/p\/AF1QipM1w9KNKZz985Tib2ZTDurng8pVAd7aJb___rlH=w138-h92-k-no","img2":"https:\/\/lh5.googleusercontent.com\/p\/AF1QipM1w9KNKZz985Tib2ZTDurng8pVAd7aJb___rlH=w408-h272-k-no"},{"name":"Lounge Barcelona","category":"Club nocturno","city":"Barcelona","address":"Carrer de C\u00f2rsega, 257, L'Eixample, 08036 Barcelona","website":"loungebarcelona.com","email":"NO_EMAIL","phone":"637148339","reviews_rating":4.6,"num_reviews":38,"description":"NOT_FOUND","schedule":[{"day":"viernes","hours":"Abierto 24 horas"},{"day":"s\u00e1bado","hours":"Abierto 24 horas"},{"day":"domingo","hours":"Abierto 24 horas"},{"day":"lunes","hours":"Abierto 24 horas"},{"day":"martes","hours":"Abierto 24 horas"},{"day":"mi\u00e9rcoles","hours":"Abierto 24 horas"},{"day":"jueves","hours":"Abierto 24 horas"}],"auxiliar(borrar)":"Amigable con la comunidad LGTBI+","img1":"https:\/\/lh5.googleusercontent.com\/p\/AF1QipNSw2x5RmzoSCWRnWx6-sudu3B9tbOu7j-eaJnv=w138-h92-k-no","img2":"https:\/\/lh5.googleusercontent.com\/p\/AF1QipNSw2x5RmzoSCWRnWx6-sudu3B9tbOu7j-eaJnv=w408-h271-k-no"},{"name":"Sala Club Renfe","category":"Lounge","city":"NO_CITY","address":"Se encuentra en: Barcelona-Sants","website":"Pl. dels Pa\u00efsos Catalans, s\/n, Sants-Montju\u00efc, 08014 Barcelona","email":"NO_EMAIL","phone":"NO_PHONE","reviews_rating":3.3,"num_reviews":35,"description":"NOT_FOUND","schedule":[{"day":"viernes","hours":"5:30\u201322:00"},{"day":"s\u00e1bado","hours":"5:30\u201322:00"},{"day":"domingo","hours":"6:30\u201322:00"},{"day":"lunes","hours":"5:30\u201322:00"},{"day":"martes","hours":"5:30\u201322:00"},{"day":"mi\u00e9rcoles","hours":"5:30\u201322:00"},{"day":"jueves","hours":"5:30\u201322:00"}],"auxiliar(borrar)":"NOT_FOUND","img1":"https:\/\/lh5.googleusercontent.com\/p\/AF1QipN8EMsG-ZKc1vfpKIbrGkcS6gGJkpJnoMgKNuU=w80-h106-k-no","img2":"https:\/\/lh5.googleusercontent.com\/p\/AF1QipN8EMsG-ZKc1vfpKIbrGkcS6gGJkpJnoMgKNuU=w408-h544-k-no"},{"name":"Bar Edelweiss","category":"Lounge","city":"NO_CITY","address":"Carrer de Pau Claris, 107, L'Eixample, 08009 Barcelona","website":"NO_WEBSITE","email":null,"phone":"NO_PHONE","reviews_rating":3.9,"num_reviews":35,"description":"NOT_FOUND","schedule":[{"day":"viernes","hours":"7:00\u201320:00"},{"day":"s\u00e1bado","hours":"Cerrado"},{"day":"domingo","hours":"8:00\u201320:00"},{"day":"lunes","hours":"7:00\u201320:00"},{"day":"martes","hours":"7:00\u201320:00"},{"day":"mi\u00e9rcoles","hours":"7:00\u201320:00"},{"day":"jueves","hours":"7:00\u201320:00"}],"auxiliar(borrar)":"NOT_FOUND","img1":"https:\/\/lh5.googleusercontent.com\/p\/AF1QipMJnfE-AqF1h3KXHTFnq-Ar724_li2q_EAi2vCQ=w80-h106-k-no","img2":"https:\/\/lh5.googleusercontent.com\/p\/AF1QipMJnfE-AqF1h3KXHTFnq-Ar724_li2q_EAi2vCQ=w408-h544-k-no"},{"name":"Sala Par\u00eds","category":"Lounge","city":"Barcelona","address":"Carrer d'Ar\u00edstides Maillol, Les Corts, 08028 Barcelona","website":"NO_WEBSITE","email":null,"phone":"NO_PHONE","reviews_rating":4.4,"num_reviews":32,"description":"NOT_FOUND","schedule":[{"day":"viernes","hours":"Abierto 24 horas"},{"day":"s\u00e1bado","hours":"Abierto 24 horas"},{"day":"domingo","hours":"Abierto 24 horas"},{"day":"lunes","hours":"Abierto 24 horas"},{"day":"martes","hours":"Abierto 24 horas"},{"day":"mi\u00e9rcoles","hours":"Abierto 24 horas"},{"day":"jueves","hours":"Abierto 24 horas"}],"auxiliar(borrar)":"NOT_FOUND","img1":"https:\/\/lh5.googleusercontent.com\/p\/AF1QipNLYXW_ArWMcJuXW4MVapZUsUCFgTeYPvbM7AVs=w163-h92-k-no","img2":"https:\/\/lh5.googleusercontent.com\/p\/AF1QipNfviIIFLPiiz8GezkPmwE8E2lcuRSgyL5sB18m=w408-h271-k-no"},{"name":"LOUNGE LA LIBERTAD 2","category":"Lounge","city":"NO_CITY","address":"Carrer de Di\u00f2genes, 19, 08905 L'Hospitalet de Llobregat, Barcelona","website":"NO_WEBSITE","email":null,"phone":"NO_PHONE","reviews_rating":4.7,"num_reviews":31,"description":"NOT_FOUND","schedule":[{"day":"viernes","hours":"17:00\u20133:00"},{"day":"s\u00e1bado","hours":"17:00\u20133:00"},{"day":"domingo","hours":"17:00\u20132:30"},{"day":"lunes","hours":"17:00\u20132:30"},{"day":"martes","hours":"17:00\u20132:30"},{"day":"mi\u00e9rcoles","hours":"17:00\u20132:30"},{"day":"jueves","hours":"17:00\u20132:30"}],"auxiliar(borrar)":"NOT_FOUND","img1":"https:\/\/lh5.googleusercontent.com\/p\/AF1QipP2NB6ypIdgjHXh6dD1I8MTeMB1djRYpQ2px8gk=w204-h92-k-no","img2":"https:\/\/lh5.googleusercontent.com\/p\/AF1QipPXczci3pA_MdYAMEHjVrG0cB0UM1txh9VNBGqf=w408-h544-k-no"},{"name":"Bar Lugo","category":"Bar musical","city":"NO_CITY","address":"Carrer de Llevant, 43, 08905 L'Hospitalet de Llobregat, Barcelona","website":"NO_WEBSITE","email":null,"phone":"NO_PHONE","reviews_rating":4.4,"num_reviews":30,"description":"NOT_FOUND","schedule":[{"day":"viernes","hours":"19:00\u20133:00"},{"day":"s\u00e1bado","hours":"19:00\u20133:00"},{"day":"domingo","hours":"19:00\u20132:30"},{"day":"lunes","hours":"19:00\u20132:30"},{"day":"martes","hours":"19:00\u20132:30"},{"day":"mi\u00e9rcoles","hours":"19:00\u20132:30"},{"day":"jueves","hours":"19:00\u20132:30"}],"auxiliar(borrar)":"NOT_FOUND","img1":"https:\/\/lh5.googleusercontent.com\/p\/AF1QipPW9KZdDAOmlr2HZWcS1mBPf_TylwA5AvVfsyOY=w122-h92-k-no","img2":"https:\/\/lh5.googleusercontent.com\/p\/AF1QipNsFGJg0jgt1IbBtuygi6LPHLScGS_4KzCOKd6w=w408-h544-k-no"},{"name":"Club La Bombonera","category":"Club nocturno","city":"NO_CITY","address":"Carrer de N\u00e0pols, 173, L'Eixample, 08013 Barcelona","website":"NO_WEBSITE","email":null,"phone":"NO_PHONE","reviews_rating":3.5,"num_reviews":29,"description":"NOT_FOUND","schedule":[{"day":"viernes","hours":"19:00\u20135:00"},{"day":"s\u00e1bado","hours":"20:00\u20135:00"},{"day":"domingo","hours":"Cerrado"},{"day":"lunes","hours":"19:00\u20134:00"},{"day":"martes","hours":"19:00\u20134:00"},{"day":"mi\u00e9rcoles","hours":"19:00\u20134:00"},{"day":"jueves","hours":"19:00\u20134:00"}],"auxiliar(borrar)":"NOT_FOUND","img1":"https:\/\/lh5.googleusercontent.com\/p\/AF1QipNm8ah2r0bZN5E2Y38R8FFLaWDdilkkDcItU47z=w163-h92-k-no","img2":"https:\/\/lh5.googleusercontent.com\/p\/AF1QipNm8ah2r0bZN5E2Y38R8FFLaWDdilkkDcItU47z=w426-h240-k-no"},{"name":"Pacheco","category":"Lounge","city":"NO_CITY","address":"Carrer Jard\u00ed, 7, 08905 L'Hospitalet de Llobregat, Barcelona","website":"NO_WEBSITE","email":null,"phone":"NO_PHONE","reviews_rating":4.1,"num_reviews":27,"description":"NOT_FOUND","schedule":[{"day":"viernes","hours":"8:30\u201322:30"},{"day":"s\u00e1bado","hours":"8:30\u201322:30"},{"day":"domingo","hours":"15:00\u201323:00"},{"day":"lunes","hours":"8:30\u201322:30"},{"day":"martes","hours":"8:30\u201322:30"},{"day":"mi\u00e9rcoles","hours":"8:30\u201322:30"},{"day":"jueves","hours":"8:30\u201322:30"}],"auxiliar(borrar)":"NOT_FOUND","img1":"https:\/\/lh5.googleusercontent.com\/p\/AF1QipPT83JdNZ4rc0YOo8nTFGBtkX9FAAFFBgA5u8Kz=w80-h106-k-no","img2":"https:\/\/lh5.googleusercontent.com\/p\/AF1QipPT83JdNZ4rc0YOo8nTFGBtkX9FAAFFBgA5u8Kz=w408-h544-k-no"},{"name":"Matin\u00e9e Barcelona Events","category":"Empresa de organizaci\u00f3n de eventos","city":"Barcelona","address":"Poble Espanyol de Montju\u00efc, Av. de Francesc Ferrer i Gu\u00e0rdia, 13, Distrito de Sants-Montju\u00efc, 08038 Barcelona","website":"matineegroup.com","email":"NO_EMAIL","phone":"934530510","reviews_rating":4.0,"num_reviews":24,"description":"NOT_FOUND","schedule":"NOT_FOUND","auxiliar(borrar)":"Reclamar esta empresa","img1":"https:\/\/lh5.googleusercontent.com\/p\/AF1QipNg0D2l7VivXR5B_9DWndsU2ImCOAtLuuWH48wm=w80-h173-k-no","img2":"https:\/\/lh3.googleusercontent.com\/p\/AF1QipO2oTkQ1X9VUch1iLEuiHp05xWY8sABaj0hXTbT=w408-h725-k-no"},{"name":"Plan B | Culture club","category":"Asociaci\u00f3n sociocultural","city":"NO_CITY","address":"Carrer de l'Or, 25, Gr\u00e0cia, 08012 Barcelona","website":"NO_WEBSITE","email":null,"phone":"NO_PHONE","reviews_rating":4.8,"num_reviews":24,"description":"NOT_FOUND","schedule":[{"day":"viernes","hours":"Abierto 24 horas"},{"day":"s\u00e1bado","hours":"Abierto 24 horas"},{"day":"domingo","hours":"Abierto 24 horas"},{"day":"lunes","hours":"Abierto 24 horas"},{"day":"martes","hours":"Abierto 24 horas"},{"day":"mi\u00e9rcoles","hours":"Abierto 24 horas"},{"day":"jueves","hours":"Abierto 24 horas"}],"auxiliar(borrar)":"NOT_FOUND","img1":"https:\/\/lh5.googleusercontent.com\/p\/AF1QipNTTeWENPxdGooit2s9JtaUvzUNqObh6A1cBKI4=w271-h92-k-no","img2":"https:\/\/lh5.googleusercontent.com\/p\/AF1QipNTTeWENPxdGooit2s9JtaUvzUNqObh6A1cBKI4=w708-h240-k-no"},{"name":"Strip Club Barcelona | Las Vegas Night Girl","category":"Club de entretenimiento para adultos","city":"Barcelona","address":"Carrer d'Aribau, 229, Sarri\u00e0-Sant Gervasi, 08021 Barcelona","website":"lasvegasbcn.com","email":"info@lasvegasbcn.com","phone":"671858964","reviews_rating":4.2,"num_reviews":22,"description":"NOT_FOUND","schedule":[{"day":"viernes","hours":"17:00\u20135:00"},{"day":"s\u00e1bado","hours":"17:00\u20135:00"},{"day":"domingo","hours":"Cerrado"},{"day":"lunes","hours":"17:00\u20134:00"},{"day":"martes","hours":"17:00\u20134:00"},{"day":"mi\u00e9rcoles","hours":"17:00\u20134:00"},{"day":"jueves","hours":"17:00\u20134:00"}],"auxiliar(borrar)":"NOT_FOUND","img1":"https:\/\/lh5.googleusercontent.com\/p\/AF1QipPEjfwpq6YOqbD82mFrKpnB92ZVs2D-vlKaL7m5=w138-h92-k-no","img2":"https:\/\/streetviewpixels-pa.googleapis.com\/v1\/thumbnail?panoid=lZoB3lwtf-yhFpT3C1ZAwQ&cb_client=search.gws-prod.gps&w=408&h=240&yaw=216.96397&pitch=0&thumbfov=100"},{"name":"Bar 1\u00d72","category":"Lounge","city":"NO_CITY","address":"Carrer de les Mimoses, 21, 08905 L'Hospitalet de Llobregat, Barcelona","website":"NO_WEBSITE","email":null,"phone":"NO_PHONE","reviews_rating":4.0,"num_reviews":22,"description":"NOT_FOUND","schedule":[{"day":"viernes","hours":"10:00\u201323:00"},{"day":"s\u00e1bado","hours":"10:00\u201323:00"},{"day":"domingo","hours":"10:00\u201323:00"},{"day":"lunes","hours":"10:00\u201323:00"},{"day":"martes","hours":"10:00\u201323:00"},{"day":"mi\u00e9rcoles","hours":"10:00\u201323:00"},{"day":"jueves","hours":"10:00\u201323:00"}],"auxiliar(borrar)":"NOT_FOUND","img1":"https:\/\/streetviewpixels-pa.googleapis.com\/v1\/thumbnail?panoid=A0AhZLABbtqG_nK4qfp65w&cb_client=search.gws-prod.gps&w=80&h=92&yaw=32.476707&pitch=0&thumbfov=100","img2":"https:\/\/streetviewpixels-pa.googleapis.com\/v1\/thumbnail?panoid=A0AhZLABbtqG_nK4qfp65w&cb_client=search.gws-prod.gps&w=408&h=240&yaw=32.476707&pitch=0&thumbfov=100"},{"name":"Agua de Luna","category":"Discoteca","city":"NO_CITY","address":"Carrer de Viladomat, 211, L'Eixample, 08029 Barcelona","website":"aguadeluna.com","email":"NO_EMAIL","phone":"NO_PHONE","reviews_rating":3.7,"num_reviews":21,"description":"Concurrida discoteca de salsa, merengue, bachata y ritmos latinos con rueda cubana, mojitos y clases de baile.","schedule":"NOT_FOUND","auxiliar(borrar)":"NOT_FOUND","img1":"https:\/\/lh5.googleusercontent.com\/p\/AF1QipM33tv6vfc6igqcRV3zpcWapKJ4O5ipuGnLLdRq=w163-h92-k-no","img2":"https:\/\/lh5.googleusercontent.com\/p\/AF1QipPcQrP6nI20BJAHkQrsspf0a-dehgNqgRPHyBon=w426-h240-k-no"},{"name":"Bananas Party","category":"Club nocturno","city":"Barcelona","address":"Carrer de Tarragona, 141, Sants-Montju\u00efc, 08014 Barcelona","website":"bananasparty.com","email":"NO_EMAIL","phone":"NO_PHONE","reviews_rating":4.8,"num_reviews":20,"description":"NOT_FOUND","schedule":[{"day":"viernes","hours":"23:59\u201324:00"},{"day":"s\u00e1bado","hours":"0:00\u20136:00"},{"day":"domingo","hours":"Cerrado"},{"day":"lunes","hours":"Cerrado"},{"day":"martes","hours":"Cerrado"},{"day":"mi\u00e9rcoles","hours":"Cerrado"},{"day":"jueves","hours":"Cerrado"}],"auxiliar(borrar)":"Amigable con la comunidad LGTBI+","img1":"https:\/\/lh5.googleusercontent.com\/p\/AF1QipPJEPbQK1o2DrUp6OAWV3fFChOWsAAIBBU3noTy=w92-h92-k-no","img2":"https:\/\/lh5.googleusercontent.com\/p\/AF1QipOWTZZg3jXNPa-tnH5sDGVJQOMReGLfPxw7m1Gg=w408-h408-k-no"},{"name":"Ramblas","category":"Club nocturno","city":"NO_CITY","address":"Carrer Daoiz i Velarde, 11-1, Sants-Montju\u00efc, 08028 Barcelona","website":"NO_WEBSITE","email":null,"phone":"NO_PHONE","reviews_rating":4.6,"num_reviews":20,"description":"NOT_FOUND","schedule":"NOT_FOUND","auxiliar(borrar)":"NOT_FOUND","img1":"https:\/\/lh5.googleusercontent.com\/p\/AF1QipNCCgrxiN6CTgzmBMOxJML5r9a20k0Se-0vgQL0=w163-h92-k-no","img2":"https:\/\/lh5.googleusercontent.com\/p\/AF1QipNCCgrxiN6CTgzmBMOxJML5r9a20k0Se-0vgQL0=w426-h240-k-no"},{"name":"BASSHAUS","category":"Discoteca","city":"NO_CITY","address":"Carrer del Plom, 1, Sants-Montju\u00efc, 08038 Barcelona","website":"NO_WEBSITE","email":null,"phone":"NO_PHONE","reviews_rating":4.7,"num_reviews":20,"description":"NOT_FOUND","schedule":[{"day":"viernes","hours":"23:59\u201324:00"},{"day":"s\u00e1bado","hours":"0:00\u20136:0023:59\u201324:00"},{"day":"domingo","hours":"0:00\u20136:00"},{"day":"lunes","hours":"Cerrado"},{"day":"martes","hours":"Cerrado"},{"day":"mi\u00e9rcoles","hours":"Cerrado"},{"day":"jueves","hours":"Cerrado"}],"auxiliar(borrar)":"NOT_FOUND","img1":"https:\/\/lh5.googleusercontent.com\/p\/AF1QipOEhMRoxMxUWMJStgm9mQt6YF-305xC21zrAJS8=w138-h92-k-no","img2":"https:\/\/lh5.googleusercontent.com\/p\/AF1QipOTVkDLuKv4A9vHQsJ_bgzl0oUBwd4lNJ1ykfqz=w408-h272-k-no"},{"name":"Barcelona NightCard Official Office","category":"Empresa de organizaci\u00f3n de eventos","city":"Barcelona","address":"Carrer de Mallorca, 369, L'Eixample, 08013 Barcelona","website":"barcelonanightcard.com","email":"NO_EMAIL","phone":"935111127","reviews_rating":3.2,"num_reviews":18,"description":"NOT_FOUND","schedule":[{"day":"viernes","hours":"10:00\u201320:00"},{"day":"s\u00e1bado","hours":"10:00\u201316:00"},{"day":"domingo","hours":"11:00\u201317:00"},{"day":"lunes","hours":"10:00\u201320:00"},{"day":"martes","hours":"10:00\u201320:00"},{"day":"mi\u00e9rcoles","hours":"10:00\u201320:00"},{"day":"jueves","hours":"10:00\u201320:00"}],"auxiliar(borrar)":"Se encuentra en: i-Barcelona Tourist Infopoint & Tickets, locker","img1":"https:\/\/lh5.googleusercontent.com\/p\/AF1QipMJ1VzNYKN3WZ4MO2Z-9H7K8NpkQuctEkFdUBoZ=w154-h92-k-no","img2":"https:\/\/lh5.googleusercontent.com\/p\/AF1QipNApkNhm8s5uaBjR957RM9ROOKKJIBlNg5YgPb5=w408-h304-k-no"},{"name":"Golden Heaven BCN","category":"Club nocturno","city":"Barcelona","address":"Carrer de Sagu\u00e9s, 11, Sarri\u00e0-Sant Gervasi, 08021 Barcelona","website":"goldenheavenbcn.com","email":"NO_EMAIL","phone":"619165436","reviews_rating":5.0,"num_reviews":18,"description":"NOT_FOUND","schedule":[{"day":"viernes","hours":"17:00\u20135:00"},{"day":"s\u00e1bado","hours":"17:00\u20135:00"},{"day":"domingo","hours":"17:00\u20135:00"},{"day":"lunes","hours":"17:00\u20134:00"},{"day":"martes","hours":"17:00\u20134:00"},{"day":"mi\u00e9rcoles","hours":"17:00\u20134:00"},{"day":"jueves","hours":"17:00\u20134:00"}],"auxiliar(borrar)":"NOT_FOUND","img1":"https:\/\/lh5.googleusercontent.com\/p\/AF1QipOHJX_d1eJpvEgxdUGXutK-gwMqTyASlLkYoQrQ=w136-h92-k-no","img2":"https:\/\/lh5.googleusercontent.com\/p\/AF1QipOHJX_d1eJpvEgxdUGXutK-gwMqTyASlLkYoQrQ=w408-h275-k-no"},{"name":"The PubCrawl Company BARCELONA","category":"Atracci\u00f3n tur\u00edstica","city":"Barcelona","address":"Carrer de C\u00f2rsega, 373, Gr\u00e0cia, 08037 Barcelona","website":"thepubcrawlcompany.com","email":"NO_EMAIL","phone":"636415999","reviews_rating":4.6,"num_reviews":18,"description":"NOT_FOUND","schedule":[{"day":"viernes","hours":"22:00\u20133:00"},{"day":"s\u00e1bado","hours":"22:00\u20133:00"},{"day":"domingo","hours":"22:00\u20133:00"},{"day":"lunes","hours":"Cerrado"},{"day":"martes","hours":"Cerrado"},{"day":"mi\u00e9rcoles","hours":"22:00\u20133:00"},{"day":"jueves","hours":"22:00\u20133:00"}],"auxiliar(borrar)":"Se encuentra en: Generator Hostel Barcelona","img1":"https:\/\/lh5.googleusercontent.com\/p\/AF1QipMj6YKQOtOyl7U2uqwT5V7ct0sBBpC0unoz-oCg=w92-h92-k-no","img2":"https:\/\/lh5.googleusercontent.com\/p\/AF1QipMhCcRO-mM2HARDWsiAWQsG_uUvWIYDbYdjeMg4=w457-h240-k-no"},{"name":"Hellfire Metal Club","category":"Club nocturno","city":"NO_CITY","address":"Carrer de Violant d'Hongria Reina d'Arag\u00f3, 128, Sants-Montju\u00efc, 08028 Barcelona","website":"NO_WEBSITE","email":null,"phone":"NO_PHONE","reviews_rating":4.4,"num_reviews":16,"description":"NOT_FOUND","schedule":[{"day":"viernes","hours":"0:00\u20136:00"},{"day":"s\u00e1bado","hours":"0:00\u20136:00"},{"day":"domingo","hours":"Cerrado"},{"day":"lunes","hours":"Cerrado"},{"day":"martes","hours":"Cerrado"},{"day":"mi\u00e9rcoles","hours":"Cerrado"},{"day":"jueves","hours":"Cerrado"}],"auxiliar(borrar)":"NOT_FOUND","img1":"https:\/\/lh5.googleusercontent.com\/p\/AF1QipMfWu_LNpd2tUEdCsNsLdQBGUeF8fYhQZuAyk_r=w80-h106-k-no","img2":"https:\/\/lh5.googleusercontent.com\/p\/AF1QipMfWu_LNpd2tUEdCsNsLdQBGUeF8fYhQZuAyk_r=w408-h544-k-no"},{"name":"POPair Party","category":"Club nocturno","city":"Barcelona","address":"Carrer de Tarragona, 141, Sants-Montju\u00efc, 08014 Barcelona","website":"popairparty.com","email":"NO_EMAIL","phone":"610857817","reviews_rating":4.5,"num_reviews":16,"description":"NOT_FOUND","schedule":[{"day":"viernes","hours":"0:30\u20136:00"},{"day":"s\u00e1bado","hours":"Cerrado"},{"day":"domingo","hours":"Cerrado"},{"day":"lunes","hours":"Cerrado"},{"day":"martes","hours":"Cerrado"},{"day":"mi\u00e9rcoles","hours":"Cerrado"},{"day":"jueves","hours":"Cerrado"}],"auxiliar(borrar)":"Se encuentra en: Safari Disco Club Barcelona","img1":"https:\/\/lh5.googleusercontent.com\/p\/AF1QipN7kOLEIffdkTb0PJBtLkMc9iOwp7g4MxSZF_I8=w80-h106-k-no","img2":"https:\/\/lh5.googleusercontent.com\/p\/AF1QipN7kOLEIffdkTb0PJBtLkMc9iOwp7g4MxSZF_I8=w408-h544-k-no"},{"name":"Matinee 2000 SLU","category":"Organizador de eventos","city":"Barcelona","address":"Carrer de Mallorca, 219, L'Eixample, 08008 Barcelona","website":"matineegroup.com","email":"NO_EMAIL","phone":"935000621","reviews_rating":4.2,"num_reviews":15,"description":"NOT_FOUND","schedule":[{"day":"viernes","hours":"9:00\u201314:0015:00\u201318:00"},{"day":"s\u00e1bado","hours":"Cerrado"},{"day":"domingo","hours":"Cerrado"},{"day":"lunes","hours":"9:00\u201314:0015:00\u201318:00"},{"day":"martes","hours":"9:00\u201314:0015:00\u201318:00"},{"day":"mi\u00e9rcoles","hours":"9:00\u201314:0015:00\u201318:00"},{"day":"jueves","hours":"9:00\u201314:0015:00\u201318:00"}],"auxiliar(borrar)":"NOT_FOUND","img1":"https:\/\/lh5.googleusercontent.com\/p\/AF1QipP28bDP1b8Vj8oVLkZuXL0sHqbaDHxWojVEitkc=w119-h92-k-no","img2":"https:\/\/lh5.googleusercontent.com\/p\/AF1QipP28bDP1b8Vj8oVLkZuXL0sHqbaDHxWojVEitkc=w408-h314-k-no"},{"name":"Bar Caramelo","category":"Bar musical","city":"NO_CITY","address":"Carrer Bassols, 13, Sant Mart\u00ed, 08018 Barcelona","website":"NO_WEBSITE","email":null,"phone":"NO_PHONE","reviews_rating":4.7,"num_reviews":14,"description":"NOT_FOUND","schedule":[{"day":"viernes","hours":"17:00\u20133:00"},{"day":"s\u00e1bado","hours":"17:00\u20133:00"},{"day":"domingo","hours":"17:00\u20132:30"},{"day":"lunes","hours":"Cerrado"},{"day":"martes","hours":"19:00\u20132:30"},{"day":"mi\u00e9rcoles","hours":"17:00\u20132:30"},{"day":"jueves","hours":"17:00\u20132:30"}],"auxiliar(borrar)":"NOT_FOUND","img1":"https:\/\/lh5.googleusercontent.com\/p\/AF1QipMdympXwkif4Yciwv82fWGyJYky2YqAxmdNGa8X=w80-h106-k-no","img2":"https:\/\/lh5.googleusercontent.com\/p\/AF1QipMdympXwkif4Yciwv82fWGyJYky2YqAxmdNGa8X=w408-h544-k-no"},{"name":"Margaritas Xavi","category":"Club nocturno","city":"NO_CITY","address":"Carrer de M\u00e8xic, 28, Sants-Montju\u00efc, 08004 Barcelona","website":"NO_WEBSITE","email":null,"phone":"NO_PHONE","reviews_rating":4.6,"num_reviews":14,"description":"NOT_FOUND","schedule":"NOT_FOUND","auxiliar(borrar)":"NOT_FOUND","img1":"https:\/\/streetviewpixels-pa.googleapis.com\/v1\/thumbnail?panoid=OTsCiuHMevUfb-IRI1cN4g&cb_client=search.gws-prod.gps&w=80&h=92&yaw=241.73903&pitch=0&thumbfov=100","img2":"https:\/\/streetviewpixels-pa.googleapis.com\/v1\/thumbnail?panoid=OTsCiuHMevUfb-IRI1cN4g&cb_client=search.gws-prod.gps&w=408&h=240&yaw=241.73903&pitch=0&thumbfov=100"},{"name":"DRIPMONDAY","category":"Club nocturno","city":"Barcelona","address":"Carrer de Balmes, 32, L'Eixample, 08007 Barcelona","website":"noplans.net","email":"NO_EMAIL","phone":"617744798","reviews_rating":5.0,"num_reviews":11,"description":"NOT_FOUND","schedule":[{"day":"viernes","hours":"Cerrado"},{"day":"s\u00e1bado","hours":"Cerrado"},{"day":"domingo","hours":"Cerrado"},{"day":"lunes","hours":"23:45\u20135:00"},{"day":"martes","hours":"Cerrado"},{"day":"mi\u00e9rcoles","hours":"Cerrado"},{"day":"jueves","hours":"Cerrado"}],"auxiliar(borrar)":"Reclamar esta empresa","img1":"https:\/\/lh5.googleusercontent.com\/p\/AF1QipP4oMjgksw_bmOLRx26aPg23bbvbf8vd6f3dfx0=w138-h92-k-no","img2":"https:\/\/streetviewpixels-pa.googleapis.com\/v1\/thumbnail?panoid=Liwbt5bla31AoE2mrdv_rw&cb_client=search.gws-prod.gps&w=408&h=240&yaw=323.76926&pitch=0&thumbfov=100"},{"name":"Casa SOLER","category":"Club nocturno","city":"NO_CITY","address":"Carrer de Miquel \u00c0ngel, 19, Sants-Montju\u00efc, 08028 Barcelona","website":"NO_WEBSITE","email":null,"phone":"NO_PHONE","reviews_rating":4.2,"num_reviews":10,"description":"NOT_FOUND","schedule":"NOT_FOUND","auxiliar(borrar)":"NOT_FOUND","img1":"https:\/\/streetviewpixels-pa.googleapis.com\/v1\/thumbnail?panoid=vGsXhv3qCGAcxfR1GQq7rw&cb_client=search.gws-prod.gps&w=80&h=92&yaw=170.3653&pitch=0&thumbfov=100","img2":"https:\/\/streetviewpixels-pa.googleapis.com\/v1\/thumbnail?panoid=vGsXhv3qCGAcxfR1GQq7rw&cb_client=search.gws-prod.gps&w=408&h=240&yaw=170.3653&pitch=0&thumbfov=100"},{"name":"Bar Caf\u00e9","category":"Cafeter\u00eda","city":"NO_CITY","address":"Carrer de Vallparda, 11, 08904 L'Hospitalet de Llobregat, Barcelona","website":"NO_WEBSITE","email":null,"phone":"NO_PHONE","reviews_rating":4.0,"num_reviews":10,"description":"NOT_FOUND","schedule":"NOT_FOUND","auxiliar(borrar)":"NOT_FOUND","img1":"https:\/\/streetviewpixels-pa.googleapis.com\/v1\/thumbnail?panoid=FugoH_NgvoqHk8AMyPLRFw&cb_client=search.gws-prod.gps&w=80&h=92&yaw=109.96384&pitch=0&thumbfov=100","img2":"https:\/\/streetviewpixels-pa.googleapis.com\/v1\/thumbnail?panoid=FugoH_NgvoqHk8AMyPLRFw&cb_client=search.gws-prod.gps&w=408&h=240&yaw=109.96384&pitch=0&thumbfov=100"},{"name":"EVA Night Club","category":"Club de entretenimiento para adultos","city":"Barcelona","address":"Carrer de Mari\u00e0 Cub\u00ed, 90, Sarri\u00e0-Sant Gervasi, 08021 Barcelona","website":"instagram.com","email":"NO_EMAIL","phone":"660162652","reviews_rating":5.0,"num_reviews":9,"description":"NOT_FOUND","schedule":[{"day":"viernes","hours":"17:00\u20135:00"},{"day":"s\u00e1bado","hours":"21:00\u20135:00"},{"day":"domingo","hours":"Cerrado"},{"day":"lunes","hours":"17:00\u201323:55"},{"day":"martes","hours":"17:00\u20134:00"},{"day":"mi\u00e9rcoles","hours":"17:00\u20134:00"},{"day":"jueves","hours":"17:00\u20134:00"}],"auxiliar(borrar)":"NOT_FOUND","img1":"https:\/\/lh5.googleusercontent.com\/p\/AF1QipOB8Xko0J91kLm2Y0FjId9RoLacUTd48XtR_7Te=w80-h106-k-no","img2":"https:\/\/lh5.googleusercontent.com\/p\/AF1QipNIPMkHUP5tsMLauSJhkFvxFaUDwZNMtUfrgiwG=w408-h544-k-no"},{"name":"The House of Lords","category":"Club nocturno","city":"NO_CITY","address":"Carrer de Mallorca, 184, L'Eixample, 08036 Barcelona","website":"NO_WEBSITE","email":null,"phone":"NO_PHONE","reviews_rating":4.8,"num_reviews":9,"description":"NOT_FOUND","schedule":[{"day":"viernes","hours":"Abierto 24 horas"},{"day":"s\u00e1bado","hours":"Abierto 24 horas"},{"day":"domingo","hours":"Abierto 24 horas"},{"day":"lunes","hours":"Cerrado"},{"day":"martes","hours":"Cerrado"},{"day":"mi\u00e9rcoles","hours":"Cerrado"},{"day":"jueves","hours":"Abierto 24 horas"}],"auxiliar(borrar)":"NOT_FOUND","img1":"https:\/\/streetviewpixels-pa.googleapis.com\/v1\/thumbnail?panoid=jpa2W0EKKvvYhqEK0V6s6w&cb_client=search.gws-prod.gps&w=80&h=92&yaw=130.61702&pitch=0&thumbfov=100","img2":"https:\/\/streetviewpixels-pa.googleapis.com\/v1\/thumbnail?panoid=jpa2W0EKKvvYhqEK0V6s6w&cb_client=search.gws-prod.gps&w=408&h=240&yaw=130.61702&pitch=0&thumbfov=100"},{"name":"Armonia","category":"Bar","city":"NO_CITY","address":"Carrer de la Maladeta, 15, 08950 Esplugues de Llobregat, Barcelona","website":"NO_WEBSITE","email":null,"phone":"NO_PHONE","reviews_rating":4.3,"num_reviews":6,"description":"NOT_FOUND","schedule":[{"day":"viernes","hours":"7:00\u201321:00"},{"day":"s\u00e1bado","hours":"7:00\u201321:00"},{"day":"domingo","hours":"7:00\u201321:00"},{"day":"lunes","hours":"7:00\u201321:00"},{"day":"martes","hours":"7:00\u201321:00"},{"day":"mi\u00e9rcoles","hours":"7:00\u201321:00"},{"day":"jueves","hours":"7:00\u201321:00"}],"auxiliar(borrar)":"NOT_FOUND","img1":"https:\/\/streetviewpixels-pa.googleapis.com\/v1\/thumbnail?panoid=bzHmOjqchLC7vSscGgB8XQ&cb_client=search.gws-prod.gps&w=80&h=92&yaw=287.0563&pitch=0&thumbfov=100","img2":"https:\/\/streetviewpixels-pa.googleapis.com\/v1\/thumbnail?panoid=bzHmOjqchLC7vSscGgB8XQ&cb_client=search.gws-prod.gps&w=408&h=240&yaw=287.0563&pitch=0&thumbfov=100"},{"name":"SKYLAB - Gentlemen\u2019s Club","category":"Club de entretenimiento para adultos","city":"Barcelona","address":"Carrer d'Enten\u00e7a, 214, L'Eixample, 08029 Barcelona","website":"skylabbcn.com","email":"NO_EMAIL","phone":"933408831","reviews_rating":3.0,"num_reviews":6,"description":"NOT_FOUND","schedule":[{"day":"viernes","hours":"22:00\u20135:00"},{"day":"s\u00e1bado","hours":"22:00\u20135:00"},{"day":"domingo","hours":"22:00\u20135:00"},{"day":"lunes","hours":"22:00\u20135:00"},{"day":"martes","hours":"22:00\u20135:00"},{"day":"mi\u00e9rcoles","hours":"22:00\u20135:00"},{"day":"jueves","hours":"22:00\u20135:00"}],"auxiliar(borrar)":"NOT_FOUND","img1":"https:\/\/lh5.googleusercontent.com\/p\/AF1QipP1Y1eIDxbYsOSNN2hCxQTE2PmTl1yyg23U6Ytk=w163-h92-k-no","img2":"https:\/\/lh5.googleusercontent.com\/p\/AF1QipPQp6GoG4m5vtAeIN9ccKNAsKHI_wt4EYcCh-CT=w426-h240-k-no"},{"name":"Sweet Drinks","category":"Club","city":"Barcelona","address":"Carrer de N\u00e0pols, 173, Local 1, Eixample, 08013 Barcelona","website":"instagram.com","email":"NO_EMAIL","phone":"631312567","reviews_rating":5.0,"num_reviews":6,"description":"NOT_FOUND","schedule":[{"day":"viernes","hours":"17:00\u20135:00"},{"day":"s\u00e1bado","hours":"17:00\u20135:00"},{"day":"domingo","hours":"17:00\u20134:00"},{"day":"lunes","hours":"17:00\u20134:00"},{"day":"martes","hours":"17:00\u20134:00"},{"day":"mi\u00e9rcoles","hours":"17:00\u20134:00"},{"day":"jueves","hours":"17:00\u20134:00"}],"auxiliar(borrar)":"NOT_FOUND","img1":"https:\/\/lh5.googleusercontent.com\/p\/AF1QipO9tE-7U_isa8ZKsLIJHNHizR5Em6FswkENlwM1=w80-h142-k-no","img2":"https:\/\/lh5.googleusercontent.com\/p\/AF1QipO9tE-7U_isa8ZKsLIJHNHizR5Em6FswkENlwM1=w408-h725-k-no"},{"name":"Satisfaction Music Club","category":"NOT_FOUND","city":"NO_CITY","address":"Carrer d'Enric Prat de la Riba, 80, 08901 L'Hospitalet de Llobregat, Barcelona","website":"NO_WEBSITE","email":null,"phone":"NO_PHONE","reviews_rating":4.8,"num_reviews":5,"description":"NOT_FOUND","schedule":"NOT_FOUND","auxiliar(borrar)":"NOT_FOUND","img1":"https:\/\/lh5.googleusercontent.com\/p\/AF1QipMC1z5IS6wKgeCs08CuucmiCOaqBALEvKN3sIs=w80-h133-k-no","img2":"https:\/\/lh5.googleusercontent.com\/p\/AF1QipMC1z5IS6wKgeCs08CuucmiCOaqBALEvKN3sIs=w408-h680-k-no"},{"name":"GIN CLUB SCOTCH","category":"Club nocturno","city":"NO_CITY","address":"Carrer de Mallorca, 579, Sant Mart\u00ed, 08026 Barcelona","website":"NO_WEBSITE","email":null,"phone":"NO_PHONE","reviews_rating":2.5,"num_reviews":4,"description":"NOT_FOUND","schedule":[{"day":"viernes","hours":"21:00\u20135:00"},{"day":"s\u00e1bado","hours":"21:00\u20135:00"},{"day":"domingo","hours":"Cerrado"},{"day":"lunes","hours":"21:00\u20135:00"},{"day":"martes","hours":"21:00\u20135:00"},{"day":"mi\u00e9rcoles","hours":"21:00\u20135:00"},{"day":"jueves","hours":"21:00\u20135:00"}],"auxiliar(borrar)":"NOT_FOUND","img1":"https:\/\/lh5.googleusercontent.com\/p\/AF1QipNE6Nyda6-Z9UR52ux1A321nsmX-CZLwlcwkiqY=w80-h106-k-no","img2":"https:\/\/lh5.googleusercontent.com\/p\/AF1QipNE6Nyda6-Z9UR52ux1A321nsmX-CZLwlcwkiqY=w408-h544-k-no"},{"name":"El Ma\u00f1o","category":"NOT_FOUND","city":"NO_CITY","address":"Carrer de l'Almirall Pr\u00f2ixida, 6, Sant Andreu, 08030 Barcelona","website":"NO_WEBSITE","email":null,"phone":"NO_PHONE","reviews_rating":5.0,"num_reviews":3,"description":"NOT_FOUND","schedule":"NOT_FOUND","auxiliar(borrar)":"NOT_FOUND","img1":"https:\/\/lh5.googleusercontent.com\/p\/AF1QipMuW03J059riC7RXRERTf0E0Ea1tBXjnJPeqAi7=w80-h106-k-no","img2":"https:\/\/lh5.googleusercontent.com\/p\/AF1QipMuW03J059riC7RXRERTf0E0Ea1tBXjnJPeqAi7=w408-h544-k-no"},{"name":"Beat Lab House & Techno","category":"Organizador de eventos","city":"Barcelona","address":"CLUB, Carrer de M\u00e8xic, 7, M7, Distrito de Sants-Montju\u00efc, 08004 Barcelona","website":"es.ra.co","email":"NO_EMAIL","phone":"622742662","reviews_rating":5.0,"num_reviews":2,"description":"NOT_FOUND","schedule":[{"day":"viernes","hours":"Cerrado"},{"day":"s\u00e1bado","hours":"Cerrado"},{"day":"domingo","hours":"23:45\u20135:00"},{"day":"lunes","hours":"Cerrado"},{"day":"martes","hours":"Cerrado"},{"day":"mi\u00e9rcoles","hours":"Cerrado"},{"day":"jueves","hours":"Cerrado"}],"auxiliar(borrar)":"NOT_FOUND","img1":"https:\/\/lh5.googleusercontent.com\/p\/AF1QipMbFJIjyk9fdnCBB8lkqvNVr7JWUwGjHyupZ0u7=w138-h92-k-no","img2":"https:\/\/lh5.googleusercontent.com\/p\/AF1QipNwlVQWe6Egw94czBgN3ZOk0WW3kKf0Lm4lLISx=w408-h272-k-no"},{"name":"Bar musical gotham","category":"Bar","city":"NO_CITY","address":"C Mas, 44, 08903 L'Hospitalet de Llobregat, Barcelona","website":"NO_WEBSITE","email":null,"phone":"NO_PHONE","reviews_rating":4.5,"num_reviews":2,"description":"NOT_FOUND","schedule":"NOT_FOUND","auxiliar(borrar)":"NOT_FOUND","img1":"https:\/\/streetviewpixels-pa.googleapis.com\/v1\/thumbnail?panoid=6l1BkEoluWBtc7mqQI44cg&cb_client=search.gws-prod.gps&w=80&h=92&yaw=290.4455&pitch=0&thumbfov=100","img2":"https:\/\/streetviewpixels-pa.googleapis.com\/v1\/thumbnail?panoid=6l1BkEoluWBtc7mqQI44cg&cb_client=search.gws-prod.gps&w=408&h=240&yaw=290.4455&pitch=0&thumbfov=100"},{"name":"B\u00f3veda","category":"NOT_FOUND","city":"NO_CITY","address":"Carrer de Pallars, 97, Sant Mart\u00ed, 08018 Barcelona","website":"NO_WEBSITE","email":null,"phone":"NO_PHONE","reviews_rating":5.0,"num_reviews":2,"description":"NOT_FOUND","schedule":"NOT_FOUND","auxiliar(borrar)":"NOT_FOUND","img1":"https:\/\/streetviewpixels-pa.googleapis.com\/v1\/thumbnail?panoid=_I_OhZcxe6Mj2cwNcnf2OA&cb_client=search.gws-prod.gps&w=80&h=92&yaw=300.43204&pitch=0&thumbfov=100","img2":"https:\/\/streetviewpixels-pa.googleapis.com\/v1\/thumbnail?panoid=_I_OhZcxe6Mj2cwNcnf2OA&cb_client=search.gws-prod.gps&w=408&h=240&yaw=300.43204&pitch=0&thumbfov=100"},{"name":"Jes\u00fas Castillo Labrador","category":"Lounge","city":"Barcelona","address":"C\/ de Muntaner, 506, Sarri\u00e0-Sant Gervasi, 08022 Barcelona","website":"NO_WEBSITE","email":null,"phone":"934183498","reviews_rating":1.0,"num_reviews":2,"description":"NOT_FOUND","schedule":[{"day":"viernes","hours":"10:00\u201320:00"},{"day":"s\u00e1bado","hours":"10:00\u201320:00"},{"day":"domingo","hours":"Cerrado"},{"day":"lunes","hours":"10:00\u201320:00"},{"day":"martes","hours":"10:00\u201320:00"},{"day":"mi\u00e9rcoles","hours":"10:00\u201320:00"},{"day":"jueves","hours":"10:00\u201320:00"}],"auxiliar(borrar)":"Reclamar esta empresa","img1":"https:\/\/lh5.googleusercontent.com\/p\/AF1QipMgKnIt_3m6ffzPqzCfxxiGhllKKMowaecFFbh7=w80-h142-k-no","img2":"https:\/\/streetviewpixels-pa.googleapis.com\/v1\/thumbnail?panoid=-uTKdN301ZS_bEN3d7ztKg&cb_client=search.gws-prod.gps&w=408&h=240&yaw=92.845825&pitch=0&thumbfov=100"},{"name":"Bar Musical Punta Dulce 2","category":"Bar musical","city":"NO_CITY","address":"Carrer de la Renclusa, 32, 08905 L'Hospitalet de Llobregat, Barcelona","website":"NO_WEBSITE","email":null,"phone":"NO_PHONE","reviews_rating":5.0,"num_reviews":1,"description":"NOT_FOUND","schedule":[{"day":"viernes","hours":"20:00\u20133:00"},{"day":"s\u00e1bado","hours":"20:00\u20133:00"},{"day":"domingo","hours":"20:00\u20133:00"},{"day":"lunes","hours":"20:00\u20133:00"},{"day":"martes","hours":"Cerrado"},{"day":"mi\u00e9rcoles","hours":"20:00\u20133:00"},{"day":"jueves","hours":"20:00\u20133:00"}],"auxiliar(borrar)":"NOT_FOUND","img1":"https:\/\/streetviewpixels-pa.googleapis.com\/v1\/thumbnail?panoid=DDHe5Hb7O7dZOWHvEYVKMg&cb_client=search.gws-prod.gps&w=80&h=92&yaw=269.931&pitch=0&thumbfov=100","img2":"https:\/\/lh3.googleusercontent.com\/p\/AF1QipMb2LzQj6HGV9bPGDYEzUpOvNCJwYyOQ_rJpn7l=w408-h730-k-no"},{"name":"Vermuteria Ermita","category":"Club nocturno","city":"L'Hospitalet de Llobregat","address":"Planta G \u00b7 Parroquia de Nuestra Se\u00f1ora de Bellvitge","website":"Av. Mare de D\u00e9u de Bellvitge, 3, 08907 L'Hospitalet de Llobregat, Barcelona","email":"NO_EMAIL","phone":"935417321","reviews_rating":5.0,"num_reviews":1,"description":"NOT_FOUND","schedule":"NOT_FOUND","auxiliar(borrar)":"Reclamar esta empresa","img1":"https:\/\/maps.gstatic.com\/tactile\/pane\/result-no-thumbnail-1x.png","img2":"https:\/\/maps.gstatic.com\/tactile\/pane\/default_geocode-1x.png"},{"name":"L'\u00e0tic","category":"NOT_FOUND","city":"NO_CITY","address":"Carrer de Santa Marta, 7, Sant Andreu, 08030 Barcelona","website":"NO_WEBSITE","email":null,"phone":"NO_PHONE","reviews_rating":5.0,"num_reviews":1,"description":"NOT_FOUND","schedule":"NOT_FOUND","auxiliar(borrar)":"NOT_FOUND","img1":"https:\/\/streetviewpixels-pa.googleapis.com\/v1\/thumbnail?panoid=Vr7Rak2iBrOeyZiEWui_bQ&cb_client=search.gws-prod.gps&w=80&h=92&yaw=243.93742&pitch=0&thumbfov=100","img2":"https:\/\/streetviewpixels-pa.googleapis.com\/v1\/thumbnail?panoid=Vr7Rak2iBrOeyZiEWui_bQ&cb_client=search.gws-prod.gps&w=408&h=240&yaw=243.93742&pitch=0&thumbfov=100"},{"name":"Timba Home","category":"Club nocturno","city":"NO_CITY","address":"Carrer del Consell de Cent, 160, L'Eixample, 08015 Barcelona","website":"NO_WEBSITE","email":null,"phone":"NO_PHONE","reviews_rating":5.0,"num_reviews":1,"description":"NOT_FOUND","schedule":"NOT_FOUND","auxiliar(borrar)":"NOT_FOUND","img1":"https:\/\/streetviewpixels-pa.googleapis.com\/v1\/thumbnail?panoid=APmFUj96s-TIg5U_bz4CEw&cb_client=search.gws-prod.gps&w=80&h=92&yaw=150.98831&pitch=0&thumbfov=100","img2":"https:\/\/streetviewpixels-pa.googleapis.com\/v1\/thumbnail?panoid=APmFUj96s-TIg5U_bz4CEw&cb_client=search.gws-prod.gps&w=408&h=240&yaw=150.98831&pitch=0&thumbfov=100"},{"name":"Tilllate.com Holding","category":"Consultora de marketing","city":"Barcelona","address":"Reclamar esta empresa","website":"Pg. de Gr\u00e0cia, 118, Gr\u00e0cia, 08012 Barcelona","email":"NO_EMAIL","phone":"683576171","reviews_rating":5.0,"num_reviews":1,"description":"NOT_FOUND","schedule":[{"day":"viernes","hours":"9:00\u201313:00"},{"day":"s\u00e1bado","hours":"Cerrado"},{"day":"domingo","hours":"Cerrado"},{"day":"lunes","hours":"8:00\u201317:00"},{"day":"martes","hours":"8:00\u201317:00"},{"day":"mi\u00e9rcoles","hours":"8:00\u201317:00"},{"day":"jueves","hours":"8:00\u201317:00"}],"auxiliar(borrar)":"NOT_FOUND","img1":"https:\/\/streetviewpixels-pa.googleapis.com\/v1\/thumbnail?panoid=ITNQ_Q9MR1gmA2euIRwL3g&cb_client=search.gws-prod.gps&w=80&h=92&yaw=46.319504&pitch=0&thumbfov=100","img2":"https:\/\/streetviewpixels-pa.googleapis.com\/v1\/thumbnail?panoid=ITNQ_Q9MR1gmA2euIRwL3g&cb_client=search.gws-prod.gps&w=408&h=240&yaw=46.319504&pitch=0&thumbfov=100"},{"name":"Sound Factory Discoteca Multiespacio","category":"NOT_FOUND","city":"Sant Andreu de la Barca","address":"Reclamar esta empresa","website":"Ctra. Martorell s\/n CC Atrium,, 08740 Sant Andreu, Spain, Barcelona","email":"NO_EMAIL","phone":"695473330","reviews_rating":5.0,"num_reviews":1,"description":"NOT_FOUND","schedule":"NOT_FOUND","auxiliar(borrar)":"NOT_FOUND","img1":"https:\/\/maps.gstatic.com\/tactile\/pane\/result-no-thumbnail-1x.png","img2":"https:\/\/maps.gstatic.com\/tactile\/pane\/default_geocode-1x.png"},{"name":"GREENSTATION BCN","category":"NOT_FOUND","city":"NO_CITY","address":"Carrer del Consell de Cent, 597, Sant Mart\u00ed, 08026 Barcelona","website":"NO_WEBSITE","email":null,"phone":"NO_PHONE","reviews_rating":5.0,"num_reviews":1,"description":"NOT_FOUND","schedule":"NOT_FOUND","auxiliar(borrar)":"NOT_FOUND","img1":"https:\/\/streetviewpixels-pa.googleapis.com\/v1\/thumbnail?panoid=iFhRCb-cT55UZKhNQl0Omg&cb_client=search.gws-prod.gps&w=80&h=92&yaw=326.0522&pitch=0&thumbfov=100","img2":"https:\/\/streetviewpixels-pa.googleapis.com\/v1\/thumbnail?panoid=iFhRCb-cT55UZKhNQl0Omg&cb_client=search.gws-prod.gps&w=408&h=240&yaw=326.0522&pitch=0&thumbfov=100"},{"name":"Nave La Pau","category":"Club nocturno","city":"NO_CITY","address":"Rambla de Prim, 263, Sant Mart\u00ed, 08020 Barcelona","website":"NO_WEBSITE","email":null,"phone":"NO_PHONE","reviews_rating":5.0,"num_reviews":1,"description":"NOT_FOUND","schedule":[{"day":"viernes","hours":"Cerrado"},{"day":"s\u00e1bado","hours":"Abierto 24 horas"},{"day":"domingo","hours":"Abierto 24 horas"},{"day":"lunes","hours":"Cerrado"},{"day":"martes","hours":"Cerrado"},{"day":"mi\u00e9rcoles","hours":"Cerrado"},{"day":"jueves","hours":"Cerrado"}],"auxiliar(borrar)":"NOT_FOUND","img1":"https:\/\/streetviewpixels-pa.googleapis.com\/v1\/thumbnail?panoid=tDMdktUE-OzBlo2t2PchtQ&cb_client=search.gws-prod.gps&w=80&h=92&yaw=199.92218&pitch=0&thumbfov=100","img2":"https:\/\/streetviewpixels-pa.googleapis.com\/v1\/thumbnail?panoid=tDMdktUE-OzBlo2t2PchtQ&cb_client=search.gws-prod.gps&w=408&h=240&yaw=199.92218&pitch=0&thumbfov=100"},{"name":"KRAW CLUB","category":"Discoteca","city":"NO_CITY","address":"Passatge Can Pol\u00edtic, 13, 08907 L'Hospitalet de Llobregat, Barcelona","website":"instagram.com","email":"NO_EMAIL","phone":"NO_PHONE","reviews_rating":5.0,"num_reviews":1,"description":"NOT_FOUND","schedule":"NOT_FOUND","auxiliar(borrar)":"NOT_FOUND","img1":"https:\/\/lh5.googleusercontent.com\/p\/AF1QipONDWEZdj8cqC_SN5mi0g63kR-IPwUGXWNO-O-U=w80-h106-k-no","img2":"https:\/\/streetviewpixels-pa.googleapis.com\/v1\/thumbnail?panoid=0wzWoPWdGihLFKe8gcEVQQ&cb_client=search.gws-prod.gps&w=408&h=240&yaw=64.09623&pitch=0&thumbfov=100"}]